date,time,lat,lon,alt,x_gyro,y_gyro,z_gyro,x_acc,y_acc,z_acc,north,east,down,pitch,yaw,roll,wind_speed,wind_direction
2020-06-15,17:33:08,22.9021756,120.2733492,0.039,0,0,0,-10,31,-999,0.009083330631256100,0.07660579681396480,-0.039420127868652300,-0.025919277220964400,-0.518206000328064,-0.023496132344007500,0,0
2020-06-15,17:33:11,22.9021759,120.2733413,0.898,-177,48,-635,-121,46,-1032,0.036134183406829800,-0.7303749322891240,-0.8987140655517580,-0.11024229228496600,-0.5944032073020940,-0.084481380879879,0,0
2020-06-15,17:33:14,22.9021885,120.2732694,5.646,-117,-30,-12,-149,62,-969,1.4422461986541700,-8.105372428894040,-5.646229267120360,-0.21660080552101100,-1.5001083612442000,0.004885711707174780,0,0
2020-06-15,17:33:17,22.9022043,120.273152,11.579,34,-28,7,-163,-1,-974,3.199021100997930,-20.14932632446290,-11.579057693481400,-0.16879352927207900,-1.4843590259552000,-0.019032452255487400,0,0
2020-06-15,17:33:20,22.9022157,120.2730426,17.239,-51,38,-2,-92,29,-971,4.47469425201416,-31.3631591796875,-17.23933219909670,-0.16435346007347100,-1.4363460540771500,-0.003565254621207710,0,0
2020-06-15,17:33:23,22.9022083,120.2729298,20.263,46,7,-45,-22,-19,-922,3.65047287940979,-42.93158721923830,-20.26304817199710,-0.1530064195394520,-1.9008375406265300,-0.015223833732307000,0,0
2020-06-15,17:33:26,22.9021663,120.272819,20.402,20,-159,-9,-110,-23,-985,-1.0418579578399700,-54.29256057739260,-20.402406692504900,-0.17772670090198500,-2.0390896797180200,-0.002538807690143590,0,0
2020-06-15,17:33:29,22.9021184,120.2727177,20.123,62,61,102,-153,-1,-951,-6.373285293579100,-64.67829895019530,-20.123167037963900,-0.006203093566000460,-2.0050950050354000,0.028346605598926500,0,0
2020-06-15,17:33:32,22.9021207,120.2726964,19.771,18,63,1124,-29,74,-911,-6.114429473876950,-66.85868835449220,-19.771221160888700,-0.09057557582855230,-1.5937801599502600,0.1297183334827420,0,0
2020-06-15,17:33:35,22.9022093,120.2726941,19.879,-128,-33,-2,-79,96,-955,2.691835641860960,-66.98419952392580,-19.8409366607666,-0.13226613402366600,-0.064335398375988,-0.08931591361761090,0,0
2020-06-15,17:33:38,22.9023062,120.272687,20.183,89,36,591,-105,139,-965,14.541803359985400,-67.82583618164060,-20.183725357055700,0.010716313496232000,0.35737869143486000,0.07738872617483140,0,0
2020-06-15,17:33:41,22.9023242,120.2727386,20.139,-35,-62,13,-31,27,-985,16.549638748168900,-62.54038619995120,-20.139184951782200,-0.09632235765457150,1.466042399406430,-0.019788723438978200,0,0
2020-06-15,17:33:44,22.9023231,120.2728501,20.168,35,89,-74,-51,85,-974,16.423200607299800,-51.098060607910200,-20.168811798095700,-0.06898590922355650,1.485377311706540,-0.07631031423807140,0,0
2020-06-15,17:33:47,22.9023267,120.2729928,20.182,51,16,-23,-33,25,-1011,16.821544647216800,-36.467628479003900,-20.18265151977540,-0.046017877757549300,1.5229860544204700,-0.06624127924442290,0,0
2020-06-15,17:33:50,22.9023321,120.2731274,20.295,60,10,107,-59,37,-990,17.42170524597170,-22.67217254638670,-20.29501724243160,-0.07600884139537810,1.5183444023132300,-0.009906367398798470,0,0
2020-06-15,17:33:53,22.9023353,120.2732686,20.755,-36,23,-25,-12,36,-1111,17.786142349243200,-8.184282302856450,-20.755874633789100,0.05067843198776250,1.5622938871383700,0.026363514363765700,0,0
2020-06-15,17:33:56,22.9023367,120.2733196,25.755,0,-65,-23,-8,-18,-1001,17.933591842651400,-2.9632973670959500,-25.7559814453125,0.07005354762077330,1.5418219566345200,0.007948242127895360,0,0
2020-06-15,17:33:59,22.9023264,120.273321,29.747,108,1,11,43,-143,-1012,16.790237426757800,-2.8158040046691900,-29.74728775024410,0.027870401740074200,1.5304782390594500,0.08509448170661930,0,0
2020-06-15,17:34:02,22.9022596,120.2733316,30.119,-101,8,-39,87,-42,-1001,9.285834312438970,-1.7118192911148100,-30.120912551879900,0.04093361645936970,1.595592975616460,0.09028586000204090,0,0
2020-06-15,17:34:05,22.9021754,120.2733515,30.201,199,31,118,59,-86,-1087,-0.021962344646453900,0.3163033723831180,-30.201984405517600,0.13295236229896500,1.5063998699188200,-0.17997871339321100,0,0
2020-06-15,17:43:58,22.9030176,120.2731341,-0.107,5,0,-2,39,36,-998,-0.055970191955566400,-0.1497650146484380,0.10773098468780500,0.03040139749646190,-2.155477285385130,-0.0062067462131381000,0,0
2020-06-15,17:44:01,22.9030175,120.2731333,-0.147,-5,-5,-3,48,5,-995,-0.06816864013671880,-0.23113632202148400,0.14789330959320100,0.03145071119070050,-2.156339168548580,-0.006812690757215020,0,0
2020-06-15,17:44:04,22.9030169,120.2731152,0.979,-25,-51,-193,-47,39,-1022,-0.14368629455566400,-2.0835704803466800,-0.9793864488601690,-0.19709202647209200,-1.7863610982894900,0.0029345224611461200,0,0
2020-06-15,17:44:07,22.9030086,120.2730245,5.874,15,-79,-36,-187,-29,-980,-1.068333625793460,-11.383600234985400,-5.874392986297610,-0.17606806755065900,-1.7631295919418300,-0.006426719017326830,0,0
2020-06-15,17:44:10,22.9029888,120.2729073,11.282,20,0,42,-127,-32,-981,-3.2710795402526900,-23.400863647460900,-11.282770156860400,-0.1591167449951170,-1.6684329509735100,0.0379045344889164,0,0
2020-06-15,17:44:13,22.9029778,120.2727851,16.639,102,29,-4,-186,18,-1008,-4.492391586303710,-35.937992095947300,-16.639019012451200,-0.15345759689807900,-1.6582525968551600,-0.010430184192955500,0,0
2020-06-15,17:44:16,22.9029663,120.2726863,20.12,-14,57,-2,-56,18,-953,-5.772420406341550,-46.06830978393560,-20.120939254760700,0.029496539384126700,-1.6223217248916600,-0.007188647054135800,0,0
2020-06-15,17:44:19,22.9029448,120.2726667,19.818,-72,11,76,-57,80,-976,-8.15976333618164,-48.07596969604490,-19.818212509155300,-0.0023280903697013900,-1.6747699975967400,-0.08272510021924970,0,0
2020-06-15,17:44:22,22.9028747,120.2726916,20.013,-70,6,-46,-93,40,-961,-15.980804443359400,-45.526981353759800,-20.01361846923830,-0.09676025807857510,2.8859362602233900,0.04253757745027540,0,0
2020-06-15,17:44:25,22.902775,120.2727217,20.198,-64,266,-87,-106,-32,-1030,-27.077238082885700,-42.43449783325200,-20.19864845275880,-0.06125565245747570,2.8981740474700900,0.03970053419470790,0,0
2020-06-15,17:44:28,22.9027022,120.2727917,20.144,40,130,-332,-27,-51,-1008,-35.17774200439450,-35.25608825683590,-20.14478874206540,-0.00828099437057972,1.6947383880615200,-0.048048235476017,0,0
2020-06-15,17:44:31,22.9026985,120.2729031,19.87,20,-24,100,-4,-8,-961,-35.58964157104490,-23.834449768066400,-19.870607376098600,-0.0016370397061109500,1.5270274877548200,0.0013170894235372500,0,0
2020-06-15,17:44:34,22.9027085,120.2730277,20.097,46,115,165,13,48,-999,-34.4833869934082,-11.056013107299800,-20.097028732299800,-0.027769744396209700,1.5189512968063400,-0.004080533050000670,0,0
2020-06-15,17:44:37,22.9027135,120.2731335,21.958,121,46,11,9,-11,-1096,-33.929283142089800,-0.21332359313964800,-21.958890914917000,0.10330530256032900,1.471861720085140,-0.038727615028619800,0,0
2020-06-15,17:44:40,22.9027204,120.273162,28.305,-131,-1,38,96,67,-880,-33.151668548584000,2.7112560272216800,-28.305509567260700,0.10776303708553300,1.5049294233322100,-0.04559185728430750,0,0
2020-06-15,17:44:43,22.9027436,120.2731622,30.166,-67,-14,27,153,80,-942,-30.57842254638670,2.730470657348630,-30.166126251220700,0.1285177767276760,1.5174635648727400,-0.1241622194647790,0,0
2020-06-15,17:44:46,22.9028257,120.2731544,30.227,-124,11,2,121,181,-927,-21.43068504333500,1.9321155548095700,-30.227561950683600,0.10880327224731400,1.4971245527267500,-0.13114745914936100,0,0
2020-06-15,17:44:49,22.9029449,120.2731411,29.984,-9,10,-39,148,128,-900,-8.149290084838870,0.5643177032470700,-29.98421287536620,0.10530266910791400,1.469922423362730,-0.02604367583990100,0,0
2020-06-15,17:44:52,22.9030106,120.273131,30.215,-91,-72,65,20,53,-970,-0.8434963226318360,-0.464996337890625,-30.21550178527830,0.02849879488348960,1.4437696933746300,0.05989987775683400,0,0
2020-06-15,17:44:55,22.9030175,120.273134,29.943,0,-19,-1,62,38,-1007,-0.067962646484375,-0.157501220703125,-29.94396209716800,0.03218264505267140,1.545776128768920,-0.03314213827252390,0,0
2020-06-15,17:44:58,22.9030194,120.2731357,29.174,65,34,5,87,22,-905,0.13683128356933600,0.01230621337890630,-29.174592971801800,0.02035493776202200,1.5448118448257400,-0.005013731308281420,0,0
2020-06-15,17:45:01,22.9030176,120.2731358,24.491,-14,-42,-60,-12,81,-977,-0.06470298767089840,0.028162002563476600,-24.491130828857400,0.04442935436964040,1.5233337879180900,-0.04969492927193640,0,0
2020-06-15,17:45:04,22.9030184,120.2731364,20.378,37,-49,-49,103,-35,-971,0.031355857849121100,0.0900421142578125,-20.378416061401400,0.05750362575054170,1.539848804473880,-0.03340821713209150,0,0
2020-06-15,17:45:07,22.9030172,120.2731357,15.608,128,-52,-28,75,127,-938,-0.10843658447265600,0.016923904418945300,-15.608518600463900,0.027848180383443800,1.5441395044326800,-0.03400097414851190,0,0
2020-06-15,17:45:10,22.9030178,120.2731346,11.047,-86,108,-24,46,85,-966,-0.03540325164794920,-0.09853172302246090,-11.047826766967800,0.04140947386622430,1.5464996099472000,-0.027675505727529500,0,0
2020-06-15,17:45:13,22.9030174,120.2731345,9.038,4,35,-3,40,104,-960,-0.08785438537597660,-0.1119842529296880,-9.038395881652830,0.040663670748472200,1.5010223388671900,-0.049887482076883300,0,0
2020-06-15,17:45:16,22.9030182,120.273137,7.607,67,46,20,84,-34,-1016,0.0009469985961914060,0.15136337280273400,-7.607261657714840,0.0830148309469223,1.498666524887090,-0.06597160547971730,0,0
2020-06-15,17:45:19,22.9030187,120.2731358,6.064,57,-24,-34,86,-11,-1034,0.05986785888671880,0.02887725830078130,-6.0648393630981400,0.03208883851766590,1.5380237102508500,-0.01890547201037410,0,0
2020-06-15,17:45:22,22.9030179,120.2731364,4.502,102,-34,13,43,67,-971,-0.03225421905517580,0.08902549743652340,-4.502050399780270,0.04626605659723280,1.4903035163879400,-0.01912182942032810,0,0
2020-06-15,17:45:25,22.9030191,120.2731349,2.867,-36,20,70,40,59,-1032,0.1025533676147460,-0.06485748291015630,-2.8675904273986800,0.02277834713459020,1.5065399408340500,-0.010892319492995700,0,0
2020-06-15,17:45:28,22.9030172,120.273136,1.279,143,-16,31,38,-82,-1022,-0.10415172576904300,0.05020713806152340,-1.279831886291500,0.025612127035856200,1.5091090202331500,-0.03285093232989310,0,0
2020-06-15,17:45:31,22.9030186,120.2731354,0.267,-10,-9,-3,-11,30,-1014,0.051939964294433600,-0.0119171142578125,-0.2679482698440550,-0.0014280248433351500,1.5133280754089400,-0.012741242535412300,0,0
2020-06-15,17:47:02,22.9030175,120.2731347,-0.04,2,-1,0,-2,25,-998,0.0778207778930664,-0.07423782348632810,0.040911197662353500,-0.0215107761323452,1.4924373626709000,-0.015542767010629200,0,0
2020-06-15,17:47:05,22.9030186,120.2731327,-0.034,2,0,-8,-8,41,-996,0.1905364990234380,-0.2803058624267580,0.03429460525512700,-0.021253079175949100,1.4929783344268800,-0.014670650474727200,0,0
2020-06-15,17:47:08,22.9030189,120.2731317,1.62,-14,92,26,7,4,-1090,0.23369598388671900,-0.3882770538330080,-1.6203731298446700,-0.0018549086526036300,1.4361014366149900,-0.0030857613310217900,0,0
2020-06-15,17:47:11,22.903018,120.2731328,7.776,-13,-12,-4,32,75,-970,0.130950927734375,-0.26712799072265600,-7.776252746582030,0.022056829184293700,1.4619899988174400,-0.03545632213354110,0,0
2020-06-15,17:47:14,22.9030197,120.2731321,15.193,-58,60,28,87,-38,-1031,0.3216524124145510,-0.34798622131347700,-15.193119049072300,0.016159437596797900,1.4604692459106400,0.015027036890387500,0,0
2020-06-15,17:47:17,22.9030171,120.2731301,19.686,120,-39,-1186,41,23,-931,0.029201507568359400,-0.5524978637695310,-19.68604850769040,0.1228288859128950,0.8291521668434140,-0.1068100556731220,0,0
2020-06-15,17:47:20,22.9030137,120.2730875,20.407,110,-228,105,-87,-40,-899,-0.35434436798095700,-4.921138763427730,-20.4075984954834,-0.15244220197200800,-1.6963530778884900,0.00239516980946064,0,0
2020-06-15,17:47:23,22.9030083,120.2730257,20.31,150,-15,33,-131,-79,-988,-0.9535341262817380,-11.252147674560500,-20.31082534790040,-0.13554033637046800,-1.8245899677276600,0.04479275271296500,0,0
2020-06-15,17:47:26,22.9030011,120.2729696,19.998,3,0,37,-121,4,-1006,-1.7517452239990200,-17.007720947265600,-19.998472213745100,-0.1543843299150470,-1.8163646459579500,0.0038043889217078700,0,0
2020-06-15,17:47:29,22.9029911,120.2729073,19.89,-35,-23,-102,-149,2,-1007,-2.867647171020510,-23.391895294189500,-19.890480041503900,-0.1348806619644170,-1.673389196395870,0.02179783210158350,0,0
2020-06-15,17:47:32,22.902985,120.2728503,19.977,-10,-6,84,-143,-14,-1043,-3.545274257659910,-29.24236297607420,-19.97755241394040,-0.10475132614374200,-1.771791934967040,-0.005207929760217670,0,0
2020-06-15,17:47:35,22.9029767,120.2727862,20.066,-39,-154,-130,-55,-59,-974,-4.474358081817630,-35.81178283691410,-20.066123962402300,-0.09148204326629640,-1.7208962440490700,-0.011777148582041300,0,0
2020-06-15,17:47:38,22.9029698,120.2727293,20.022,56,65,107,-43,30,-975,-5.236294269561770,-41.65177917480470,-20.02294158935550,-0.0733608603477478,-1.7105107307434100,0.013303825631737700,0,0
2020-06-15,17:47:41,22.9029602,120.2726691,20.049,141,10,22,-158,-80,-1036,-6.305241107940670,-47.81808853149410,-20.049375534057600,-0.003585219383239750,-1.5876160860061600,0.039200179278850600,0,0
2020-06-15,17:47:44,22.9029378,120.2726726,19.729,109,205,346,47,-129,-1048,-8.795426368713380,-47.45876693725590,-19.729511260986300,-0.07515041530132290,2.4995005130767800,0.06067457050085070,0,0
2020-06-15,17:47:47,22.9028946,120.272703,19.917,80,39,0,125,-62,-974,-13.615592002868700,-44.34870910644530,-19.917240142822300,0.003418564796447750,2.669548511505130,0.0723043754696846,0,0
2020-06-15,17:47:50,22.9028486,120.2727318,20.081,25,26,27,16,-90,-1021,-18.739521026611300,-41.38764190673830,-20.081510543823200,0.00014837831258773800,2.6429409980773900,0.05050737410783770,0,0
2020-06-15,17:47:53,22.9028036,120.2727615,20.128,-10,66,-40,-21,-125,-1062,-23.74643325805660,-38.341121673584000,-20.128332138061500,0.016954530030489000,2.6218762397766100,0.06815541535615920,0,0
2020-06-15,17:47:56,22.902754,120.2727902,20.135,-3,28,304,-10,-107,-1015,-29.26751708984380,-35.40792465209960,-20.135292053222700,-0.0038134343922138200,2.83048415184021,0.11784586310386700,0,0
2020-06-15,17:47:59,22.9027071,120.2727942,20.115,75,50,-58,-16,-93,-1013,-34.496192932128900,-34.992332458496100,-20.115570068359400,-0.0433039590716362,3.0405914783477800,0.06604156643152240,0,0
2020-06-15,17:48:02,22.902655,120.2727954,19.913,83,-40,44,-61,-29,-963,-40.287296295166000,-34.865684509277300,-19.913631439209000,-0.043517470359802200,3.0335898399353000,0.054711028933525100,0,0
2020-06-15,17:48:05,22.9025972,120.2727996,20.106,108,53,30,-77,-43,-1002,-46.72517395019530,-34.442386627197300,-20.106338500976600,-0.04474365711212160,-3.1346828937530500,0.06917937844991680,0,0
2020-06-15,17:48:08,22.9025702,120.2728206,20.037,-37,21,-123,43,-14,-1080,-49.736061096191400,-32.28522491455080,-20.037160873413100,-0.05256301909685140,1.4219779968261700,-0.033796947449445700,0,0
2020-06-15,17:48:11,22.9025746,120.2728857,19.906,-36,-26,130,54,81,-931,-49.237937927246100,-25.611709594726600,-19.90672492980960,0.03582044318318370,1.4411430358886700,0.009316516108810900,0,0
2020-06-15,17:48:14,22.9025785,120.2729366,20.026,-32,54,-74,13,-68,-1012,-48.80857467651370,-20.35223388671880,-20.027055740356400,0.0055720005184412,1.5266624689102200,-0.017278507351875300,0,0
2020-06-15,17:48:17,22.9025784,120.2729983,20.255,30,47,-70,42,102,-947,-48.82247543334960,-14.066272735595700,-20.25577163696290,0.042259398847818400,1.422691822052000,-0.06774728000164030,0,0
2020-06-15,17:48:20,22.9025828,120.2730525,19.966,-143,33,-3,52,87,-1027,-48.331748962402300,-8.501848220825200,-19.96677017211910,0.010172957554459600,1.4063260555267300,-0.0479857362806797,0,0
2020-06-15,17:48:23,22.9025871,120.2731106,19.968,134,42,57,48,-23,-1078,-47.85255432128910,-2.543193817138670,-19.968852996826200,0.02418283000588420,1.474538803100590,-0.06021135672926900,0,0
2020-06-15,17:48:26,22.902592,120.2731602,21.156,141,47,123,49,-15,-1128,-47.30767822265630,2.533876419067380,-21.15690803527830,0.1042574942111970,1.434169054031370,-0.02285090461373330,0,0
2020-06-15,17:48:29,22.9025901,120.2731622,26.86,64,-28,-39,91,22,-923,-47.520042419433600,2.7378835678100600,-26.903291702270500,0.08770258724689480,1.482728123664860,-0.029260024428367600,0,0
2020-06-15,17:48:32,22.902603,120.2731618,29.917,-16,-27,-10,91,46,-1008,-46.08393478393560,2.6982574462890600,-29.91782569885250,0.10047796368598900,1.5317978858947800,-0.13123401999473600,0,0
2020-06-15,17:48:35,22.9026821,120.2731583,29.907,-15,196,91,113,105,-906,-37.19451141357420,2.3353710174560500,-29.909343719482400,0.10802760720253000,1.4508583545684800,-0.16095209121704100,0,0
2020-06-15,17:48:38,22.9027889,120.2731515,29.928,25,-69,-21,176,112,-1025,-25.389537811279300,1.6451873779296900,-29.928112030029300,0.12170581519603700,1.4511972665786700,-0.15754950046539300,0,0
2020-06-15,17:48:41,22.9029076,120.2731412,30.009,11,0,-25,111,226,-901,-12.169883728027300,0.5911731719970700,-30.009204864502000,0.08157308399677280,1.3972529172897300,-0.1383933424949650,0,0
2020-06-15,17:48:44,22.9030044,120.2731342,30.097,60,-77,42,90,30,-1045,-1.387465476989750,-0.12984657287597700,-30.09786033630370,0.06374336034059530,1.5465655326843300,0.0813603475689888,0,0
2020-06-15,17:48:47,22.9030166,120.2731344,30.215,70,-83,-16,51,41,-959,-0.02801513671875,-0.11011314392089800,-30.215208053588900,0.07114192843437200,1.5175445079803500,0.010922446846962000,0,0
2020-06-15,17:48:50,22.9030153,120.2731351,29.613,11,-136,50,116,-6,-888,-0.17608356475830100,-0.03143119812011720,-29.613670349121100,0.025339309126138700,1.5699518918991100,-0.05623374506831170,0,0
2020-06-15,17:48:53,22.9030166,120.2731366,24.886,-80,-187,250,109,30,-971,-0.029726028442382800,0.115264892578125,-24.88616180419920,0.02924918755888940,1.502975344657900,-0.028155263513326600,0,0
2020-06-15,17:48:56,22.9030173,120.2731369,20.849,-231,-224,12,14,10,-990,0.05260181427001950,0.14731597900390600,-20.849504470825200,0.028289690613746600,1.5301973819732700,-0.033431459218263600,0,0
2020-06-15,17:48:59,22.9030161,120.2731359,16.157,-82,-60,-25,60,72,-1002,-0.07848358154296880,0.04876708984375,-16.15777015686040,0.045604441314935700,1.5092668533325200,-0.030435726046562200,0,0
2020-06-15,17:49:02,22.9030152,120.2731354,11.952,-54,92,57,36,96,-960,-0.18515777587890600,-0.0065155029296875,-11.952215194702100,0.03654611110687260,1.5731216669082600,-0.07410961389541630,0,0
2020-06-15,17:49:05,22.9030166,120.2731354,9.213,-49,-55,-75,47,60,-995,-0.023557662963867200,-0.0014286041259765600,-9.2130126953125,0.012294096872210500,1.4932054281234700,-0.02334132045507430,0,0
2020-06-15,17:49:08,22.9030161,120.2731343,7.575,74,-31,-3,-31,-69,-1034,-0.08551692962646480,-0.12136459350585900,-7.5759501457214400,-0.029309477657079700,1.5418699979782100,-0.0355132520198822,0,0
2020-06-15,17:49:11,22.9030165,120.273137,6.148,4,-39,26,20,59,-1006,-0.03659343719482420,0.15510177612304700,-6.137577056884770,-0.021116206422448200,1.5101679563522300,-0.02452559396624570,0,0
2020-06-15,17:49:14,22.9030163,120.2731376,4.623,0,-10,6,-6,67,-978,-0.05948829650878910,0.21652984619140600,-4.623717784881590,0.024032030254602400,1.488152265548710,-0.019635256379842800,0,0
2020-06-15,17:49:17,22.9030151,120.2731342,3.165,157,-6,-15,-31,12,-1036,-0.20013141632080100,-0.12496757507324200,-3.1653525829315200,-0.011403189972043000,1.4916627407074000,-0.05615469440817830,0,0
2020-06-15,17:49:20,22.9030163,120.2731368,1.525,10,52,-112,103,121,-970,-0.061575889587402300,0.13965797424316400,-1.5257682800293000,-0.0007407646626234060,1.553141713142400,-0.03916328772902490,0,0
2020-06-15,17:49:23,22.9030164,120.2731363,0.188,74,126,60,41,-62,-1008,-0.050571441650390600,0.08471870422363280,-0.17619872093200700,0.018359769135713600,1.5863392353057900,-0.019277971237897900,0,0
2020-06-15,17:54:12,22.9030479,120.2731223,-0.038,2,-1,0,5,-14,-999,0.08542156219482420,-0.04291534423828130,0.03882026672363280,-0.011557345278561100,-1.2224178314209000,0.028613388538360600,0,0
2020-06-15,17:54:15,22.9030467,120.2731226,-0.122,13,0,6,16,-12,-996,-0.0459136962890625,-0.020023345947265600,0.12270325422287000,-0.01094859465956690,-1.2228984832763700,0.0281500443816185,0,0
2020-06-15,17:54:18,22.9030239,120.2731182,1.042,41,22,-1207,14,-53,-1057,-2.5909929275512700,-0.46887969970703100,-1.0429482460022000,-0.06142246723175050,-1.9610813856124900,-0.06883962452411650,0,0
2020-06-15,17:54:21,22.9029313,120.273099,6.829,-89,-38,76,-48,42,-996,-12.895124435424800,-2.432842254638670,-6.829510688781740,-0.1179533302783970,-3.041712999343870,0.03726040571928020,0,0
2020-06-15,17:54:24,22.9028287,120.2730835,12.329,45,58,20,0,-59,-1013,-24.33186149597170,-4.026287078857420,-12.329447746276900,-0.06180543079972270,-2.999467611312870,0.06435229629278180,0,0
2020-06-15,17:54:27,22.9027203,120.2730637,18.045,41,14,-25,-114,-45,-1024,-36.393306732177700,-6.059812545776370,-18.04531478881840,-0.09077449887990950,-2.972919464111330,0.06464404612779620,0,0
2020-06-15,17:54:30,22.9026529,120.2730495,20.164,41,103,-150,9,-109,-1037,-43.89584732055660,-7.514291763305660,-20.164806365966800,0.05966901034116750,-2.6903908252716100,0.17572546005249000,0,0
2020-06-15,17:54:33,22.9026778,120.2730034,20.288,5,-95,-72,-178,36,-1011,-41.12200927734380,-12.234254837036100,-20.288314819335900,-0.2445528507232670,-1.1714484691619900,-0.028190020471811300,0,0
2020-06-15,17:54:36,22.9027261,120.2729012,20.17,53,-19,74,-161,7,-996,-35.74501419067380,-22.71329689025880,-20.17093276977540,-0.1669645607471470,-1.0902833938598600,-0.019042793661356000,0,0
2020-06-15,17:54:39,22.9027868,120.2727755,20.008,62,52,-18,-166,-5,-1011,-28.99673080444340,-35.60723114013670,-20.008590698242200,-0.14377222955226900,-1.0349948406219500,-0.029578067362308500,0,0
2020-06-15,17:54:42,22.9028452,120.2726601,20.055,-56,292,-63,-75,131,-983,-22.493621826171900,-47.44551086425780,-20.05517578125,-0.06374244391918180,-1.007010579109190,-0.0005269469693303110,0,0
2020-06-15,17:54:45,22.9028928,120.2725927,19.702,-33,-29,-150,-4,-18,-1043,-17.197834014892600,-54.357383728027300,-19.70235824584960,-0.014701863750815400,-0.30630189180374100,0.11830169707536700,0,0
2020-06-15,17:54:48,22.9029394,120.2726375,19.885,-44,62,39,-88,93,-969,-11.997385025024400,-49.760414123535200,-19.885555267334000,-0.13559535145759600,0.6708341240882870,-0.0330623984336853,0,0
2020-06-15,17:54:51,22.9030179,120.2727169,20.182,13,-14,45,-83,24,-1053,-3.253350257873540,-41.61469268798830,-20.182540893554700,-0.10402671247720700,0.698676586151123,-0.052006881684064900,0,0
2020-06-15,17:54:54,22.9031062,120.2728044,20.375,-4,26,30,-35,64,-1093,6.578827857971190,-32.63953399658200,-20.375988006591800,0.033768244087696100,0.7435578107833860,-0.07459892332553860,0,0
2020-06-15,17:54:57,22.9031495,120.2728396,25.727,-62,-51,0,33,105,-1023,11.395495414733900,-29.032217025756800,-25.727718353271500,0.07439576834440230,0.6712859272956850,-0.03729758411645890,0,0
2020-06-15,17:55:00,22.9031442,120.2728505,29.742,-31,9,37,-22,73,-953,10.799040794372600,-27.91689109802250,-29.742530822753900,-0.01660277508199220,0.7055937647819520,0.025758955627679800,0,0
2020-06-15,17:55:03,22.9031172,120.2729129,30.053,62,-17,20,31,-84,-999,7.800322532653810,-21.522268295288100,-30.053794860839800,-0.050231896340847000,0.7241211533546450,0.027508452534675600,0,0
2020-06-15,17:55:06,22.9030768,120.2730308,30.056,19,29,-34,4,-41,-1012,3.304080009460450,-9.429367065429690,-30.056602478027300,-0.017093900591135000,0.698758602142334,0.013589320704340900,0,0
2020-06-15,17:55:09,22.9030514,120.2731157,30.11,17,-6,15,10,-67,-1034,0.47292041778564500,-0.7230606079101560,-30.110233306884800,0.0743093192577362,0.6920342445373540,-0.14663001894950900,0,0
2020-06-15,17:55:12,22.9030475,120.273123,30.299,11,17,41,58,63,-943,0.04133415222167970,0.02535247802734380,-30.299522399902300,0.015569567680358900,0.6728504300117490,-0.08941935002803800,0,0
2020-06-15,17:55:15,22.9030457,120.2731248,29.529,8,-28,-32,37,130,-909,-0.16149616241455100,0.2104625701904300,-29.52904510498050,0.022068314254283900,0.6884442567825320,-0.0977485328912735,0,0
2020-06-15,17:55:18,22.9030458,120.2731223,25.373,-123,40,30,98,58,-968,-0.15155792236328100,-0.045673370361328100,-25.373329162597700,0.003820156678557400,0.6812118887901310,-0.04338588938117030,0,0
2020-06-15,17:55:21,22.9030449,120.273122,20.216,-224,-119,91,-19,102,-1039,-0.2506589889526370,-0.07401657104492190,-20.21625518798830,0.0038816481828689600,0.7401565313339230,-0.09531345963478090,0,0
2020-06-15,17:55:24,22.9030454,120.273122,15.805,46,-123,-10,-23,16,-1022,-0.19303512573242200,-0.07952308654785160,-15.805870056152300,-0.01336972787976270,0.7298107147216800,-0.05154913291335110,0,0
2020-06-15,17:55:27,22.9030482,120.2731233,11.329,48,53,-87,19,-42,-1005,0.12116241455078100,0.0544281005859375,-11.329826354980500,0.010351978242397300,0.7116701006889340,-0.008373654447495940,0,0
2020-06-15,17:55:30,22.9030459,120.2731232,9.18,-27,51,-55,-29,127,-966,-0.13918113708496100,0.043182373046875,-9.180375099182130,-0.015980858355760600,0.7202504873275760,-0.025087624788284300,0,0
2020-06-15,17:55:33,22.9030465,120.2731228,7.676,29,-44,3,-62,-14,-981,-0.06916999816894530,0.0004444122314453130,-7.676036834716800,-0.02360406517982480,0.7176295518875120,-0.03197864443063740,0,0
2020-06-15,17:55:36,22.9030449,120.2731236,6.163,35,-2,18,-38,36,-977,-0.24905776977539100,0.092132568359375,-6.163026809692380,-0.03534470498561860,0.6999425888061520,-0.04466645047068600,0,0
2020-06-15,17:55:39,22.9030469,120.2731241,4.632,70,-38,-12,-34,-32,-1000,-0.029108047485351600,0.13343048095703100,-4.632352828979490,-0.0029150545597076400,0.7086895108222960,-0.03306794911623000,0,0
2020-06-15,17:55:42,22.9030462,120.2731234,3.177,-95,31,-8,11,107,-1002,-0.10257148742675800,0.06614112854003910,-3.177633285522460,-0.01530278380960230,0.7271333932876590,-0.03684448078274730,0,0
2020-06-15,17:55:45,22.9030464,120.2731234,1.551,-19,-34,9,9,62,-1005,-0.08897686004638670,0.06435394287109380,-1.5516053438186600,-0.016879454255104100,0.6971111297607420,-0.02941349893808370,0,0
2020-06-15,17:55:48,22.9030458,120.2731232,0.342,26,7,1,-33,-16,-1001,-0.15111351013183600,0.048175811767578100,-0.34217914938926700,-0.03831227496266370,0.7573285698890690,0.007857115939259530,0,0
2020-06-15,17:57:11,22.9030265,120.2731241,0.034,0,0,0,-9,-10,-998,-0.15279769897460900,-0.13483428955078100,-0.03473927080631260,-0.025820765644311900,0.7565740942955020,0.016249168664217000,0,0
2020-06-15,17:57:14,22.9030255,120.2731228,0.027,3,-2,0,-7,-1,-996,-0.260467529296875,-0.2698535919189450,-0.027719497680664100,-0.026843475177884100,0.7578213214874270,0.016469154506921800,0,0
2020-06-15,17:57:17,22.9030244,120.2731237,2.583,-47,56,0,25,36,-1021,-0.38544750213623000,-0.17908477783203100,-2.5839314460754400,-0.02879127487540250,0.6826228499412540,-0.04481344297528270,0,0
2020-06-15,17:57:20,22.9030261,120.2731231,9.411,43,12,-15,11,-44,-1015,-0.19130897521972700,-0.24262046813964800,-9.411958694458010,-0.014902285300195200,0.706296980381012,-0.043067049235105500,0,0
2020-06-15,17:57:23,22.9030265,120.273123,16.469,76,35,-48,31,52,-982,-0.14476394653320300,-0.25440406799316400,-16.46934700012210,-0.0003375774249434470,0.7292428016662600,-0.023956697434186900,0,0
2020-06-15,17:57:26,22.9030183,120.2731243,19.827,75,31,1068,68,-111,-957,-1.0846805572509800,-0.11327743530273400,-19.83646583557130,-0.03739393502473830,2.162930727005010,0.08854489773511890,0,0
2020-06-15,17:57:29,22.9029685,120.2731276,20.081,34,-45,13,-51,-16,-1004,-6.605022430419920,0.2202777862548830,-20.081172943115200,-0.060826625674963,2.9740371704101600,0.022744979709386800,0,0
2020-06-15,17:57:32,22.9029181,120.2731341,20.1,8,-30,133,-71,-42,-998,-12.217589378356900,0.8889541625976560,-20.100528717041000,-0.06275540590286260,3.0246825218200700,0.06902407854795460,0,0
2020-06-15,17:57:35,22.9028688,120.2731385,19.999,24,0,5,-1,-91,-1021,-17.719635009765600,1.3396759033203100,-19.999074935913100,-0.06243006885051730,2.9898829460144000,0.030055779963731800,0,0
2020-06-15,17:57:38,22.9028137,120.2731444,20.063,-24,20,31,11,50,-961,-23.848255157470700,1.947122573852540,-20.06330680847170,-0.02822212316095830,3.018430709838870,0.04578416049480440,0,0
2020-06-15,17:57:41,22.9027621,120.2731499,20.01,174,69,415,52,-84,-1013,-29.589351654052700,2.5093517303466800,-20.01079750061040,0.026988379657268500,-3.139647960662840,0.12552392482757600,0,0
2020-06-15,17:57:44,22.9027219,120.2731325,20.01,13,0,-16,-70,-95,-1009,-34.06928253173830,0.7206363677978520,-20.01020050048830,-0.09430927038192750,-2.7403528690338100,0.07920944690704350,0,0
2020-06-15,17:57:48,22.9026744,120.2731005,20.202,5,32,-29,-93,-39,-1034,-39.35918426513670,-2.555673599243160,-20.20284652709960,-0.04826417937874790,-2.7143824100494400,0.04762253165245060,0,0
2020-06-15,17:57:51,22.9026286,120.2730706,20.068,-21,0,130,-76,-80,-999,-44.45258331298830,-5.626977920532230,-20.06827163696290,-0.07696837931871410,-2.6609623432159400,0.05361293628811840,0,0
2020-06-15,17:57:54,22.9025836,120.2730406,20.173,-9,17,0,-74,-12,-995,-49.467079162597700,-8.703125,-20.173444747924800,-0.08871208131313320,-2.6309566497802700,0.02366618439555170,0,0
2020-06-15,17:57:57,22.9025373,120.2730097,19.897,131,36,-171,-18,-102,-1016,-54.62239074707030,-11.865707397460900,-19.897117614746100,-0.05914105102419850,-2.6616697311401400,0.024599585682153700,0,0
2020-06-15,17:58:00,22.9025253,120.2729739,20.068,8,37,12,-151,42,-970,-55.948951721191400,-15.544755935668900,-20.068822860717800,-0.15622660517692600,-1.4327685832977300,-0.015407742001116300,0,0
2020-06-15,17:58:03,22.9025396,120.2729189,20.205,-3,21,-66,-64,16,-995,-54.35910415649410,-21.181676864624000,-20.205440521240200,-0.13451378047466300,-1.2777423858642600,-0.017962772399187100,0,0
2020-06-15,17:58:06,22.90256,120.2728566,20.089,36,28,10,-86,20,-977,-52.0897216796875,-27.570375442504900,-20.08902931213380,-0.12020796537399300,-1.3404884338378900,-0.07225685566663740,0,0
2020-06-15,17:58:09,22.9025796,120.2727938,19.878,42,-40,58,-152,65,-969,-49.90688705444340,-34.011863708496100,-19.878528594970700,-0.15451961755752600,-1.3110642433166500,-0.05074680969119070,0,0
2020-06-15,17:58:12,22.9025971,120.2727398,20.093,9,22,-74,-171,69,-994,-47.95765686035160,-39.54460906982420,-20.09397315979000,-0.14743191003799400,-1.2915382385253900,-0.03538113459944730,0,0
2020-06-15,17:58:15,22.9026171,120.2726822,20.047,81,2,383,-110,45,-950,-45.73335266113280,-45.450584411621100,-20.04798698425290,-0.019627157598733900,-1.272793173789980,-0.001719295047223570,0,0
2020-06-15,17:58:18,22.9026481,120.2726844,19.765,0,16,-4,-94,122,-1015,-42.2879638671875,-45.231666564941400,-19.765230178833000,-0.07592160999774930,0.23679688572883600,-0.09723014384508130,0,0
2020-06-15,17:58:21,22.9027007,120.2726993,19.89,122,-12,90,-42,-29,-1009,-36.4267578125,-43.69425964355470,-19.890857696533200,-0.058195509016513800,0.3219531774520870,-0.07110465317964550,0,0
2020-06-15,17:58:24,22.9027571,120.2727178,20.119,-28,12,-29,-110,133,-1010,-30.108522415161100,-41.7860107421875,-20.11762046813970,-0.04889523983001710,0.3572758138179780,-0.07172369956970220,0,0
2020-06-15,17:58:27,22.9028102,120.2727354,20.041,154,-90,-59,-40,21,-1015,-24.20258903503420,-39.98626708984380,-20.042680740356400,-0.05493461340665820,0.3163582980632780,-0.07018067687749860,0,0
2020-06-15,17:58:30,22.9028642,120.2727561,20.036,64,10,55,-18,51,-986,-18.230213165283200,-37.87775421142580,-20.036638259887700,-0.05385514721274380,0.2028040587902070,-0.06487467885017400,0,0
2020-06-15,17:58:33,22.9029203,120.2727735,20.115,3,28,-41,-95,58,-973,-12.412637710571300,-36.20850372314450,-20.108985900878900,-0.054670434445142700,0.30284637212753300,-0.05553675815463070,0,0
2020-06-15,17:58:36,22.9029691,120.2727904,20.052,56,-23,69,-6,36,-1013,-6.536915302276610,-34.35871887207030,-20.052122116088900,-0.06028974428772930,0.284290075302124,-0.05124327540397640,0,0
2020-06-15,17:58:39,22.9030204,120.2728096,20.011,52,63,-100,-29,53,-983,-0.828740119934082,-32.39256286621090,-20.011123657226600,-0.05651867389678960,0.20926634967327100,-0.06603872030973430,0,0
2020-06-15,17:58:42,22.9030745,120.2728248,20.083,-53,6,-11,-13,52,-1108,5.191751480102540,-30.831308364868200,-20.083959579467800,0.06254014372825620,0.30017292499542200,-0.012779786251485300,0,0
2020-06-15,17:58:45,22.9030868,120.2728314,24.196,-64,-29,-58,20,131,-982,6.5609588623046900,-30.152341842651400,-24.19642448425290,0.0010174475610256200,0.30344247817993200,-0.08781459182500840,0,0
2020-06-15,17:58:48,22.9030846,120.2728358,29.595,82,-21,-28,-38,76,-932,6.315145492553710,-29.699846267700200,-29.595727920532200,-0.05035416781902310,0.3442014753818510,0.009910356253385540,0,0
2020-06-15,17:58:51,22.9030735,120.2728907,29.883,-34,35,15,15,7,-1005,5.0764617919921900,-24.074430465698200,-29.883495330810500,-0.05611629784107210,0.3310653269290920,0.04116915538907050,0,0
2020-06-15,17:58:54,22.9030524,120.272997,30.066,-71,27,-23,36,-1,-1011,2.737955093383790,-13.169195175170900,-30.06679344177250,-0.05648909509181980,0.3288764953613280,0.05058928579092030,0,0
2020-06-15,17:58:57,22.9030337,120.2731089,29.896,-57,4,29,5,39,-992,0.6474332809448240,-1.6974430084228500,-29.8962459564209,0.0004075039178133010,0.31024041771888700,-0.1510307490825650,0,0
2020-06-15,17:59:00,22.9030315,120.2731272,30.132,-4,-103,21,15,113,-955,0.4055604934692380,0.17537307739257800,-30.132095336914100,0.008114619180560110,0.3016147315502170,-0.0728880763053894,0,0
2020-06-15,17:59:03,22.9030264,120.2731259,29.897,41,-66,-1,43,0,-906,-0.1641845703125,0.0468597412109375,-29.897951126098600,-0.06191252917051320,0.34732359647750900,-0.06796088814735410,0,0
2020-06-15,17:59:06,22.9030263,120.2731264,25.639,317,-237,16,-39,17,-1032,-0.17203617095947300,0.09405326843261720,-25.639209747314500,-0.027871694415807700,0.3212973177433010,-0.08741223812103270,0,0
2020-06-15,17:59:09,22.9030282,120.2731265,21.186,-222,112,26,-34,80,-1021,0.04009246826171880,0.10759735107421900,-21.186859130859400,-0.05352846533060070,0.3144213557243350,-0.047776829451322600,0,0
2020-06-15,17:59:12,22.9030279,120.2731255,16.551,-33,-63,6,-38,96,-997,0.007882118225097660,0.00647735595703125,-16.55198860168460,-0.05114581063389780,0.3426015079021450,-0.04921779781579970,0,0
2020-06-15,17:59:15,22.9030292,120.2731273,12.175,-210,-105,-14,9,137,-941,0.1483306884765630,0.18633460998535200,-12.175261497497600,-0.017085131257772400,0.30397042632103000,-0.06185614690184590,0,0
2020-06-15,17:59:18,22.9030264,120.273126,9.441,70,-2,-11,-37,-8,-1003,-0.16106796264648400,0.057682037353515600,-9.441878318786620,-0.036491379141807600,0.31615206599235500,-0.049469199031591400,0,0
2020-06-15,17:59:21,22.9030273,120.2731268,7.832,22,21,-38,20,15,-997,-0.05621623992919920,0.13719749450683600,-7.8324360847473100,-0.01789870485663410,0.3155866265296940,-0.05088100954890250,0,0
2020-06-15,17:59:24,22.9030283,120.2731263,6.323,-18,-23,5,-11,64,-973,0.05431652069091800,0.08883094787597660,-6.323573589324950,-0.012305616401135900,0.3350217044353490,-0.039081871509552,0,0
2020-06-15,17:59:27,22.9030272,120.2731257,4.907,38,18,50,35,-47,-1022,-0.07439327239990230,0.030595779418945300,-4.907129287719730,-0.042837463319301600,0.35007187724113500,-0.026669949293136600,0,0
2020-06-15,17:59:30,22.903028,120.2731262,3.414,1,-41,-58,23,-19,-983,0.014719963073730500,0.07703399658203130,-3.4141287803649900,-0.021434610709548000,0.34659650921821600,-0.018818486481905000,0,0
2020-06-15,17:59:33,22.9030274,120.2731265,1.806,-35,-11,-10,-40,61,-984,-0.050208091735839800,0.10313034057617200,-1.8064601421356200,-0.0374857634305954,0.3420356214046480,-0.01896720752120020,0,0
2020-06-15,17:59:36,22.9030289,120.2731281,0.58,-25,13,14,17,112,-994,0.1217184066772460,0.27582359313964800,-0.5805938839912420,-0.05515022575855260,0.3260326385498050,-0.01615624502301220,0,0
2020-06-15,18:00:43,22.90302,120.2731308,-0.037,0,0,0,-58,6,-997,-0.08713340759277340,0.09918022155761720,0.03738647699356080,-0.07375176250934600,0.32292336225509600,-0.0016207033768296200,0,0
2020-06-15,18:00:46,22.9030191,120.2731319,-0.153,0,7,2,-57,8,-994,-0.18433284759521500,0.21416091918945300,0.15351861715316800,-0.07457958161830900,0.3243046998977660,-0.0013478482142090800,0,0
2020-06-15,18:00:49,22.9030183,120.2731336,-0.234,-6,-3,-1,-64,-1,-1003,-0.27535152435302700,0.3839855194091800,0.23441430926322900,-0.0750102624297142,0.32548922300338700,-0.001278677023947240,0,0
2020-06-15,18:00:52,22.9030155,120.2731336,0.01,1,0,5,-58,8,-997,-0.061791419982910200,0.009965896606445310,-0.01013404130935670,-0.0740518644452095,0.3264060616493230,-0.0011658119037747400,0,0
2020-06-15,18:00:55,22.9030135,120.2731302,-0.033,6,-2,0,-43,-1,-993,-0.28401851654052700,-0.33980560302734400,0.0334891676902771,-0.07428310811519620,0.32789498567581200,-0.0017174296081066100,0,0
2020-06-15,18:00:58,22.903014,120.2731283,-0.254,2,-4,4,-49,7,-994,-0.23168277740478500,-0.5357017517089840,0.25401681661605800,-0.07616373151540760,0.328483521938324,0.00013583851978182800,0,0
2020-06-15,18:01:01,22.903014,120.2731294,1.293,1,-6,33,-30,33,-1042,-0.2238750457763670,-0.4304618835449220,-1.2937347888946500,-0.04331392049789430,0.25415754318237300,-0.02012074738740920,0,0
2020-06-15,18:01:04,22.9030148,120.2731289,7.485,-20,-173,-48,10,44,-997,-0.1366891860961910,-0.48124122619628900,-7.4851861000061000,-0.013234453275799800,0.2922211289405820,-0.04126168414950370,0,0
2020-06-15,18:01:07,22.9030149,120.2731294,14.598,5,-17,-88,47,83,-1018,-0.13034534454345700,-0.4233722686767580,-14.598365783691400,0.0006138291209936140,0.3068077564239500,-0.034756049513816800,0,0
2020-06-15,18:01:10,22.9030136,120.2731256,19.654,43,-34,-1157,-90,52,-935,-0.26844310760498000,-0.8110408782958980,-19.654170989990200,-0.14781275391578700,-0.5603849291801450,-0.07666046917438510,0,0
2020-06-15,18:01:13,22.9030346,120.2730833,20.259,-23,3,-13,-164,4,-989,2.064539909362790,-5.148935317993160,-20.259920120239300,-0.11840596050024000,-1.2655168771743800,-0.005780206061899660,0,0
2020-06-15,18:01:16,22.9030593,120.2730224,20.137,-46,11,6,-63,-30,-1009,4.818449974060060,-11.393028259277300,-20.137805938720700,-0.11181619018316300,-1.2562320232391400,0.012364810332655900,0,0
2020-06-15,18:01:19,22.9030811,120.2729674,20.009,122,37,22,-79,7,-1012,7.240811347961430,-17.035415649414100,-20.00977897644040,-0.10328709334135100,-1.2490580081939700,-0.01511391531676050,0,0
2020-06-15,18:01:22,22.9031032,120.2729148,20.134,41,-92,-68,-61,-71,-922,9.700695991516110,-22.42823028564450,-20.134174346923800,-0.09559247642755510,-1.2488679885864300,-0.022952929139137300,0,0
2020-06-15,18:01:25,22.9031143,120.2728566,19.924,36,169,-179,-71,-5,-1000,10.93407154083250,-28.39447021484380,-19.92474365234380,-0.16656866669654800,-2.2595620155334500,-0.05079645290970800,0,0
2020-06-15,18:01:28,22.9030794,120.2728098,19.782,32,29,-38,-47,9,-975,7.053250312805180,-33.196632385253900,-19.782981872558600,-0.06903506815433500,-2.375013589859010,0.00814337469637394,0,0
2020-06-15,18:01:31,22.9030435,120.2727681,19.968,28,38,38,-46,-2,-996,3.0520315170288100,-37.47710418701170,-19.968013763427700,-0.0653190016746521,-2.319326400756840,0.022250186651945100,0,0
2020-06-15,18:01:34,22.9030097,120.2727258,19.972,-5,24,-68,-25,-3,-972,-0.7043333053588870,-41.81529235839840,-19.972091674804700,-0.04272158816456800,-2.325993537902830,0.01227027177810670,0,0
2020-06-15,18:01:37,22.9029756,120.272684,20.033,-71,0,-32,-11,-35,-988,-4.5044026374816900,-46.10053634643560,-20.03339195251470,-0.03387008607387540,-2.309199094772340,0.03256199136376380,0,0
2020-06-15,18:01:40,22.9029437,120.2726428,20.092,3,2,-20,-76,40,-978,-8.057673454284670,-50.32551574707030,-20.092456817627000,-0.054584428668022200,-2.3859400749206500,0.014725770801305800,0,0
2020-06-15,18:01:43,22.9028994,120.2726251,20.052,45,28,-97,4,-77,-997,-13.00131893157960,-52.13683319091800,-20.05206871032720,-0.06567082554101940,2.876237630844120,-0.01607658341526990,0,0
2020-06-15,18:01:46,22.9028462,120.2726408,20.015,-3,18,-8,-2,-11,-997,-18.91683578491210,-50.523406982421900,-20.015483856201200,-0.046081021428108200,2.7714500427246100,-0.009156147949397560,0,0
2020-06-15,18:01:49,22.9027978,120.2726585,20.03,-25,23,33,3,-1,-1000,-24.304977416992200,-48.71784210205080,-20.03096580505370,-0.022303903475403800,2.792780876159670,0.0003486345522105690,0,0
2020-06-15,18:01:52,22.9027458,120.2726755,20.029,16,45,-97,33,-43,-979,-30.092544555664100,-46.97110366821290,-20.02946662902830,-0.018925052136182800,2.824294328689580,-0.00014778366312384600,0,0
2020-06-15,18:01:55,22.9026973,120.2726917,20.02,80,4,0,19,-58,-1013,-35.49068832397460,-45.30406188964840,-20.02068519592290,-0.023184478282928500,2.833444356918340,0.016972113400697700,0,0
2020-06-15,18:01:58,22.90264,120.2727116,20.092,-14,-18,38,-38,-7,-1007,-41.8740119934082,-43.27163314819340,-20.092191696167000,0.02131791040301320,2.9114720821380600,0.0424012616276741,0,0
2020-06-15,18:02:01,22.9025918,120.272728,20.128,-30,-20,-14,22,-97,-1012,-47.238704681396500,-41.581417083740200,-20.12879753112790,-0.024614784866571400,2.9109530448913600,0.08573690056800840,0,0
2020-06-15,18:02:04,22.9025491,120.2727398,20.003,98,39,-515,-54,-98,-990,-51.992610931396500,-40.375091552734400,-20.003414154052700,0.10938164591789200,2.4872231483459500,0.0039562080055475200,0,0
2020-06-15,18:02:07,22.9025639,120.2727636,19.956,17,48,-24,-16,66,-950,-50.340087890625,-37.940223693847700,-19.956329345703100,-0.05754560977220540,0.4315285086631780,-0.10555758327245700,0,0
2020-06-15,18:02:10,22.9026129,120.2727949,20.05,-36,-22,95,-36,123,-1012,-44.8894157409668,-34.73111343383790,-20.05093765258790,-0.05139380320906640,0.7035945057868960,-0.035633377730846400,0,0
2020-06-15,18:02:13,22.902651,120.2728264,19.918,-42,83,-75,-15,74,-981,-40.650657653808600,-31.491458892822300,-19.9188232421875,-0.045391060411930100,0.746859073638916,-0.05181878060102460,0,0
2020-06-15,18:02:16,22.9026891,120.2728604,20.007,-80,31,-61,-33,100,-998,-36.40174865722660,-28.01055145263670,-20.00775146484380,-0.06954723596572880,0.6818870306015020,-0.0772455558180809,0,0
2020-06-15,18:02:19,22.902736,120.2729004,20.125,18,10,-37,0,16,-1011,-31.183189392089800,-23.91098403930660,-20.12550926208500,-0.06347126513719560,0.640105128288269,-0.07708704471588140,0,0
2020-06-15,18:02:22,22.9027608,120.272943,20.161,-16,55,44,7,30,-1073,-28.429161071777300,-19.537750244140600,-20.161331176757800,-0.024283912032842600,1.7728263139724700,0.012836542911827600,0,0
2020-06-15,18:02:25,22.9027462,120.2729992,19.978,-71,-9,18,8,69,-997,-30.052623748779300,-13.774211883544900,-19.978782653808600,-0.0005558105185627940,1.7849502563476600,-0.021298471838235900,0,0
2020-06-15,18:02:28,22.9027312,120.2730564,20.026,5,10,8,31,-2,-1021,-31.71613311767580,-7.909919738769530,-20.026020050048800,0.004833899438381200,1.7652002573013300,-0.034778326749801600,0,0
2020-06-15,18:02:31,22.9027177,120.2731132,20.031,18,-14,59,20,1,-993,-33.226776123046900,-2.091419219970700,-20.031150817871100,-0.0017952797934413000,1.7927064895629900,-0.030000977218151100,0,0
2020-06-15,18:02:34,22.9027048,120.2731671,20.563,18,-31,-7,63,31,-1075,-34.65727233886720,3.443819046020510,-20.563459396362300,0.10937198996543900,1.8102037906646700,-0.02337806299328800,0,0
2020-06-15,18:02:37,22.9027043,120.2731707,25.959,18,10,6,52,-9,-975,-34.714481353759800,3.807713508605960,-25.959787368774400,0.05066715180873870,1.823214054107670,-0.01151368860155340,0,0
2020-06-15,18:02:40,22.9027097,120.2731702,29.848,-27,-12,-22,40,62,-941,-34.11250305175780,3.7623043060302700,-29.848642349243200,0.09480547159910200,1.82076895236969,-0.10279817134141900,0,0
2020-06-15,18:02:43,22.9027761,120.2731638,30.098,-114,-18,-1,107,108,-985,-26.726551055908200,3.1062545776367200,-30.098051071167000,0.1216282993555070,1.8072658777236900,-0.13324464857578300,0,0
2020-06-15,18:02:46,22.9028854,120.273151,30.078,88,-36,-27,121,42,-1017,-14.550904273986800,1.7870540618896500,-30.0781307220459,0.10374704748392100,1.7998478412628200,-0.12295020371675500,0,0
2020-06-15,18:02:49,22.9029925,120.2731352,30.174,-65,70,30,119,61,-935,-2.623767852783200,0.16926193237304700,-30.17469024658200,0.00401805154979229,1.8828343152999900,0.060949936509132400,0,0
2020-06-15,18:02:52,22.9030139,120.2731294,30.077,24,23,-14,90,18,-1032,-0.23665809631347700,-0.4280967712402340,-30.077260971069300,0.017824295908212700,1.839822769165040,-0.014083650894463100,0,0
2020-06-15,18:02:55,22.903016,120.2731339,29.748,114,-208,-61,42,-116,-996,-0.007015228271484380,0.033382415771484400,-29.748674392700200,0.05116770416498180,1.8194011449813800,0.04176178574562070,0,0
2020-06-15,18:02:58,22.9030144,120.2731346,26.377,130,-86,27,54,-99,-1030,-0.178802490234375,0.10947608947753900,-26.377777099609400,0.051486290991306300,1.8248050212860100,-0.018575318157672900,0,0
2020-06-15,18:03:01,22.9030158,120.2731347,21.824,-56,-537,75,59,-56,-1004,-0.02793121337890630,0.12267684936523400,-21.824186325073200,0.04838475584983830,1.8139981031417800,0.02068953961133960,0,0
2020-06-15,18:03:04,22.9030148,120.2731326,17.476,-102,139,52,57,98,-952,-0.1415996551513670,-0.09295272827148440,-17.476938247680700,0.04112643003463750,1.8076796531677200,0.019191652536392200,0,0
2020-06-15,18:03:07,22.9030142,120.2731333,12.817,108,23,-23,87,-6,-955,-0.2022552490234380,-0.030218124389648400,-12.817161560058600,0.042911577969789500,1.8604532480239900,-0.018555309623479800,0,0
2020-06-15,18:03:10,22.903016,120.2731331,9.561,-4,16,-16,64,-47,-1005,-0.007225990295410160,-0.04302024841308590,-9.561389923095700,0.02454764023423200,1.833140254020690,-0.0012667849659919700,0,0
2020-06-15,18:03:13,22.9030148,120.2731337,7.967,-36,-26,23,-8,21,-988,-0.13660144805908200,0.0154571533203125,-7.967202186584470,0.04281759634613990,1.8332151174545300,-0.013966531492769700,0,0
2020-06-15,18:03:16,22.9030149,120.2731339,6.542,69,-34,-1,45,-69,-1012,-0.1325674057006840,0.039119720458984400,-6.542305946350100,0.06311533600091930,1.8229626417160000,-0.032243113964796100,0,0
2020-06-15,18:03:19,22.9030155,120.2731343,5.096,137,55,19,87,-76,-986,-0.05700397491455080,0.07605552673339840,-5.096945285797120,0.061117321252822900,1.8363291025161700,-0.01288097444921730,0,0
2020-06-15,18:03:22,22.9030148,120.2731331,3.627,-8,4,10,134,28,-991,-0.13709163665771500,-0.041065216064453100,-3.6271169185638400,0.052781179547309900,1.8235156536102300,-0.0380701944231987,0,0
2020-06-15,18:03:25,22.9030153,120.2731339,2.073,-12,-12,-19,71,41,-1000,-0.08514404296875,0.03149223327636720,-2.0737946033477800,0.04344829544425010,1.8357136249542200,-0.030412841588258700,0,0
2020-06-15,18:03:28,22.9030157,120.273133,0.798,6,-5,0,-52,0,-1001,-0.034478187561035200,-0.05546379089355470,-0.7988278865814210,-0.052316565066576000,1.8253220319747900,-0.020285990089178100,0,0
2020-06-15,18:10:51,22.9030235,120.273104,0.037,-1,0,0,8,40,-995,-0.0038928985595703100,0.03078460693359380,-0.037583351135253900,-0.00860726460814476,0.43124064803123500,-0.03583727777004240,0,0
2020-06-15,18:10:54,22.9030227,120.273104,0.149,-6,11,-109,-48,-3,-1126,-0.098052978515625,0.03485107421875,-0.14993953704834000,-0.029073871672153500,0.3326171338558200,-0.03647087141871450,0,0
2020-06-15,18:10:57,22.903023,120.2731044,5.831,-17,-48,-45,-26,35,-1021,-0.05902576446533200,0.08115768432617190,-5.831445693969730,-0.018374543637037300,0.3858779966831210,-0.04645978659391400,0,0
2020-06-15,18:11:00,22.903024,120.2731051,12.645,-131,16,-30,27,111,-980,0.053885459899902300,0.15177154541015600,-12.645237922668500,-0.01138877309858800,0.3890995383262630,-0.07028541713953020,0,0
2020-06-15,18:11:03,22.9030225,120.2731023,19.081,-119,123,-16,-31,74,-886,-0.12213516235351600,-0.1342487335205080,-19.08192253112790,-0.0071600498631596600,0.4243645668029790,-0.11005730926990500,0,0
2020-06-15,18:11:06,22.9030199,120.2730634,20.14,63,40,-83,-66,-24,-969,-0.4050884246826170,-4.126106262207030,-20.14077377319340,-0.10897742956876800,-1.7541316747665400,0.012706311419606200,0,0
2020-06-15,18:11:09,22.9030132,120.2730014,20.132,25,-41,-39,-133,-69,-1024,-1.149775505065920,-10.48049545288090,-20.132827758789100,-0.10021471232175800,-1.7816598415374800,0.04714095965027810,0,0
2020-06-15,18:11:12,22.9030073,120.2729442,20.089,-31,-9,-43,-85,9,-984,-1.8056812286377000,-16.35073471069340,-20.089523315429700,-0.11660462617874100,-1.8079090118408200,-0.01681121438741680,0,0
2020-06-15,18:11:15,22.9030007,120.2728828,20.015,32,4,0,-90,-12,-991,-2.542140007019040,-22.65024185180660,-20.015634536743200,-0.12091126292944000,-1.8304232358932500,-0.037214286625385300,0,0
2020-06-15,18:11:18,22.9029906,120.2728275,19.976,120,-63,48,-63,-30,-983,-3.6718320846557600,-28.32208251953130,-19.976390838623000,-0.13981366157531700,-1.6802690029144300,0.03441189229488370,0,0
2020-06-15,18:11:21,22.9029848,120.2727648,19.972,135,13,13,-36,-85,-1006,-4.31597900390625,-34.74232482910160,-19.97211265563970,-0.10509206354618100,-1.7034063339233400,0.017013147473335300,0,0
2020-06-15,18:11:24,22.9029783,120.2727032,19.921,42,-21,14,-43,-79,-953,-5.033049583435060,-41.06307601928710,-19.92157554626470,-0.13234879076480900,-1.708256721496580,0.023419398814439800,0,0
2020-06-15,18:11:27,22.9029717,120.2726468,20.068,30,19,-1,-200,-6,-975,-5.766729354858400,-46.84975051879880,-20.06847381591800,-0.154526486992836,-1.7123538255691500,0.02482503280043600,0,0
2020-06-15,18:11:30,22.9029391,120.2726228,19.924,-30,19,-126,-57,-9,-990,-9.399982452392580,-49.31148147583010,-19.924047470092800,-0.015750864520669000,2.9825541973114000,0.05047287046909330,0,0
2020-06-15,18:11:33,22.9028889,120.2726284,19.887,-18,-15,30,-38,-121,-989,-14.995348930358900,-48.73397445678710,-19.887474060058600,-0.023952201008796700,2.975302219390870,0.10829310864210100,0,0
2020-06-15,18:11:36,22.9028403,120.2726341,19.971,4,24,37,-26,-56,-989,-20.408639907836900,-48.14907455444340,-19.97136878967290,-0.04353553056716920,2.972956895828250,0.07038863003253940,0,0
2020-06-15,18:11:39,22.9027868,120.2726396,19.983,90,42,47,42,-113,-994,-26.368749618530300,-47.581729888916000,-19.983951568603500,-0.025695163756609000,2.962721824646000,0.04228876531124120,0,0
2020-06-15,18:11:42,22.9027354,120.2726457,20.128,56,-12,27,25,-52,-970,-32.08601379394530,-46.960872650146500,-20.12820816040040,-0.016233766451478000,3.0023956298828100,0.04719262942671780,0,0
2020-06-15,18:11:45,22.9026818,120.2726649,19.929,16,56,-15,4,-53,-992,-38.05335235595700,-44.98921585083010,-19.929061889648400,0.03147225081920620,2.5651886463165300,0.02875753864645960,0,0
2020-06-15,18:11:48,22.9026346,120.2727008,19.995,20,2,91,113,-56,-958,-43.307350158691400,-41.3064079284668,-19.995777130127000,0.019588008522987400,2.636305332183840,0.09102436900138860,0,0
2020-06-15,18:11:51,22.9025896,120.2727316,20.198,27,-22,-7,28,-79,-982,-48.3182258605957,-38.14939498901370,-20.19863510131840,0.006891829892992970,2.613327741622930,0.08444253355264660,0,0
2020-06-15,18:11:54,22.9025409,120.2727638,19.965,51,39,-3,78,-50,-981,-53.734535217285200,-34.85388946533200,-19.965944290161100,0.030757058411836600,2.507126808166500,0.04307229071855550,0,0
2020-06-15,18:11:57,22.9024997,120.2727948,20.071,37,-74,-44,18,-47,-1008,-58.35328674316410,-31.646522521972700,-20.07134437561040,0.0041637904942035700,2.5315520763397200,0.06931048631668090,0,0
2020-06-15,18:12:00,22.9024517,120.2728269,19.975,-65,24,-48,53,6,-1006,-63.67226791381840,-28.376197814941400,-19.975505828857400,0.022825472056865700,2.484079599380490,0.03155232220888140,0,0
2020-06-15,18:12:03,22.9024077,120.2728602,19.912,49,53,73,40,-121,-1015,-68.5641860961914,-24.959945678710900,-19.912282943725600,0.009825017303228380,2.541518449783330,0.04755900800228120,0,0
2020-06-15,18:12:06,22.9023611,120.2728933,20.03,-35,-18,-62,31,-5,-996,-73.75902557373050,-21.569866180419900,-20.0302677154541,0.02358054742217060,2.557638645172120,0.05199475958943370,0,0
2020-06-15,18:12:09,22.9023155,120.2729255,20.087,61,8,20,-38,-75,-996,-78.83126068115230,-18.265213012695300,-20.08719253540040,0.015675682574510600,2.550813913345340,0.05191264674067500,0,0
2020-06-15,18:12:12,22.9022685,120.272959,20.015,36,13,25,-2,-49,-1015,-84.0604248046875,-14.837215423584000,-20.01542854309080,0.009547147899866100,2.5620102882385300,0.05477800592780110,0,0
2020-06-15,18:12:15,22.9022327,120.2729851,20.027,-8,-59,-315,115,-96,-1021,-88.04358673095700,-12.16141128540040,-20.027311325073200,0.14456026256084400,2.0121421813964800,-0.06291544437408450,0,0
2020-06-15,18:12:18,22.9022548,120.2730015,20.309,26,19,-22,-78,178,-942,-85.5831298828125,-10.475406646728500,-20.309602737426800,-0.11243289709091200,0.21290621161460900,-0.1549789160490040,0,0
2020-06-15,18:12:21,22.9023155,120.2730201,20.195,70,-116,19,-13,79,-1005,-78.83214569091800,-8.564249038696290,-20.19586181640630,-0.05838491767644880,0.504108726978302,-0.02655961737036710,0,0
2020-06-15,18:12:24,22.9023631,120.2730444,19.89,-77,50,-160,-78,141,-981,-73.52729034423830,-6.077596664428710,-19.890146255493200,-0.055335041135549500,0.48533904552459700,-0.08747100830078130,0,0
2020-06-15,18:12:27,22.9024116,120.273068,19.888,-7,8,11,-38,75,-933,-68.13319396972660,-3.654012680053710,-19.88837432861330,-0.08198371529579160,0.4340832233428960,-0.09834089875221250,0,0
2020-06-15,18:12:30,22.9024593,120.2730895,19.995,-51,-71,60,-111,95,-982,-62.82200241088870,-1.4525203704834000,-19.99559211730960,-0.09180710464715960,0.43831709027290300,-0.05823541060090070,0,0
2020-06-15,18:12:33,22.9025124,120.2731144,19.989,53,40,-30,-62,13,-996,-56.914546966552700,1.1025409698486300,-19.989971160888700,-0.07235623151063920,0.4167575240135190,-0.06533697247505190,0,0
2020-06-15,18:12:36,22.9025624,120.273139,20.136,119,2,53,-35,-4,-991,-51.34489440917970,3.6291122436523400,-20.136707305908200,-0.06727894395589830,0.3704518675804140,-0.07538619637489320,0,0
2020-06-15,18:12:39,22.9026139,120.273163,20.371,-96,-39,-77,-26,170,-914,-45.6141242980957,6.0893402099609400,-20.371028900146500,-0.06155034527182580,0.3575807809829710,-0.1342228353023530,0,0
2020-06-15,18:12:42,22.9026599,120.2731824,20.698,76,-102,-78,-105,84,-1091,-40.496253967285200,8.075064659118650,-20.698572158813500,0.05157169699668880,0.3143955171108250,-0.10151279717683800,0,0
2020-06-15,18:12:45,22.902662,120.2731818,25.937,83,-16,39,57,-11,-1020,-40.254329681396500,8.011726379394530,-25.937297821044900,-0.030053813010454200,0.2925371527671810,-0.06250125169754030,0,0
2020-06-15,18:12:48,22.9026659,120.2731839,29.675,4,72,7,9,109,-978,-39.82068634033200,8.231206893920900,-29.67508888244630,-0.11049909889698000,0.3041289150714870,-0.14355909824371300,0,0
2020-06-15,18:12:51,22.9027266,120.2731739,30.317,67,-59,-2,-123,120,-985,-33.0622444152832,7.205920219421390,-30.317779541015600,-0.12589898705482500,0.34249940514564500,-0.1863008737564090,0,0
2020-06-15,18:12:54,22.9028398,120.273146,30.056,-114,-103,5,-61,216,-927,-20.46259880065920,4.345064163208010,-30.056631088256800,-0.1514846831560140,0.3238706588745120,-0.14253173768520400,0,0
2020-06-15,18:12:57,22.9029519,120.2731214,30.143,98,-198,-34,8,138,-905,-7.973066329956060,1.8231239318847700,-30.143037796020500,-0.03930780291557310,0.3228291869163510,-0.11918123811483400,0,0
2020-06-15,18:13:00,22.9030207,120.2731024,30.241,-96,-32,9,18,134,-1013,-0.32187938690185500,-0.12480735778808600,-30.241256713867200,0.06142568588256840,0.30475616455078100,-0.04501008242368700,0,0
2020-06-15,18:13:03,22.9030229,120.2731031,29.787,-37,44,0,-11,160,-980,-0.07397079467773440,-0.05985069274902340,-29.78734016418460,-0.0037724552676081700,0.2946721911430360,-0.08552469313144680,0,0
2020-06-15,18:13:06,22.9030245,120.2731063,28.421,37,-74,-27,-31,71,-941,0.10346603393554700,0.26995086669921900,-28.42170524597170,-0.00583855714648962,0.2897460162639620,-0.12670539319515200,0,0
2020-06-15,18:13:09,22.9030228,120.2731034,24.204,154,11,-6,-20,12,-1005,-0.08534049987792970,-0.026372909545898400,-24.2045841217041,-0.05982929840683940,0.3222917318344120,-0.059500742703676200,0,0
2020-06-15,18:13:12,22.9030243,120.2731031,19.382,214,-254,-20,5,-103,-1084,0.0825204849243164,-0.053195953369140600,-19.382139205932600,0.01983306184411050,0.34613773226738000,-0.07271460443735120,0,0
2020-06-15,18:13:15,22.9030247,120.2731053,14.759,-90,123,46,-68,103,-964,0.12503528594970700,0.17191505432128900,-14.75941276550290,0.005010159686207770,0.3523176312446590,-0.0930374413728714,0,0
2020-06-15,18:13:18,22.9030247,120.2731056,10.694,5,13,18,48,119,-1041,0.12475013732910200,0.2048168182373050,-10.694018363952600,-0.006526514887809750,0.35613372921943700,-0.06570973247289660,0,0
2020-06-15,18:13:21,22.903024,120.2731035,8.907,-44,-20,-1,24,53,-1000,0.050510406494140600,-0.017452239990234400,-8.907306671142580,0.005182091146707540,0.33144164085388200,-0.05387125164270400,0,0
2020-06-15,18:13:24,22.9030241,120.2731046,7.463,59,-12,36,45,47,-992,0.06203937530517580,0.10010719299316400,-7.463988304138180,0.0069974493235349700,0.32430773973465000,-0.0541791208088398,0,0
2020-06-15,18:13:27,22.9030232,120.2731033,5.92,60,-83,-30,-18,15,-1051,-0.03632545471191410,-0.03838348388671880,-5.920031547546390,0.00035047903656959500,0.31434574723243700,-0.05218308046460150,0,0
2020-06-15,18:13:30,22.9030236,120.2731033,4.364,-27,43,-33,-9,119,-981,0.0044708251953125,-0.0361480712890625,-4.364336013793950,-0.0019254554063081700,0.35638803243637100,-0.016715623438358300,0,0
2020-06-15,18:13:33,22.9030241,120.273105,2.928,-46,15,-2,7,133,-982,0.05920124053955080,0.14345932006835900,-2.928119659423830,-3.14526259899139E-05,0.31487879157066300,-0.04460029676556590,0,0
2020-06-15,18:13:36,22.903023,120.2731027,1.387,27,-34,-96,-12,51,-990,-0.059378623962402300,-0.09582901000976560,-1.3872809410095200,-0.03138559311628340,0.3025946617126470,-0.00544917955994606,0,0
2020-06-15,18:13:39,22.9030233,120.2731039,-0.116,23,-52,-36,-57,-20,-1007,-0.03273773193359380,0.020734786987304700,0.11634433269500700,-0.02309407666325570,0.3166564702987670,-0.015409826301038300,0,0
2020-06-15,18:14:34,22.9030258,120.2730977,0.089,-4,4,-1,22,45,-998,-0.17872142791748000,-0.10901260375976600,-0.08904623985290530,0.005118455737829210,0.3264572024345400,-0.033887386322021500,0,0
2020-06-15,18:14:37,22.9030259,120.2730981,0.016,43,-182,-106,0,48,-1157,-0.17757892608642600,-0.07149696350097660,-0.021071553230285600,0.00667513906955719,0.29955828189849900,0.010362147353589500,0,0
2020-06-15,18:14:40,22.9030259,120.2730987,5.015,-20,24,-3,-70,129,-984,-0.16861629486084000,-0.003566741943359380,-5.015934467315670,-0.02643127180635930,0.24826553463935900,-0.04372067749500280,0,0
2020-06-15,18:14:43,22.9030252,120.2730997,11.815,87,39,3,-6,21,-1021,-0.2540264129638670,0.09646034240722660,-11.815705299377400,-0.033754222095012700,0.2637970745563510,-0.06907359510660170,0,0
2020-06-15,18:14:46,22.903025,120.2730967,18.773,-94,84,77,-49,123,-866,-0.26757049560546900,-0.21219444274902300,-18.77359390258790,-0.024325767531991000,0.29715946316719100,-0.0419720821082592,0,0
2020-06-15,18:14:49,22.903001,120.2730966,20.203,-36,-17,857,-5,-21,-915,-2.9415082931518600,-0.21935272216796900,-20.203622817993200,-0.08394327014684680,-3.138056993484500,0.07148640602827070,0,0
2020-06-15,18:14:52,22.9029491,120.2730909,20.051,-14,12,-18,0,-68,-1001,-8.719030380249020,-0.8061141967773440,-20.051513671875,-0.052909862250089600,-3.111114740371700,0.08425315469503400,0,0
2020-06-15,18:14:55,22.9028912,120.2730852,19.923,-9,-28,28,-25,-63,-1008,-15.173391342163100,-1.3928279876709000,-19.92353630065920,-0.04899917170405390,-3.1272096633911100,0.06695020943880080,0,0
2020-06-15,18:14:58,22.902835,120.2730817,19.947,-8,18,-6,-86,-67,-1010,-21.43738555908200,-1.7534408569335900,-19.947038650512700,-0.05642267316579820,-3.042311191558840,0.0779794305562973,0,0
2020-06-15,18:15:01,22.9027797,120.2730753,20.047,48,12,-1,14,-126,-1032,-27.593265533447300,-2.408336639404300,-20.047468185424800,-0.04141766205430030,-3.0954983234405500,0.06046203523874280,0,0
