date,time,lat,lon,alt,x_gyro,y_gyro,z_gyro,x_acc,y_acc,z_acc,north,east,down,pitch,yaw,roll,wind_speed,wind_direction
2020/6/12,11:39:59,22.9028934,120.27315,18.561,-151,-68,-19,-29,13,-889,0.252037764,-0.626876831,-18.56121635,-0.077518985,-2.171756268,0.035489336,9,53
2020/6/12,11:40:01,22.9028751,120.2731511,19.979,-94,-79,-20,-56,46,-968,-1.784565449,-0.515357971,-19.97948456,-0.063646913,-2.182641506,-0.055299703,9,53
2020/6/12,11:40:04,22.9028109,120.2731581,20.097,-10,35,-9,-38,-15,-1005,-8.935192108,0.198705673,-20.09751701,-0.105956011,2.927023411,-0.000977566,9,53
2020/6/12,11:40:06,22.9027248,120.2731756,20.108,-15,-39,40,-78,6,-995,-18.51984596,1.992477417,-20.10814095,-0.083917484,2.97379756,0.018677698,9,53
2020/6/12,11:40:09,22.9026327,120.2731947,20.181,-62,8,2,-65,-2,-963,-28.76717758,3.951109886,-20.18199158,-0.141146153,3.084771872,0.009660568,9,53
2020/6/12,11:40:11,22.902533,120.2732098,20.218,33,-67,33,-104,26,-982,-39.86817551,5.500904083,-20.21895218,-0.137897149,3.109392643,0.010456054,9,53
2020/6/12,11:40:14,22.9024338,120.2732235,20.311,54,-71,-21,-17,49,-942,-50.91208267,6.908151627,-20.31199837,-0.113331348,3.105064631,0.030034449,9,53
2020/6/12,11:40:16,22.9023164,120.2732343,20.328,125,-204,67,-51,-28,-1017,-63.98500824,8.013454437,-20.32821274,-0.157909706,-3.123675346,0.042413592,9,53
2020/6/12,11:40:19,22.9022061,120.2732378,20.176,43,-37,44,-98,32,-978,-76.25756073,8.376478195,-20.17670441,-0.126165956,-3.107247353,-0.014076577,9,53
2020/6/12,11:40:21,22.9021004,120.2732343,20.022,-5,7,205,-78,3,-1024,-88.02910614,8.010177612,-20.02254105,-0.138141036,-2.755440474,0.104284734,9,53
2020/6/12,11:40:24,22.9020149,120.2731834,19.904,31,-40,60,-139,39,-996,-97.54640198,2.799032211,-19.90480614,-0.142706469,-2.464553118,-0.00311341,9,53
2020/6/12,11:40:26,22.9019345,120.2731135,19.864,-32,78,16,-73,68,-980,-106.4970093,-4.374425888,-19.86419487,-0.122525655,-2.356838465,0.010958821,9,53
2020/6/12,11:40:29,22.901877,120.2730372,20.208,-86,49,371,-121,102,-1043,-112.896698,-12.19633484,-20.20852089,-0.131764293,-1.556497335,0.14251323,9,53
2020/6/12,11:40:32,22.9018952,120.2729539,20.135,0,40,46,-73,12,-1002,-110.8678207,-20.73719978,-20.13554573,-0.153093845,-1.12549901,0.042961601,9,53
2020/6/12,11:40:34,22.9019465,120.2728498,20.333,103,72,285,-122,97,-979,-105.1619492,-31.41396523,-20.33347893,-0.071630426,-0.933346868,0.10065902,9,53
2020/6/12,11:40:37,22.9020161,120.2727944,20.347,2,-10,128,-104,102,-993,-97.41160583,-37.09284973,-20.34724426,-0.120677888,-0.304051518,0.056483239,9,53
2020/6/12,11:40:39,22.9021132,120.2727683,20.295,43,3,18,-13,-43,-979,-86.59825897,-39.76654816,-20.29506111,-0.108961456,-0.144182712,0.000165749,9,53
2020/6/12,11:40:42,22.9022283,120.2727525,20.375,78,-26,348,-63,30,-993,-73.78433228,-41.39542389,-20.37512016,-0.072842151,0.053405654,0.103246018,9,53
2020/6/12,11:40:44,22.9023148,120.2727846,20.148,-25,-52,122,-54,-6,-991,-64.15480042,-38.10228729,-20.14805794,-0.113367736,0.601111591,0.064463779,9,53
2020/6/12,11:40:47,22.9023988,120.2728563,20.159,-3,-3,-16,-73,0,-1019,-54.80404663,-30.74703789,-20.15923119,-0.114367858,0.752691984,0.013513615,9,53
2020/6/12,11:40:49,22.902467,120.2729188,20.059,-7,267,-241,-24,72,-1003,-47.21796036,-24.33994484,-20.05933762,0.056666799,0.431781054,-0.134218052,9,53
2020/6/12,11:40:52,22.9025356,120.2729056,20.163,7,77,-14,11,-23,-953,-39.57416916,-25.69359779,-20.16383553,-0.144190341,-0.721072614,-0.105631866,9,53
2020/6/12,11:40:54,22.9025997,120.2728404,20.176,-17,7,17,-102,7,-983,-32.44692993,-32.37992096,-20.17674446,-0.139573574,-0.710864484,0.014085155,9,53
2020/6/12,11:40:57,22.9026756,120.2727619,20.087,10,-26,210,-178,43,-1015,-24.84891701,-39.69287872,-20.08914757,-0.131532282,-0.619358301,0.077234253,9,53
2020/6/12,11:40:59,22.9027549,120.2727106,19.977,-9,-72,38,-179,23,-993,-15.16786766,-45.6891861,-19.97737503,-0.144820705,-0.379919678,0.027618024,9,53
2020/6/12,11:41:02,22.9028491,120.2726748,20.295,57,75,309,-146,57,-1005,-4.679141045,-49.35435486,-20.29571152,-0.072599322,-0.170642823,0.078850061,9,53
2020/6/12,11:41:04,22.9029351,120.272704,19.841,42,37,140,-55,45,-972,4.898207664,-46.36310577,-19.84171486,-0.134355575,0.712528706,0.004114298,9,53
2020/6/12,11:41:07,22.9029987,120.2727719,19.88,9,-16,4,-100,54,-982,11.98062325,-39.39816284,-19.88083649,-0.128725082,0.883746982,-0.008161102,9,53
2020/6/12,11:41:09,22.9030616,120.2728559,20.496,6,45,16,-144,62,-1083,18.98218727,-30.78352928,-20.49666214,0.016283914,0.898805141,-0.026701789,9,53
2020/6/12,11:41:12,22.9030999,120.2729041,25.052,53,-14,-33,40,21,-1039,23.25060463,-25.84284019,-25.05241013,0.096454449,0.883776009,0.008387515,9,53
2020/6/12,11:41:14,22.9030987,120.272908,29.495,22,-10,15,46,-4,-927,23.11183357,-25.44472694,-29.49522591,-0.014318382,0.873262703,0.105773792,9,53
2020/6/12,11:41:17,22.903069,120.272939,30.109,-30,-5,18,-81,37,-1005,19.80691338,-22.26438332,-30.10998344,-0.035434689,0.896611273,0.113856666,9,53
2020/6/12,11:41:19,22.9030126,120.2730054,30.294,-16,43,-40,-19,-10,-976,13.53010178,-15.45862007,-30.29462051,-0.021463426,0.891379118,0.086102799,9,53
2020/6/12,11:41:22,22.9029476,120.2730865,30.287,-76,34,21,30,-43,-980,6.292824745,-7.144662857,-30.28717232,-0.011735147,0.8772493,0.053480871,9,53
2020/6/12,11:41:24,22.9029001,120.2731478,30.025,-35,73,52,0,-71,-1023,0.993893802,-0.85723877,-30.02568436,0.005174447,0.880708754,-0.089555524,9,53
2020/6/12,11:41:27,22.9028929,120.2731586,29.906,26,-13,24,30,-23,-980,0.199075699,0.254959106,-29.90645599,0.013796329,0.907286882,-0.024443455,9,53
2020/6/12,11:41:29,22.9028902,120.2731557,30.025,31,26,41,37,58,-979,-0.107009649,-0.041355133,-30.02592468,-0.042739369,0.907544732,-0.00587038,9,53
2020/6/12,11:41:32,22.9028908,120.2731568,27.662,-4,5,38,33,25,-1004,-0.036787033,0.071773529,-27.66250992,0.007154312,0.886253476,0.010264383,9,53
2020/6/12,11:41:34,22.9028905,120.2731556,23.937,15,-31,-9,-9,26,-997,-0.075425029,-0.059797287,-23.93789864,-0.010313774,0.914160371,-0.006569673,9,53
2020/6/12,11:43:43,22.9028888,120.2731515,19.725,-77,-13,-1068,-47,78,-939,-0.537332177,-0.00173378,-19.72580719,-0.064446986,-3.004057884,0.011746548,9,38
2020/6/12,11:43:46,22.9028568,120.2731547,20.119,43,18,69,9,-24,-988,-4.106358051,0.32169342,-20.11975861,-0.043858126,3.01049757,0.04448748,9,38
2020/6/12,11:43:48,22.9028136,120.2731602,20.211,0,35,-29,-7,0,-989,-8.911684036,0.890668869,-20.21147919,-0.050671916,3.081285954,0.051764969,9,38
2020/6/12,11:43:51,22.9027757,120.2731629,20.131,-43,13,36,-31,77,-1004,-13.13064957,1.162866592,-20.1316967,-0.056727737,3.017161608,0.01712564,9,38
2020/6/12,11:43:53,22.9027396,120.2731682,20.097,89,15,-42,14,-18,-991,-17.1492424,1.707576752,-20.09783936,-0.057785653,3.068711996,0.005097288,9,38
2020/6/12,11:43:56,22.9027058,120.2731738,20.081,-4,-28,-69,-50,43,-971,-20.91431427,2.28203392,-20.08100128,-0.061328657,-3.122304678,0.034707334,9,38
2020/6/12,11:43:58,22.9026666,120.2731777,20.194,15,-13,-28,-27,5,-965,-25.27890205,2.685932159,-20.19495773,-0.051058535,-3.079823017,0.042904906,9,38
2020/6/12,11:44:01,22.9026314,120.2731789,20.245,94,31,-32,19,-69,-993,-29.19735146,2.799781799,-20.24516487,-0.064189002,3.133944988,0.035220582,9,38
2020/6/12,11:44:03,22.9025945,120.2731822,20.202,-32,-60,-31,-84,39,-988,-33.30182648,3.143239975,-20.20266724,-0.065334603,3.130501986,0.04578435,9,38
2020/6/12,11:44:06,22.9025569,120.2731839,20.167,22,59,0,-41,0,-1022,-37.48651886,3.317939758,-20.16788673,-0.059750389,3.063843966,0.006347921,9,38
2020/6/12,11:44:08,22.9025176,120.2731884,19.996,-18,13,6,-82,6,-1023,-41.46956253,3.768005371,-19.99441528,-0.064456537,3.130947828,0.027291797,9,38
2020/6/12,11:44:11,22.9024787,120.2731905,20.179,-8,7,-1,-24,35,-961,-46.19275284,3.997924805,-20.17909431,-0.058458149,3.048110008,0.009178899,9,38
2020/6/12,11:44:13,22.9024398,120.2731947,20.225,-38,13,41,22,8,-1000,-50.51781464,4.427511215,-20.22515678,-0.048477825,3.090971231,0.012106491,9,38
2020/6/12,11:44:16,22.9024038,120.2731968,20.26,97,-18,-43,-8,-29,-1011,-54.53252792,4.638049126,-20.26020241,-0.046925083,3.092616081,-0.022793923,9,38
2020/6/12,11:44:18,22.9023707,120.2731993,20.318,1,20,58,-35,26,-989,-58.21754456,4.899012566,-20.31803894,-0.069600105,3.040075302,-0.016366247,9,38
2020/6/12,11:44:21,22.9023324,120.2732033,20.205,224,9,8,-13,-27,-1006,-62.47837448,5.310735703,-20.20537376,-0.054577515,3.0560987,-0.017314155,9,38
2020/6/12,11:44:23,22.902295,120.273207,20.28,-73,19,-76,-110,75,-1002,-66.64245605,5.681959152,-20.2808342,-0.062528268,3.088962793,-0.00663369,9,38
2020/6/12,11:44:26,22.9022568,120.2732091,20.194,30,38,-7,-70,18,-1007,-70.89512634,5.904036522,-20.19420052,-0.049731638,3.001093388,-0.030526292,9,38
2020/6/12,11:44:28,22.9022169,120.2732144,20.104,-118,-10,-44,-91,87,-990,-75.3401413,6.447752953,-20.10412788,-0.058924094,3.06349802,0.012431519,9,38
2020/6/12,11:44:31,22.9021807,120.2732184,20.213,-45,-2,-75,-77,71,-999,-79.35973358,6.855046272,-20.21378326,-0.06032956,3.058755398,-0.002148149,9,38
2020/6/12,11:44:33,22.9021463,120.2732214,20.342,-15,12,-26,-56,18,-1002,-83.19564056,7.164813995,-20.34299278,-0.070695497,3.028065681,0.001744712,9,38
2020/6/12,11:44:36,22.9021063,120.2732254,20.246,84,-2,-7,-20,-12,-1007,-87.64404297,7.568990707,-20.2461834,-0.063449368,3.018906116,-0.005875139,9,38
2020/6/12,11:44:39,22.9020686,120.2732298,20.129,12,-50,76,-40,-2,-1016,-91.84133148,8.026604652,-20.12984657,-0.078597501,3.028515816,0.007029651,9,38
2020/6/12,11:44:41,22.9020263,120.2732341,20.008,14,-27,361,-103,77,-1033,-96.54970551,8.469202995,-20.0087738,-0.057781611,3.132076025,0.048808672,9,38
2020/6/12,11:44:44,22.9019922,120.2732251,19.992,11,-2,-14,2,-5,-961,-100.3513489,7.544528008,-19.9926796,-0.069916174,-2.838181019,0.008381248,9,38
2020/6/12,11:44:46,22.9019536,120.2732074,20.213,-44,2,-47,-32,34,-972,-104.6476746,5.723470688,-20.21355247,-0.046819694,-2.87793684,-0.011894551,9,38
2020/6/12,11:44:49,22.9019168,120.2731925,20.217,-78,37,-11,-37,7,-991,-108.7428284,4.201123238,-20.21770859,-0.053527888,-2.826501846,0.01436537,9,38
2020/6/12,11:44:51,22.9018785,120.2731763,20.054,-17,28,28,-86,15,-995,-113.0093918,2.539115906,-20.05486107,-0.058057718,-2.803787231,0.042106271,9,38
2020/6/12,11:44:54,22.9018506,120.2731475,20.097,-67,-83,20,-15,-14,-1018,-116.1152802,-0.419252396,-20.09769249,-0.093135588,-2.362034321,0.006533219,9,38
2020/6/12,11:44:56,22.901826,120.2731077,20.38,25,-1,61,-57,-21,-1024,-118.8513412,-4.498085022,-20.38020515,-0.078162827,-2.182789326,0.007368066,9,38
2020/6/12,11:44:59,22.9018029,120.2730616,20.102,60,7,7,-27,8,-1037,-121.1716385,-8.770467758,-20.15300751,-0.074913703,-2.222297668,-0.004436702,9,38
2020/6/12,11:45:01,22.9017793,120.2730167,20.019,240,132,104,-45,19,-986,-124.0536346,-13.82986259,-20.01945114,-0.075230226,-2.227400541,-0.017302092,9,38
2020/6/12,11:45:04,22.901782,120.2729724,19.965,-89,4,-95,-64,71,-973,-123.7446442,-18.37032509,-19.9655323,-0.086489826,-1.371584415,-0.027876638,9,38
2020/6/12,11:45:06,22.9017967,120.2729226,20.249,62,0,49,-30,9,-957,-122.0944977,-23.51275826,-20.24825478,-0.077080764,-1.329172492,-0.019287005,9,38
2020/6/12,11:45:09,22.9018138,120.2728695,20.117,-22,1,2,-90,74,-999,-120.2116623,-28.92252922,-20.11742973,-0.059877113,-1.277749062,-0.039394602,9,38
2020/6/12,11:45:11,22.9018324,120.272816,20.099,32,54,688,-69,29,-1028,-118.1331787,-34.41129303,-20.09955597,-0.095837347,-0.837167382,0.087414466,9,38
2020/6/12,11:45:14,22.9018733,120.2727844,19.899,2,-58,89,-59,31,-994,-113.5808563,-37.64762115,-19.8993206,-0.059259061,-0.494734675,-0.0083509,9,38
2020/6/12,11:45:16,22.9019219,120.2727538,20.014,79,3,-5,-8,-19,-986,-108.171257,-40.78785706,-20.01410103,-0.049434468,-0.468464077,-0.016203403,9,38
2020/6/12,11:45:19,22.901965,120.2727269,20.054,65,21,403,-6,22,-968,-103.3728867,-43.54826355,-20.05492592,-0.032174714,-0.373130947,0.051904656,9,38
2020/6/12,11:45:21,22.9020145,120.2727141,20.122,-3,21,-128,-18,-21,-971,-97.86921692,-44.85438538,-20.12210274,-0.041596323,0.013162876,0.005011089,9,38
2020/6/12,11:45:24,22.902066,120.2727099,20.09,-47,39,-151,14,-16,-1005,-92.13491821,-45.29210663,-20.09007835,-0.036680244,-0.103437118,-0.048086088,9,38
2020/6/12,11:45:26,22.9021192,120.2727016,20.072,-101,53,-3,-20,104,-960,-86.21252441,-46.13430786,-20.07291985,-0.03495279,0.046976514,0.026806802,9,38
2020/6/12,11:45:29,22.9021707,120.2726954,20.058,46,5,133,-23,20,-997,-80.47763824,-46.77539063,-20.05828476,-0.045087203,-0.013548763,0.01882264,9,38
2020/6/12,11:45:31,22.902221,120.2726907,20.107,21,-19,42,16,9,-978,-74.87684631,-47.25218964,-20.10707283,-0.039950747,-0.062692344,0.006056149,9,38
2020/6/12,11:45:34,22.9022706,120.2726855,20.165,11,30,-20,-31,-24,-995,-69.35874939,-47.7886734,-20.16528893,-0.043629628,0.070217185,0.020284332,9,38
2020/6/12,11:45:36,22.9023207,120.2726846,20.101,-21,8,-37,-90,59,-1003,-63.78242111,-47.88716888,-20.10146713,-0.045627475,0.084313251,0.014376994,9,38
2020/6/12,11:45:39,22.9023708,120.2726839,20.031,16,-3,52,-93,46,-989,-58.20327377,-47.95829773,-20.03171158,-0.04640808,0.081206806,0.020180527,9,38
2020/6/12,11:45:41,22.9024241,120.2726836,20.062,78,9,-16,26,-49,-988,-52.80992508,-47.97561646,-20.04450989,-0.067445323,0.059738707,-0.016640842,9,38
2020/6/12,11:45:44,22.9024724,120.2726823,20.112,-79,3,-14,-105,66,-1008,-46.88883972,-48.11543274,-20.1126461,-0.081908032,0.101512842,0.0065037,9,38
2020/6/12,11:45:46,22.9025241,120.2726825,19.956,11,7,-18,-60,5,-1009,-41.13372803,-48.09857178,-19.95623779,-0.091277845,0.063445829,-0.003914401,9,38
2020/6/12,11:45:49,22.9025738,120.2726771,19.989,86,30,-7,-17,-23,-995,-35.60917664,-48.6517334,-19.98963165,-0.101894781,-0.061184637,-0.017230887,9,38
2020/6/12,11:45:51,22.9026202,120.2726681,20.119,-7,-25,13,-54,10,-995,-30.43494034,-49.5739212,-20.11950493,-0.09551885,0.018612757,0.015538055,9,38
2020/6/12,11:45:54,22.9026728,120.2726626,20.007,-59,42,4,-167,82,-1022,-24.58884811,-50.14213562,-20.007267,-0.087574832,-0.127158254,-0.01500463,9,38
2020/6/12,11:45:56,22.9027256,120.2726537,20.035,-51,-14,-35,-149,54,-1009,-18.70508575,-51.0555954,-20.03587532,-0.112671152,-0.099769339,-0.008769455,9,38
2020/6/12,11:45:59,22.9027786,120.2726446,19.86,34,-22,32,-55,-14,-994,-13.41354656,-51.88693237,-19.85431862,-0.096125051,-0.084679812,-0.003326863,9,38
2020/6/12,11:46:01,22.902828,120.2726367,19.91,-47,-29,5,-82,78,-998,-7.303896904,-52.7922821,-19.91014481,-0.090611033,-0.095051534,-0.012944742,9,38
2020/6/12,11:46:04,22.9028763,120.2726341,20.083,-142,-26,46,-154,24,-1019,-1.935857415,-53.06026459,-20.08310509,-0.109549932,0.346383154,-0.011381644,9,38
2020/6/12,11:46:06,22.9029203,120.272646,20.151,-71,8,-20,-147,97,-1021,2.979402065,-51.84253693,-20.1516552,-0.121485658,0.386319727,-0.025466681,9,38
2020/6/12,11:46:09,22.9029683,120.2726594,19.865,32,-12,-1,-87,-29,-1019,8.320436478,-50.46346283,-19.86506081,-0.11050912,0.383673251,-0.025672402,9,38
2020/6/12,11:46:11,22.9030111,120.2726759,19.802,21,38,162,-85,76,-1000,13.08734226,-48.77333832,-19.80255508,-0.103781961,0.831436515,0.006963275,9,38
2020/6/12,11:46:14,22.9030422,120.2727097,19.756,-44,-10,21,-102,104,-1012,16.547369,-45.31327057,-19.75633049,-0.089186914,0.956803322,-0.051015608,9,38
2020/6/12,11:46:16,22.9030702,120.2727445,19.952,22,-49,-6,-92,52,-990,19.66459274,-41.73962402,-19.95212746,-0.084193215,0.951596677,-0.053260483,9,38
2020/6/12,11:46:19,22.9030992,120.2727799,20.068,56,1,22,-114,36,-1021,22.89304733,-38.10505676,-20.06858826,-0.080670998,0.953518331,-0.045516022,9,38
2020/6/12,11:46:21,22.9031154,120.2728215,20.148,11,-39,37,-49,16,-989,24.69766426,-33.84463501,-20.14844131,-0.050572518,1.537095189,-0.039813302,9,38
2020/6/12,11:46:24,22.9031177,120.2728636,20.197,-34,-2,-7,-110,137,-1005,24.95249748,-29.52993202,-20.1975975,-0.06223892,1.527511477,-0.06499923,9,38
2020/6/12,11:46:26,22.9031217,120.2729079,20.125,-73,0,2,-35,94,-977,25.40104866,-24.98211479,-20.12599564,-0.05267581,1.580988288,-0.049331635,9,38
2020/6/12,11:46:29,22.9031216,120.2729541,20.157,-26,21,71,-63,62,-1005,25.38995552,-20.24270439,-20.15735435,-0.044536225,1.806070447,-0.01838956,9,38
2020/6/12,11:46:31,22.9031094,120.2729972,20.132,8,-18,-4,-6,56,-1000,24.0279808,-15.82416344,-20.132761,-0.041410211,1.818080664,-0.055141557,9,38
2020/6/12,11:46:34,22.9030984,120.2730377,20.141,3,-23,-42,-76,91,-1004,22.80460167,-11.67465591,-20.14174271,-0.041688718,1.866884589,-0.061134119,9,38
2020/6/12,11:46:36,22.9030854,120.273078,20.316,-73,104,-7,-18,99,-1068,21.35498238,-7.546562195,-20.31604958,0.051165916,1.842290878,-0.062983766,9,38
2020/6/12,11:46:39,22.9030857,120.2730859,24.081,18,-24,-10,35,-16,-1011,21.38950157,-6.735967636,-24.08179665,0.032213721,1.82406497,-0.02468612,9,38
2020/6/12,11:46:41,22.9030838,120.2730812,29.07,58,-15,3,66,-10,-861,21.17502785,-7.217372894,-29.07048035,-0.046521518,1.843637347,0.006406102,9,38
2020/6/12,11:46:44,22.9030577,120.273089,29.977,21,-30,-16,-19,44,-1008,18.27630615,-6.414669037,-29.97740746,-0.080120981,1.865748525,0.052790686,9,38
2020/6/12,11:46:46,22.9029855,120.2731132,30.033,-42,-6,58,-120,25,-1006,10.23023796,-3.934553146,-30.03373718,-0.078264639,1.854073763,0.026934028,9,38
2020/6/12,11:46:49,22.9029128,120.2731435,30.038,-95,76,-13,20,32,-994,2.144003153,-0.827825546,-30.03874207,0.065357864,1.864886642,-0.095380671,9,38
2020/6/12,11:46:51,22.9028929,120.2731575,30.057,53,-38,3,7,35,-973,-0.088160992,0.61047554,-30.05726051,0.0532417,1.847212911,-0.039936233,9,38
2020/6/12,11:46:54,22.902894,120.2731507,30.048,-13,-19,-20,8,49,-1036,0.036865234,-0.083688736,-30.04839897,-0.031604838,1.844454169,-0.052790225,9,38
2020/6/12,11:51:16,22.9028801,120.2731713,17.728,70,16,8,5,-13,-881,-0.413521051,0.039068222,-17.7289772,-0.037583165,-2.145245075,-0.010679088,9,50
2020/6/12,11:51:19,22.9028897,120.2731609,19.878,54,-17,-246,-30,12,-991,0.650091648,-1.032690048,-19.87813377,-0.133517623,-0.843601882,-0.028410573,9,50
2020/6/12,11:51:21,22.9029176,120.2731283,20.268,0,4,24,-38,18,-1001,3.766105413,-4.377962112,-20.26894379,-0.076356784,-0.82378751,-0.001018067,9,50
2020/6/12,11:51:24,22.9029486,120.2730884,20.234,-29,-1,117,-82,70,-1027,7.222710609,-8.461847305,-20.23437881,-0.08226753,-0.681769669,0.023753434,9,50
2020/6/12,11:51:26,22.9029793,120.2730541,20.205,-72,-43,24,-113,97,-1005,10.63310814,-11.98343468,-20.20549965,-0.099614769,-0.665027618,-0.022148635,9,50
2020/6/12,11:51:29,22.9030114,120.2730189,20.305,69,-14,15,2,21,-997,14.21083832,-15.59035873,-20.30587959,-0.074306771,-0.680810034,-0.025042672,9,50
2020/6/12,11:51:31,22.9030454,120.2729809,20.206,39,-86,60,-68,10,-969,17.99319267,-19.48327255,-20.20664024,-0.096211791,-0.6852777,-0.020906027,9,50
2020/6/12,11:51:34,22.903079,120.2729425,20.333,42,-27,12,-78,-38,-988,21.38240433,-23.04704666,-20.33111572,-0.096852198,-0.665872931,-0.007092818,9,50
2020/6/12,11:51:36,22.9031083,120.2729106,20.403,-56,-27,84,-64,132,-947,24.99198151,-26.697155,-20.40340233,-0.132285818,-0.688511431,0.004421347,9,50
2020/6/12,11:51:39,22.9031144,120.2728784,19.819,66,-14,-120,-18,13,-990,25.68081856,-30.00295639,-19.81999397,-0.110753819,-2.504727602,-0.00527941,9,50
2020/6/12,11:51:41,22.9030819,120.2728408,19.933,-30,32,-48,-2,-33,-957,22.05677032,-33.85293579,-19.93333054,-0.060822599,-2.515424728,0.019704159,9,50
2020/6/12,11:51:44,22.9030501,120.27281,20.166,-97,-17,71,-79,34,-1004,18.51932907,-37.01696014,-20.16646004,-0.067267284,-2.420012951,0.062332831,9,50
2020/6/12,11:51:46,22.9030194,120.2727786,20.314,31,19,46,-16,-41,-989,15.09973717,-40.23292542,-20.31432152,-0.067095563,-2.398730516,0.045532569,9,50
2020/6/12,11:51:49,22.9029893,120.272747,20.309,51,-43,-13,-53,-49,-980,11.74682236,-43.47142792,-20.30916595,-0.072253764,-2.347972631,0.04486065,9,50
2020/6/12,11:51:51,22.902955,120.2727089,20.248,-90,10,-40,-60,55,-1005,8.294153214,-47.02105713,-20.25848579,-0.06494119,-2.410396576,0.037752904,9,50
2020/6/12,11:51:54,22.9029212,120.2726728,20.201,-59,18,-6,-26,15,-995,4.168422699,-51.0769577,-20.20192909,-0.054307655,-2.427692652,0.034278724,9,50
2020/6/12,11:51:56,22.9028884,120.2726381,20.254,11,20,-35,-46,-50,-1011,0.50451088,-54.64195251,-20.25403595,-0.059943508,-2.413858891,0.02827391,9,50
2020/6/12,11:51:59,22.9028575,120.2726058,20.217,-118,10,-719,-20,-13,-1005,-2.932955742,-57.95545959,-20.21766281,-0.021275386,-2.57541585,-0.056357678,9,50
2020/6/12,11:52:01,22.9028135,120.2725987,20.129,31,-26,-50,-49,-5,-990,-7.834429264,-58.67705536,-20.12907791,-0.027831243,2.889673233,-0.007803761,9,50
2020/6/12,11:52:04,22.9027656,120.2726057,20.088,67,1,53,34,-45,-977,-13.16553497,-57.96635437,-20.0887928,-0.033495106,2.889783382,0.009991921,9,50
2020/6/12,11:52:06,22.9027257,120.2726117,20.13,151,-45,56,11,-75,-973,-17.60195923,-57.34896851,-20.13005257,-0.026137596,2.883038759,-0.00036495,9,50
2020/6/12,11:52:09,22.9026857,120.2726182,20.169,19,11,39,-30,-11,-995,-22.0611248,-56.68360901,-20.16996574,-0.035355549,2.91680789,0.008688417,9,50
2020/6/12,11:52:11,22.9026405,120.272625,20.14,-102,47,10,-50,64,-1002,-27.0904789,-55.98016357,-20.14097786,-0.036187824,2.934412241,0.018827444,9,50
2020/6/12,11:52:14,22.9025957,120.2726321,20.14,-14,6,40,-2,-6,-1003,-32.07339859,-55.25676727,-20.14020538,-0.0073706,2.944880009,0.023778003,9,50
2020/6/12,11:52:16,22.9025506,120.2726387,20.109,104,53,-84,30,-64,-993,-37.10041428,-54.58026886,-20.10938072,0.004481815,2.930092096,0.050201356,9,50
2020/6/12,11:52:19,22.9025059,120.2726436,20.044,127,-10,-9,-24,-33,-1004,-42.07187271,-54.07958984,-20.04430199,0.006571196,2.83415556,-0.003094911,9,50
2020/6/12,11:52:21,22.9024635,120.2726507,20.095,7,-14,-34,-8,-10,-1029,-46.78989792,-53.35018921,-20.09550095,-0.004914179,2.898988485,0.010371809,9,50
2020/6/12,11:52:24,22.90242,120.2726567,20.079,50,3,69,66,-45,-989,-51.63995743,-52.72884369,-20.07909203,0.004207155,2.892549276,0.026256613,9,50
2020/6/12,11:52:26,22.9023769,120.2726624,20.025,-140,-22,7,-38,97,-995,-56.43744278,-52.14355469,-20.0254612,-0.000654225,2.863678455,-2.46E-05,9,50
2020/6/12,11:52:29,22.9023331,120.27267,20.012,-75,-31,46,-31,36,-986,-61.30451202,-51.37065125,-20.01290894,0.010974977,2.906132221,0.013474943,9,50
2020/6/12,11:52:31,22.90229,120.2726767,20.006,-60,0,74,-23,54,-982,-66.10173798,-50.68323517,-20.00634003,0.021872822,2.938549042,0.020893754,9,50
2020/6/12,11:52:34,22.9022467,120.2726823,20.012,77,-23,-4,28,-52,-1015,-70.92185974,-50.10922241,-20.01273346,0.005595684,2.880599499,0.015837196,9,50
2020/6/12,11:52:36,22.9022029,120.2726887,20.021,-5,26,104,20,-3,-994,-75.8072052,-49.44939423,-20.02186394,-0.000895785,2.902457476,-0.003163464,9,50
2020/6/12,11:52:39,22.902161,120.2726943,20.026,8,16,37,-61,-12,-1006,-80.47166443,-48.87609863,-20.02637482,-0.014646878,2.771465302,-0.006006842,9,50
2020/6/12,11:52:41,22.9021177,120.2727019,20.065,-39,-31,87,-36,88,-994,-85.28768158,-48.0933609,-20.06557846,-0.013168855,3.019593716,-0.016087607,9,50
2020/6/12,11:52:44,22.9020722,120.2727085,20.055,85,-2,-144,40,-41,-961,-90.35536957,-47.42488098,-20.05584908,0.011142388,2.990285873,-0.02223723,9,50
2020/6/12,11:52:46,22.9020317,120.2727132,20.025,102,-41,-8,-42,15,-1001,-94.8618927,-46.93861389,-20.02560616,-0.01151217,2.814504862,-0.033836775,9,50
2020/6/12,11:52:49,22.9019926,120.2727258,20.092,-1,-14,-142,-45,36,-994,-99.21165466,-45.64373398,-20.09235573,-0.056426968,2.449718952,-0.059262622,9,50
2020/6/12,11:52:51,22.901959,120.2727589,20.069,-16,-25,-79,-2,43,-994,-102.95298,-42.2546196,-20.06964684,-0.038701445,2.120406866,-0.064953402,9,50
2020/6/12,11:52:54,22.901932,120.2727969,20.227,56,-26,-40,-17,27,-978,-105.9550858,-38.3560257,-20.22714615,-0.037650172,2.117845535,-0.056842785,9,50
2020/6/12,11:52:56,22.9019076,120.2728345,20.094,72,-18,33,-39,-26,-1046,-108.6747894,-34.50019836,-20.09466553,-0.002455379,2.193108797,-0.032218628,9,50
2020/6/12,11:52:59,22.9018832,120.2728693,20.024,43,-19,93,70,0,-1016,-111.3958359,-30.93373489,-20.02499771,-0.010237442,2.207682848,-0.014508394,9,50
2020/6/12,11:53:02,22.9018559,120.272902,20.076,0,-2,-34,-22,29,-980,-114.4304962,-27.5765686,-20.0761795,-0.010821335,2.127256393,-0.053861767,9,50
2020/6/12,11:53:04,22.9018307,120.2729369,20.194,-71,-33,120,-59,136,-995,-117.2402878,-24.00391388,-20.19498825,-0.008713676,2.115771294,-0.050819252,9,50
2020/6/12,11:53:07,22.9018068,120.2729712,20.134,41,-79,68,-34,31,-986,-119.9174881,-20.45394897,-20.13481331,-0.053010643,2.203838825,-0.033313632,9,50
2020/6/12,11:53:09,22.90179,120.2730038,20.106,5,29,-894,-105,113,-995,-121.7684402,-17.1411705,-20.10612869,-0.106611803,1.014545918,-0.112584002,9,50
2020/6/12,11:53:12,22.9018156,120.2730387,20.327,12,21,14,-65,32,-966,-118.9134369,-13.5562191,-20.32788658,-0.085429206,0.656376302,-0.037298765,9,50
2020/6/12,11:53:14,22.9018474,120.2730683,20.18,-71,-22,157,-96,79,-1004,-115.3746567,-10.52369308,-20.1806469,-0.088402957,0.763350844,-0.023517296,9,50
2020/6/12,11:53:17,22.9018781,120.2730974,19.964,103,62,22,-51,53,-1016,-111.9590302,-7.536989212,-19.96469879,-0.071472868,0.807750225,-0.003963181,9,50
2020/6/12,11:53:19,22.9019093,120.2731311,20.013,32,25,-24,-85,55,-1022,-108.4862976,-4.087503433,-20.01396561,-0.064091682,0.734878421,-0.063862897,9,50
2020/6/12,11:53:22,22.9019396,120.273161,20.055,108,5,33,-9,-29,-997,-105.1102371,-1.020578384,-20.05591774,-0.055948835,0.744469106,-0.052133672,9,50
2020/6/12,11:53:24,22.9019726,120.273193,20.1,-48,-8,-23,-66,80,-997,-101.4385834,2.259490013,-20.1007309,-0.062769629,0.82788229,-0.048444971,9,50
2020/6/12,11:53:27,22.9020023,120.2732246,20.243,95,25,3,-30,9,-993,-98.1368103,5.50151062,-20.24376106,-0.074397728,0.73924768,-0.044193354,9,50
2020/6/12,11:53:29,22.9020331,120.2732563,20.212,-107,-16,13,-105,101,-1105,-94.70244598,8.750712395,-20.21258736,0.029049654,0.741710246,-0.021704338,9,50
2020/6/12,11:53:32,22.9020426,120.2732641,23.534,-42,-43,-18,-81,36,-1053,-93.64283752,9.554828644,-23.5344162,-0.00028384,0.74007678,-0.010538661,9,50
2020/6/12,11:53:34,22.9020407,120.2732628,28.539,-96,38,-37,-82,78,-903,-93.86260223,9.413852692,-28.53909874,-0.032612402,0.746681452,-0.036709126,9,50
2020/6/12,11:53:37,22.9020557,120.2732641,29.936,-82,23,6,-49,75,-975,-92.18495178,9.549879074,-29.93640327,-0.099094495,0.76022476,-0.134606823,9,50
2020/6/12,11:53:39,22.9021191,120.2732613,30.202,-20,12,-33,-69,97,-989,-85.13161469,9.269338608,-30.20288277,-0.079967573,0.787213326,-0.157992393,9,50
2020/6/12,11:53:42,22.9022108,120.2732496,30.279,39,0,-41,-20,133,-1014,-74.92041779,8.060415268,-30.27918816,-0.095926844,0.787813187,-0.126667023,9,50
2020/6/12,11:53:44,22.9023109,120.2732353,30.183,3,23,5,-27,67,-956,-63.69037628,6.591349602,-30.18365288,-0.075659148,0.77384758,-0.115052253,9,50
2020/6/12,11:53:47,22.9024144,120.2732248,30.101,-97,35,-8,-67,201,-1021,-52.25640106,5.521393776,-30.10164642,-0.044147424,0.751341939,-0.128619462,9,50
2020/6/12,11:53:49,22.9025194,120.2732115,29.982,54,4,38,0,66,-972,-40.56953812,4.154821396,-29.98205185,-0.070974365,0.757674992,-0.120633312,9,50
2020/6/12,11:53:52,22.902639,120.2731989,29.99,42,-56,50,-67,103,-990,-27.26102257,2.870976448,-29.99094772,-0.080153309,0.768535197,-0.127049431,9,50
2020/6/12,11:53:54,22.9027463,120.2731905,29.881,-37,27,-80,-84,188,-996,-15.31431007,2.004329681,-29.88173866,-0.046044026,0.759387136,-0.117152497,9,50
2020/6/12,11:53:57,22.9028415,120.2731785,30.029,-84,39,-38,-40,172,-961,-4.716756821,0.771753311,-30.0290451,0.029137786,0.735081375,-0.010346952,9,50
2020/6/12,11:53:59,22.9028804,120.2731697,29.846,-40,-51,44,-28,68,-1007,-0.382444859,-0.12972641,-29.84651756,0.021744847,0.715594769,0.016559301,9,50
2020/6/12,11:55:50,22.9028829,120.2731842,15.837,65,-39,-7,3,36,-929,0.154055834,1.149917603,-15.8371067,-0.011340134,0.669843912,-0.023484316,10,47
2020/6/12,11:55:53,22.9028856,120.2731804,19.52,-96,-68,-1319,-17,63,-956,0.450202465,0.764352798,-19.52035522,-0.069242015,-0.012217032,-0.051302083,10,47
2020/6/12,11:55:55,22.9029057,120.2731585,20.109,13,125,56,-89,-5,-986,2.390781879,-1.164957047,-20.05128288,-0.083480947,-0.858718157,0.035052843,10,47
2020/6/12,11:55:58,22.9029326,120.2731272,20.194,84,0,71,-94,-54,-1024,5.697203636,-4.692541122,-20.19403648,-0.102797553,-0.850298464,0.04417016,10,47
2020/6/12,11:56:00,22.9029648,120.2730901,19.896,-118,-19,72,-42,58,-986,9.275186539,-8.500663757,-19.8964653,-0.071225472,-0.836862683,0.033762794,10,47
2020/6/12,11:56:03,22.9029877,120.2730616,20.111,68,-17,77,-161,36,-1021,11.83051205,-11.42272758,-20.11171341,-0.127062529,-0.79063952,0.033660229,10,47
2020/6/12,11:56:05,22.9030184,120.2730251,19.885,-112,65,-50,-79,-19,-1004,15.24745178,-15.16429138,-19.88504982,-0.0780745,-0.720398843,0.056507818,10,47
2020/6/12,11:56:08,22.9030439,120.2729972,20.084,-62,25,-115,-3,-21,-982,18.0803318,-18.02219391,-20.08467102,-0.089226365,-0.712070882,0.062623382,10,47
2020/6/12,11:56:10,22.9030687,120.2729683,19.994,153,51,98,-40,-84,-1048,20.84840012,-20.98264694,-19.99421883,-0.08096166,-0.789230466,0.072451986,10,47
2020/6/12,11:56:13,22.9030946,120.2729382,20.173,-109,-156,40,-103,20,-946,23.72309875,-24.06892395,-20.17397499,-0.107447311,-0.683657706,0.061387461,10,47
2020/6/12,11:56:15,22.9031208,120.2729089,20.241,35,179,26,-21,-37,-981,26.64920235,-27.07985306,-20.24167633,-0.113270573,-0.702135086,0.046132173,10,47
2020/6/12,11:56:18,22.9031417,120.2728769,19.771,78,68,-979,21,-46,-1051,28.96894455,-30.35660172,-19.77197266,-0.028894424,-2.069961548,-0.092778824,10,47
2020/6/12,11:56:20,22.9031106,120.2728491,19.727,-75,-22,60,14,77,-972,25.47269821,-33.23112488,-19.72995567,0.009784909,-2.407244444,0.005333573,10,47
2020/6/12,11:56:23,22.9030802,120.2728242,19.979,2,-10,138,18,-3,-980,22.11994553,-35.7623024,-19.97947693,-0.004651002,-2.263215542,0.011314312,10,47
2020/6/12,11:56:25,22.9030534,120.2728,20.159,-33,-12,-13,12,47,-999,19.13832092,-38.24571609,-20.15903473,-0.020064864,-2.213411808,0.010795004,10,47
2020/6/12,11:56:28,22.9030272,120.2727737,20.242,-51,20,-84,5,-25,-1033,16.22738266,-40.93817902,-20.24240494,-0.001681803,-2.18804121,-0.000157596,10,47
2020/6/12,11:56:30,22.9029995,120.2727473,20.228,33,23,-7,23,-28,-960,13.12209415,-43.67537689,-20.22766495,-0.021186743,-2.205896616,0.025156669,10,47
2020/6/12,11:56:33,22.902973,120.2727208,20.238,42,8,68,21,-22,-1007,10.19313622,-46.36008072,-20.23805809,0.003294377,-2.225338459,0.029938385,10,47
2020/6/12,11:56:35,22.9029403,120.2726888,20.238,-94,-9,0,-16,81,-998,6.556140423,-49.6424408,-20.2385025,0.003677063,-2.236147881,0.012599964,10,47
2020/6/12,11:56:38,22.9029138,120.2726639,20.222,-82,-38,-29,-50,75,-997,3.598642111,-52.1964798,-20.2225132,-0.005727177,-2.21596384,0.02243631,10,47
2020/6/12,11:56:40,22.9028825,120.2726327,20.22,-54,-6,-71,16,28,-1003,0.110706568,-55.39772034,-20.22075844,-0.011855558,-2.222924471,0.015068437,10,47
2020/6/12,11:56:43,22.9028515,120.2726132,20.174,48,-85,-568,-21,-10,-1035,-3.347136974,-57.40300751,-20.17435837,-0.060842831,3.020909786,-0.0981194,10,47
2020/6/12,11:56:45,22.9028031,120.2726307,20.201,42,7,50,13,52,-959,-8.734494209,-55.59953308,-20.20124626,-0.013882033,2.871126175,-0.039902262,10,47
2020/6/12,11:56:48,22.902756,120.2726526,20.188,-68,-5,-14,-45,72,-970,-13.97057533,-53.36079407,-20.18811607,-0.009745041,3.00385499,-0.012985448,10,47
2020/6/12,11:56:50,22.9027135,120.2726694,20.157,-34,-13,-23,8,82,-980,-18.71227646,-51.63355255,-20.15771484,-0.023036186,2.98335433,-0.032799087,10,47
2020/6/12,11:56:53,22.9026694,120.2726874,20.149,-84,3,34,-82,52,-984,-23.61196899,-49.79371643,-20.14964867,-0.022089163,2.959036112,-0.028223217,10,47
2020/6/12,11:56:55,22.9026293,120.2727036,20.227,-77,59,-38,-32,108,-1016,-28.0832653,-48.1271286,-20.2277832,-0.037804365,2.980802536,-0.041250758,10,47
2020/6/12,11:56:58,22.9025816,120.2727234,20.155,55,0,-5,13,6,-983,-33.38894653,-46.09945297,-20.15594482,-0.014245679,2.970399857,-0.028357398,10,47
2020/6/12,11:57:01,22.9025358,120.2727421,20.234,-25,-42,6,-2,-18,-999,-38.49364471,-44.1785965,-20.23413658,-0.009706832,2.979989529,-0.031357292,10,47
2020/6/12,11:57:03,22.9024931,120.2727594,20.243,-85,21,232,-45,31,-1022,-43.23955536,-42.41151428,-20.24366379,-0.042265154,-2.97708106,0.049547594,10,47
2020/6/12,11:57:06,22.9024526,120.2727569,20.298,39,38,139,-5,51,-990,-47.75162506,-42.66324234,-20.29891014,-0.038121887,-2.878705978,-0.011502144,10,47
2020/6/12,11:57:08,22.9024102,120.2727526,20.194,34,-6,40,22,-5,-1026,-52.47331238,-43.10704803,-20.1945343,-0.033322588,-2.8282516,-0.017111622,10,47
2020/6/12,11:57:11,22.9023618,120.2727463,20.244,46,-40,-2,4,-8,-977,-57.85510254,-43.75106049,-20.24435806,-0.021430764,-2.869590044,-0.018419489,10,47
2020/6/12,11:57:13,22.9023169,120.2727406,20.16,57,-28,50,22,-1,-977,-62.39545441,-44.29563141,-20.16063118,-0.029176006,-2.880714417,-0.02482808,10,47
2020/6/12,11:57:16,22.9022765,120.2727368,20.211,154,5,26,-55,-23,-1030,-67.35449219,-44.72597885,-20.2117939,-0.024416916,-2.876054287,0.018819708,10,47
2020/6/12,11:57:18,22.9022305,120.2727315,20.251,47,28,70,0,-16,-995,-72.47249603,-45.26324081,-20.25135803,-0.032047808,-2.815459728,0.036963228,10,47
2020/6/12,11:57:21,22.9021889,120.2727229,20.214,44,21,-37,50,-71,-991,-77.100914,-46.14806747,-20.21482277,-0.044721626,-2.93470645,0.007080568,10,47
2020/6/12,11:57:23,22.902143,120.2727181,20.179,-62,-13,-154,-62,-55,-1023,-82.21322632,-46.64464569,-20.17948532,-0.048002835,-2.866806746,0.009604293,10,47
2020/6/12,11:57:26,22.9020961,120.2727153,20.256,-10,-24,100,-21,-70,-984,-87.43706512,-46.92728424,-20.25603676,-0.057132564,-2.795962334,0.070200205,10,47
2020/6/12,11:57:28,22.9020537,120.2727072,20.201,79,-15,-25,-15,-23,-1016,-92.1556778,-47.76229858,-20.20179176,-0.06317392,-2.919399977,0.042443365,10,47
2020/6/12,11:57:31,22.9020084,120.2727019,20.14,-13,21,67,-53,-1,-1005,-97.19880676,-48.29965973,-20.14030266,-0.051241584,-2.902059793,0.042537201,10,47
2020/6/12,11:57:33,22.9019677,120.2726978,20.352,13,-88,-899,-5,-57,-946,-101.730423,-48.72286224,-20.3526783,0.089632943,-3.026552677,0.026126891,10,47
2020/6/12,11:57:36,22.9019657,120.2727232,20.136,-193,307,200,-55,66,-969,-101.9561234,-46.11538315,-20.13647079,-0.041531339,1.170960188,-0.030809395,10,47
2020/6/12,11:57:38,22.9019779,120.2727737,20.179,54,-17,6,50,-55,-1001,-100.5966415,-40.93535995,-20.17965317,-0.027056754,1.273958325,0.005553219,10,47
2020/6/12,11:57:41,22.9019876,120.2728201,20.159,-190,70,-349,-48,91,-968,-99.50911713,-36.18481445,-20.15998077,-0.03333921,1.268598318,-0.010926447,10,47
2020/6/12,11:57:43,22.9019957,120.2728684,20.254,25,42,-79,-54,0,-1020,-98.61205292,-31.227108,-20.25473022,-0.057756882,1.254363179,-0.038414277,10,47
2020/6/12,11:57:46,22.9020076,120.2729252,20.268,-5,-24,63,-118,107,-999,-97.28355408,-25.40731812,-20.26858902,-0.073244415,1.258839488,-0.034595005,10,47
2020/6/12,11:57:48,22.9020191,120.2729751,20.292,115,-49,90,-12,-57,-986,-96.01066589,-20.28871918,-20.29283905,-0.056026373,1.305478096,-0.015471949,10,47
2020/6/12,11:57:51,22.9020296,120.2730347,20.162,-31,23,7,-57,72,-993,-94.83889008,-14.17402458,-20.16281891,-0.067432873,1.224178791,-0.036198344,10,47
2020/6/12,11:57:53,22.9020412,120.2730917,20.269,-10,-20,-12,-67,15,-994,-93.54335022,-8.33350563,-20.26948738,-0.055982955,1.252349973,-0.019246962,10,47
2020/6/12,11:57:56,22.902051,120.2731478,20.224,-127,98,83,-79,61,-985,-92.4590683,-2.574144363,-20.22441292,-0.068422668,1.156644821,-0.045755055,10,47
2020/6/12,11:57:58,22.9020616,120.2731999,20.168,121,10,-59,-37,-40,-1029,-91.27781677,2.761681557,-20.16877365,-0.065657318,1.193124652,-0.076683491,10,47
2020/6/12,11:58:01,22.9020775,120.2732491,20.541,-55,-79,-10,-8,-5,-1102,-89.50827026,7.810689926,-20.54147339,0.090529539,1.181605816,0.040886361,10,47
2020/6/12,11:58:03,22.9020755,120.2732536,24.847,-60,-38,76,30,101,-949,-89.7252121,8.265739441,-24.84706497,-0.003719891,1.151809216,-0.006886942,10,47
2020/6/12,11:58:06,22.9020738,120.273258,29.355,-71,8,-78,47,48,-943,-89.91007996,8.720775604,-29.36829948,-0.012240286,1.144149899,-0.112999722,10,47
2020/6/12,11:58:08,22.9021051,120.2732562,30.156,-142,-41,134,-129,160,-967,-86.4379425,8.53978157,-30.15657997,-0.05629535,1.180723548,-0.184558257,10,47
2020/6/12,11:58:11,22.9021815,120.2732507,30.466,105,164,53,-11,107,-976,-77.92980957,7.96999073,-30.46608925,-0.009568375,1.23344779,-0.148296103,10,47
2020/6/12,11:58:13,22.9022793,120.2732372,30.413,-84,-85,-87,-60,82,-1033,-67.04579926,6.583534241,-30.41358948,-0.067627832,1.243117809,-0.080794476,10,47
2020/6/12,11:58:16,22.9023846,120.2732274,29.902,-103,11,-53,-29,78,-991,-55.32463837,5.587859154,-29.90236664,-0.064826608,1.226101637,-0.061401512,10,47
2020/6/12,11:58:18,22.9024858,120.2732165,30.075,8,-55,2,-12,12,-931,-44.05443573,4.466215134,-30.07565689,-0.064460501,1.226053476,-0.087344907,10,47
2020/6/12,11:58:21,22.9025887,120.2732075,30.08,66,3,3,52,22,-963,-32.59537506,3.547728539,-30.08033562,-0.036950275,1.193374753,-0.101516791,10,47
2020/6/12,11:58:23,22.902698,120.2731967,30.193,59,18,-12,19,48,-973,-20.43255615,2.434113503,-30.19302559,-0.028278749,1.168479443,-0.100332089,10,47
2020/6/12,11:58:26,22.902808,120.2731842,30.333,24,0,-16,-56,78,-986,-8.191019058,1.155075073,-30.33325958,-0.004241385,1.185091734,-0.006128209,10,47
2020/6/12,11:58:28,22.9028694,120.2731752,29.907,137,0,18,33,-66,-1031,-1.350086689,0.233377457,-29.90711784,0.01008768,1.187482119,0.067621142,10,47
2020/6/12,11:58:31,22.9028772,120.2731733,29.905,-55,-6,-67,-41,2,-1006,-0.488543272,0.035167694,-29.90579414,-0.031195689,1.177475572,0.002159343,10,47
2020/6/12,12:01:22,22.9028729,120.2731829,18.925,-96,35,18,20,0,-859,0.023827791,0.028659821,-18.9257679,-0.002756798,1.227517962,-0.046637516,10,343
2020/6/12,12:01:24,22.9028925,120.2731719,20.03,-85,-15,1,6,0,-937,2.21414566,-1.102962494,-20.03088951,-0.072149284,-0.764073908,-0.017789222,10,343
2020/6/12,12:01:27,22.90293,120.2731462,20.16,7,-59,-87,-51,62,-976,6.398501873,-3.734603882,-20.16045761,-0.07106778,-0.827919006,-0.027969919,10,343
2020/6/12,12:01:29,22.9029687,120.2731133,20.27,10,-83,6,-30,32,-1010,10.70024681,-7.108755112,-20.27060509,-0.057567086,-0.692671537,-0.030965839,10,343
2020/6/12,12:01:32,22.9030039,120.2730767,20.161,132,25,-113,-15,-12,-1011,14.61759472,-10.86096382,-20.16184044,-0.068433106,-1.066159487,-0.061118264,10,343
2020/6/12,12:01:34,22.9030283,120.273034,20.274,-76,16,26,-113,47,-1026,17.33380699,-15.24140358,-20.27432251,-0.094718926,-1.130903244,-0.029852718,10,343
2020/6/12,12:01:37,22.9030497,120.2729809,20.103,-22,0,-31,-97,36,-1027,19.71502113,-20.68985558,-20.10324287,-0.10730613,-1.33587718,-0.034603864,10,343
2020/6/12,12:01:39,22.9030652,120.2729343,20.092,65,9,1,-6,-32,-979,21.44021225,-25.47108269,-20.09250641,-0.101298824,-1.437745929,-0.028600734,10,343
2020/6/12,12:01:42,22.9030785,120.2728846,20.006,-131,59,-440,-6,-23,-989,22.92675018,-30.56114006,-20.00606537,-0.080149971,-1.459666014,-0.070391983,10,343
2020/6/12,12:01:45,22.9030748,120.2728345,20.04,-1,-9,-30,-63,-17,-1002,22.51127052,-35.70133209,-20.04093933,-0.089649379,-1.926335931,-0.007027326,10,343
2020/6/12,12:01:47,22.9030654,120.2727882,20.054,28,5,-29,-91,0,-966,21.47024345,-40.45140076,-20.05454254,-0.079468593,-1.964567184,-0.014504177,10,343
2020/6/12,12:01:50,22.9030563,120.2727433,20.292,-102,19,-495,-63,15,-993,20.45091057,-45.05473328,-20.29210472,-0.082103342,-2.056078911,-0.071180843,10,343
2020/6/12,12:01:52,22.9030278,120.2727075,20.237,-6,-42,3,-91,21,-1004,17.28535271,-48.72564697,-20.23740005,-0.079257376,-2.488266945,0.007163911,10,343
2020/6/12,12:01:55,22.9029976,120.2726761,20.164,-5,-1,13,-126,-12,-1023,13.91954613,-51.94255066,-20.16452408,-0.086303353,-2.556847811,0.007767998,10,343
2020/6/12,12:01:57,22.9029658,120.2726447,20.063,-110,-23,-238,-18,-41,-995,10.37996674,-55.16627502,-20.06395912,-0.069856226,-2.582924128,-0.01686867,10,343
2020/6/12,12:02:00,22.9029275,120.2726278,20.115,-4,-42,-55,-49,-12,-970,6.121517658,-56.8914566,-20.11576271,-0.088577725,-2.967076778,0.009279945,10,343
2020/6/12,12:02:02,22.902888,120.2726182,20.128,-26,41,66,-64,-46,-982,1.710757017,-57.87998962,-20.12893677,-0.070442557,-2.976219177,0.026150528,10,343
2020/6/12,12:02:05,22.9028489,120.2726062,20.31,-128,-2,52,-142,98,-1001,-2.639778376,-59.11352539,-20.31073189,-0.097513638,3.137704372,-0.025493421,10,343
2020/6/12,12:02:07,22.9028034,120.2726107,20.165,-69,13,-95,-83,61,-1031,-7.200944901,-58.72224426,-20.20108414,-0.086881965,2.947479725,0.006576151,10,343
2020/6/12,12:02:10,22.9027588,120.2726178,19.922,81,12,20,-20,-48,-988,-12.67162132,-57.92610931,-19.92276955,-0.071916714,2.786979914,-0.013056488,10,343
2020/6/12,12:02:12,22.9027206,120.2726277,19.918,9,2,-34,-36,-45,-1007,-16.92086792,-56.90390015,-19.91845894,-0.064925715,2.843183041,0.019908324,10,343
2020/6/12,12:02:15,22.9026793,120.272653,19.939,-13,11,-44,-3,0,-998,-21.51958275,-54.31634521,-19.93940735,-0.038370028,2.322391033,0.015913304,10,343
2020/6/12,12:02:17,22.9026489,120.2726849,20.055,-62,-3,-1,-55,51,-986,-24.90797997,-51.043396,-20.05514908,-0.039790507,2.247403622,0.005699906,10,343
2020/6/12,12:02:20,22.9026208,120.2727183,20.151,-51,-4,69,-8,20,-977,-28.03651428,-47.61235046,-20.15139008,-0.036275499,2.277872086,0.035109412,10,343
2020/6/12,12:02:22,22.9025983,120.272756,20.172,-33,-3,-153,-18,-4,-1002,-30.53986931,-43.75469971,-20.17259598,-0.026726946,1.733255744,-0.028123382,10,343
2020/6/12,12:02:25,22.9025891,120.2728058,20.126,1,0,-14,-44,-24,-1034,-31.56490517,-38.64204407,-20.12659836,-0.019499535,1.652693391,-0.011077371,10,343
2020/6/12,12:02:27,22.9025824,120.2728522,20.069,-8,0,17,-61,23,-1027,-32.31467056,-33.88202667,-20.06950951,-0.038671549,1.613083482,-0.01579994,10,343
2020/6/12,12:02:30,22.9025789,120.2728996,20.101,-82,15,-126,-52,86,-964,-32.70110321,-29.02009392,-20.10127258,-0.030809721,1.468373299,-0.030554671,10,343
2020/6/12,12:02:32,22.9025836,120.2729472,20.093,35,5,9,-30,-14,-990,-32.17939377,-24.13898659,-20.09338188,-0.030490279,1.357470989,-0.022225957,10,343
2020/6/12,12:02:35,22.9025905,120.2729989,20.136,55,32,-35,40,-81,-973,-31.41278267,-18.84548759,-20.13663864,-0.023723736,1.350651503,-0.016151186,10,343
2020/6/12,12:02:37,22.902599,120.2730455,20.111,20,0,-334,-12,19,-984,-30.46151543,-14.06043434,-20.11134338,-0.047284573,1.040948987,-0.079109065,10,343
2020/6/12,12:02:40,22.9026266,120.2730866,20.125,-52,16,-32,-50,121,-990,-27.38941956,-9.852872849,-20.12504959,-0.034155425,0.76379329,-0.038864344,10,343
2020/6/12,12:02:42,22.9026583,120.2731239,20.092,-5,17,4,-47,7,-996,-23.85846519,-6.024656296,-20.09236145,-0.045795515,0.795672297,-0.020253409,10,343
2020/6/12,12:02:45,22.9026914,120.2731557,20.085,-31,41,-217,-28,50,-1012,-20.17282677,-2.765882492,-20.0858078,-0.05727708,0.205875382,-0.079197109,10,343
2020/6/12,12:02:47,22.902738,120.2731673,20.151,83,-21,-43,-17,-48,-1014,-14.99144745,-1.569566727,-20.15113449,-0.06223575,0.028047547,-0.038397342,10,343
2020/6/12,12:02:50,22.9027872,120.273174,20.098,8,0,34,-54,41,-1019,-9.511094093,-0.887584686,-20.09813309,-0.050506528,0.072563171,-0.032474931,10,343
2020/6/12,12:02:52,22.9028208,120.2731786,21.298,38,-101,-5,-5,31,-932,-5.77524662,-0.414693832,-21.2988987,0.011898203,0.061724022,-0.031920146,10,343
2020/6/12,12:02:55,22.9028498,120.2731832,22.556,-10,112,13,-5,-43,-981,-2.547592402,0.057685852,-22.55684853,-0.06035541,0.079326689,-0.055851061,10,343
2020/6/12,12:02:57,22.9028745,120.2731846,22.633,-40,-9,-10,-58,70,-1013,0.202828169,0.200181961,-22.63301849,0.041174486,0.051773105,-0.018335,10,343
2020/6/12,12:03:00,22.9028735,120.2731831,22.63,-9,-18,-7,42,-11,-1002,0.08632493,0.04867363,-22.63009262,-0.006520291,0.034493014,-0.006799688,10,343
2020/6/12,12:05:31,22.9028703,120.2731823,18.904,-117,-127,-11,-34,68,-897,0.147814274,0.097795486,-18.90474319,-0.074148498,-1.565380573,-0.04538044,10,343
2020/6/12,12:05:34,22.9028552,120.2731611,20.095,-29,69,-21,-75,27,-970,-1.529013634,-2.074537277,-20.09569931,-0.108113594,-2.306223154,-0.010585749,10,343
2020/6/12,12:05:36,22.902825,120.2731211,20.198,-39,45,80,-20,28,-990,-4.887084007,-6.182300568,-20.19855881,-0.080033839,-2.34586072,-0.00789008,10,343
2020/6/12,12:05:39,22.9027935,120.2730804,20.164,8,26,1,-2,17,-974,-8.428361893,-10.38158989,-20.16487885,-0.057606682,-2.294836283,-0.014168297,10,343
2020/6/12,12:05:41,22.9027634,120.2730433,20.092,48,-18,1,-111,0,-999,-11.74535751,-14.161129,-20.09222794,-0.065738171,-2.216190338,0.007910485,10,343
2020/6/12,12:05:44,22.9027348,120.2730031,20.008,-37,0,-66,3,-23,-974,-14.93808079,-18.27573204,-20.00800323,-0.06859722,-2.265358448,-0.038158186,10,343
2020/6/12,12:05:46,22.9027062,120.2729657,20.203,-134,-1,-49,-61,0,-1002,-18.11983871,-22.11508751,-20.20358276,-0.069829673,-2.284096479,-0.034704387,10,343
2020/6/12,12:05:49,22.902679,120.2729269,20.155,91,-38,1312,-22,18,-1007,-21.14093018,-26.09263039,-20.15596962,0.03372914,-1.905773759,0.072853617,10,343
2020/6/12,12:05:51,22.9026972,120.2728963,19.883,-26,13,-29,-21,7,-1039,-19.12280273,-29.23460579,-19.8838768,-0.045419,-0.816721439,-0.002471289,10,343
2020/6/12,12:05:54,22.9027265,120.2728621,20.043,-9,-11,-57,11,-22,-1002,-15.8579855,-32.73580933,-20.0432148,-0.041172907,-0.862179399,-0.018114105,10,343
2020/6/12,12:05:56,22.9027568,120.2728257,20.144,0,-30,38,-30,41,-975,-12.48219585,-36.47138977,-20.1448288,-0.037146918,-0.864319086,-0.019200686,10,343
2020/6/12,12:05:59,22.9027865,120.2727885,20.2,97,17,39,46,-61,-994,-9.177248001,-40.28299713,-20.20028496,-0.047657665,-0.81200242,-0.016499393,10,343
2020/6/12,12:06:01,22.9028173,120.2727542,19.946,-40,-17,-41,-90,89,-994,-5.747366905,-43.80109406,-19.94696999,-0.050225366,-0.877921581,-0.025150537,10,343
2020/6/12,12:06:04,22.9028492,120.272717,20.093,-27,0,-34,-66,35,-995,-2.19453001,-47.61593628,-20.09309387,-0.038966991,-0.876294494,-0.022838686,10,343
2020/6/12,12:06:06,22.9028785,120.2726801,20.085,10,33,-84,3,-33,-975,1.058307648,-51.39833069,-20.0858078,-0.072435938,-0.837483048,0.006464446,10,343
2020/6/12,12:06:09,22.9029082,120.2726466,20.209,103,-2,56,-31,-57,-983,4.376888752,-54.83376312,-20.2091713,-0.059939064,-0.909986258,-0.031537838,10,343
2020/6/12,12:06:11,22.9029219,120.2726273,20.011,-33,1,-1075,-93,77,-1034,5.905425072,-56.81289673,-20.01143456,-0.090282165,-2.18793273,-0.131927237,10,343
2020/6/12,12:06:14,22.9028845,120.2726278,20.047,51,-8,-118,19,-34,-963,1.732656956,-56.76499939,-20.0473175,-0.054641269,2.976049185,-0.010106702,10,343
2020/6/12,12:06:17,22.9028418,120.272634,20.023,126,-16,247,-45,-53,-992,-3.025173664,-56.12854004,-20.02350044,-0.068549156,3.007118464,0.042864874,10,343
2020/6/12,12:06:19,22.9027985,120.2726385,20.051,83,-14,44,18,-40,-960,-7.847207069,-55.6622467,-20.05100441,-0.077989116,3.055296421,0.009371215,10,343
2020/6/12,12:06:22,22.9027488,120.2726423,20.204,7,-5,-30,-22,-39,-922,-13.37597752,-55.27281952,-20.20464516,-0.06958022,3.00894165,-0.023049075,10,343
2020/6/12,12:06:24,22.9027011,120.2726485,20.415,-65,42,9,-65,55,-1004,-18.68234634,-54.64305115,-20.41573334,-0.089028046,3.056086063,-0.006999246,10,343
2020/6/12,12:06:27,22.902651,120.272652,20.16,-1,-30,-28,-43,-75,-991,-24.25835419,-54.27957153,-20.16041946,-0.085489437,2.986234188,-0.018218234,10,343
2020/6/12,12:06:29,22.902599,120.2726566,19.886,6,34,42,-92,56,-991,-30.04788589,-53.80696869,-19.88677406,-0.04240527,2.947259903,-0.017849252,10,343
2020/6/12,12:06:32,22.9025521,120.272662,19.94,-6,34,-18,-103,14,-1013,-35.27445984,-53.25511932,-19.94099808,-0.073398851,2.965199232,-0.024773754,10,343
2020/6/12,12:06:34,22.9025003,120.2726674,19.927,-88,-21,-13,-30,33,-1007,-41.03414154,-52.69948578,-19.92756081,-0.0512507,2.970339298,-0.001090757,10,343
2020/6/12,12:06:37,22.9024484,120.272673,19.985,-4,-3,-58,-18,-38,-976,-46.81038284,-52.13063812,-19.98543167,-0.066066481,2.997777462,-0.009799494,10,343
2020/6/12,12:06:39,22.9023987,120.2726778,20.009,-98,-17,-74,-83,32,-985,-52.34930038,-51.63540649,-20.00910759,-0.053268213,2.996831179,-0.013453902,10,343
2020/6/12,12:06:42,22.9023495,120.2726819,20.088,28,6,-40,-23,-35,-1000,-57.82318115,-51.21366882,-20.08873749,-0.055780657,2.928070784,-0.026046257,10,343
2020/6/12,12:06:44,22.9023011,120.2726896,20.178,-30,98,47,-50,38,-999,-63.20810318,-50.42554474,-20.17853928,-0.065870091,3.063599348,0.017513175,10,343
2020/6/12,12:06:47,22.9022546,120.2726931,20.172,42,-22,7,-97,-67,-1016,-68.3917923,-50.07010651,-20.17273331,-0.08303836,3.023826599,0.023427334,10,343
2020/6/12,12:06:49,22.9022036,120.2726977,20.045,8,-12,-21,-83,-3,-1012,-74.06188202,-49.59825897,-20.04561996,-0.07390181,2.967357159,0.031773582,10,343
2020/6/12,12:06:52,22.9021518,120.272702,19.82,101,17,7,-65,-75,-1004,-79.83504486,-49.15675354,-19.82062531,-0.046730399,2.912350893,0.016736809,10,343
2020/6/12,12:06:54,22.9021025,120.2727082,19.936,-82,8,44,-67,52,-976,-85.31880188,-48.51974487,-19.93630028,-0.065530963,2.966229916,0.028882645,10,343
2020/6/12,12:06:57,22.9020583,120.2727148,20.028,12,-39,-1266,-2,-48,-1000,-90.23519897,-47.83755493,-20.02884293,-0.024265096,2.233155727,-0.123444058,10,343
2020/6/12,12:06:59,22.9020536,120.2727582,20.051,28,2,-44,18,-5,-1006,-90.76914215,-43.3961792,-20.05115318,-0.031836443,1.209687948,-0.00442938,10,343
2020/6/12,12:07:02,22.9020595,120.2728054,20.08,67,-13,92,-12,-65,-1031,-90.11195374,-38.55134583,-20.08007813,-0.023948494,1.282026052,0.008542969,10,343
2020/6/12,12:07:04,22.9020651,120.2728481,20.113,-17,-15,-3,-28,22,-975,-89.4863739,-34.17388153,-20.11340714,-0.019351257,1.373816252,0.02665545,10,343
2020/6/12,12:07:07,22.9020676,120.2728953,20.125,-32,-14,-50,-68,25,-1004,-89.20645905,-29.331007,-20.12553406,-0.021980613,1.315115452,-0.015670814,10,343
2020/6/12,12:07:09,22.9020727,120.2729492,20.074,70,17,-1,18,-92,-1019,-88.63562775,-23.80277443,-20.07462311,-0.020700969,1.314349651,0.004893671,10,343
2020/6/12,12:07:12,22.9020767,120.2730001,20.073,-37,3,33,-15,68,-978,-88.1973114,-18.58851051,-20.07366753,-0.012621978,1.23529911,-0.018797208,10,343
2020/6/12,12:07:14,22.9020826,120.2730472,20.021,21,-1,26,11,20,-1006,-87.53765106,-13.75563622,-20.0214653,-0.016496383,1.29161787,-0.017184824,10,343
2020/6/12,12:07:17,22.9020884,120.273102,20.006,9,-12,16,-31,6,-985,-86.89273834,-8.135461807,-20.00683975,-0.018624699,1.283160925,-0.004482174,10,343
2020/6/12,12:07:19,22.9020927,120.273152,20.015,22,-10,-33,-41,-5,-983,-86.41026306,-3.013660431,-20.01526642,-0.02825962,1.252160072,-0.00876172,10,343
2020/6/12,12:07:22,22.9020985,120.2732023,19.967,106,-9,27,45,-51,-999,-85.76802063,2.145674706,-19.96751404,-0.025750574,1.270186901,-0.014655893,10,343
2020/6/12,12:07:24,22.902104,120.2732397,20.763,-9,-21,59,39,18,-1083,-85.15317535,5.988244057,-20.76397324,0.093824148,1.268366337,-0.005034598,10,343
2020/6/12,12:07:27,22.902104,120.2732414,25.449,81,-22,3,54,-70,-1028,-85.1526413,6.157179832,-25.44971848,0.026580017,1.272780657,0.003558754,10,343
2020/6/12,12:07:29,22.9021039,120.2732417,29.488,54,-11,-24,6,-10,-983,-85.16835022,6.18791008,-29.48820496,0.009226928,1.287909985,-0.126587972,10,343
2020/6/12,12:07:32,22.9021423,120.2732427,30.064,-23,-1,-27,-9,96,-946,-80.89304352,6.291004181,-30.06402779,0.03084876,1.265312672,-0.159466863,10,343
2020/6/12,12:07:34,22.9022212,120.2732383,30.223,-26,4,-22,19,142,-942,-72.1035614,5.841239929,-30.22362709,0.034867417,1.227223516,-0.137110591,10,343
2020/6/12,12:07:37,22.9023286,120.2732264,30.209,31,58,-20,97,79,-1010,-60.15021133,4.617660522,-30.20960426,0.019737661,1.2432127,-0.115663372,10,343
2020/6/12,12:07:39,22.9024315,120.2732172,30.072,-55,-7,-8,128,83,-917,-48.69497299,3.671480179,-30.07243919,0.038371775,1.240342855,-0.12253008,10,343
2020/6/12,12:07:42,22.9025371,120.2732071,30.143,8,23,72,61,51,-983,-36.9428978,2.636440277,-30.14363861,0.030540429,1.269179344,-0.098649748,10,343
2020/6/12,12:07:44,22.9026419,120.2732,30.201,-12,32,29,87,134,-976,-25.27714539,1.913793564,-30.20191383,0.027826134,1.292930603,-0.112385727,10,343
2020/6/12,12:07:47,22.9027496,120.2731931,29.957,119,-37,75,31,10,-1055,-13.28114796,1.205224037,-29.95736313,0.048068501,1.276422977,-0.071326889,10,343
2020/6/12,12:07:49,22.9028358,120.2731842,29.894,-47,-19,20,46,88,-1041,-3.691866875,0.287910461,-29.89476967,0.042565573,1.300348639,0.033248823,10,343
2020/6/12,12:07:52,22.9028654,120.2731795,29.73,-22,87,25,59,-49,-1001,-0.390589714,-0.185148239,-29.73093605,0.013367346,1.367015243,0.055450991,10,343
2020/6/14,10:45:16,22.90293,120.2731349,20.963,113,-80,220,-146,40,-991,-3.100551605,-1.587373734,-20.9631691,-0.257725835,-2.637857437,-0.003302692,16,182
2020/6/14,10:45:18,22.9028839,120.2730938,20.579,-7,7,20,-272,124,-946,-7.557186127,-5.231649399,-20.62566185,-0.314719707,-2.540627718,-0.125232816,16,182
2020/6/14,10:45:21,22.9027976,120.2730221,20.244,27,152,35,-261,206,-967,-17.84963417,-13.15561676,-20.24461555,-0.296718389,-2.505913258,-0.192680776,16,182
2020/6/14,10:45:23,22.9027139,120.2729594,20.488,95,160,246,-228,201,-902,-27.16277695,-19.58328247,-20.48869896,-0.19098483,-2.437390566,-0.14916639,16,182
2020/6/14,10:45:26,22.9026892,120.2729157,21.256,-107,-1,222,-36,139,-918,-29.91973495,-24.05928802,-21.2561779,-0.098982811,-1.145103097,-0.006089379,16,182
2020/6/14,10:45:28,22.902708,120.2728924,21.465,-39,78,-154,-27,159,-1056,-27.82862473,-26.45397568,-21.46522903,-0.107902944,-0.994882882,-0.10945072,16,182
2020/6/14,10:45:31,22.9028057,120.2727709,20.263,140,27,117,50,133,-1037,-16.95159531,-38.9082222,-20.26387405,0.054083817,-0.94370389,-0.14184536,16,182
2020/6/14,10:45:33,22.9028664,120.2726871,20.265,75,173,113,26,83,-979,-10.19384766,-47.49961853,-20.26516914,0.049427412,-0.824519396,-0.058632936,16,182
2020/6/14,10:45:36,22.9029121,120.2726328,19.762,-79,197,97,60,98,-1024,-5.552849293,-52.6499176,-19.83718872,0.210052967,-0.62402463,-0.074149214,16,182
2020/6/14,10:45:38,22.9029186,120.2726234,19.588,-28,41,7,121,132,-959,-4.36579752,-54.03688812,-19.58848572,0.248455673,-0.564649224,-0.128186852,16,182
2020/6/14,10:45:41,22.9028788,120.2726366,19.887,55,109,-882,-190,215,-1033,-8.804885864,-52.68584442,-19.88740921,0.131072462,-1.273692846,-0.31147638,16,182
2020/6/14,10:45:43,22.90285,120.2726432,19.884,-50,8,-70,-271,97,-893,-12.01890182,-52.00830841,-19.88430977,-0.37426132,-3.094944715,-0.022916675,16,182
2020/6/14,10:45:46,22.9027061,120.2726469,20.538,-49,440,-26,-319,50,-1089,-28.03012466,-51.6275177,-20.53872299,-0.330899298,3.093502283,-0.053157821,16,182
2020/6/14,10:45:48,22.9025974,120.2726566,20.922,37,-136,-7,-167,32,-996,-40.13368225,-50.63555908,-20.92238426,-0.147681355,3.048843384,-0.00245844,16,182
2020/6/14,10:45:51,22.9024816,120.2726694,20.338,-21,-208,-3,-315,36,-982,-53.02548218,-49.31995392,-20.33831787,-0.20877853,3.046557903,-0.005789033,16,182
2020/6/14,10:45:53,22.9023783,120.2726789,19.761,-69,-138,-120,-270,110,-862,-64.52394867,-48.34182739,-19.76138496,-0.341072053,3.07336688,-0.067983598,16,182
2020/6/14,10:45:56,22.9022624,120.2726924,20.178,-251,71,7,-337,-50,-943,-77.42372894,-46.95474243,-20.17851639,-0.288990349,3.10623312,0.030645546,16,182
2020/6/14,10:45:58,22.9021708,120.2726988,20.071,88,17,-52,-294,30,-972,-87.61972809,-46.29982758,-20.07196999,-0.297183841,3.021339178,-0.031559575,16,182
2020/6/14,10:46:01,22.9020728,120.2727245,20.681,59,132,-191,-403,12,-1015,-98.53231049,-43.67234421,-20.68133545,-0.167229399,2.526146173,-0.117900871,16,182
2020/6/14,10:46:03,22.9020635,120.2727928,19.936,192,-2,-27,-81,-317,-923,-99.56417847,-36.663311,-19.93628693,-0.137605935,1.443391919,0.244350672,16,182
2020/6/14,10:46:06,22.9020654,120.2728656,20.163,56,-4,40,-28,-236,-954,-99.39053345,-27.17483902,-20.21957588,-0.149858579,1.427197933,0.120437369,16,182
2020/6/14,10:46:08,22.9020722,120.2729942,20.1,-43,5,1,-121,-56,-1008,-98.69483948,-17.31209946,-20.08292961,-0.139567077,1.365416169,0.105170429,16,182
2020/6/14,10:46:11,22.902083,120.2730997,20.283,208,141,21,-40,-150,-988,-97.39981842,-5.196931839,-20.28323936,-0.14759317,1.337864995,0.076272443,16,182
2020/6/14,10:46:13,22.9021007,120.2731974,21.304,-297,83,171,-39,-262,-1144,-95.42585754,4.828787804,-21.30480957,0.00823408,1.338391304,0.189974651,16,182
2020/6/14,10:46:16,22.902106,120.2732401,26.462,107,-66,46,8,-234,-961,-94.83840942,9.203003883,-26.46201897,0.018072762,1.422642112,0.192297757,16,182
2020/6/14,10:46:18,22.902106,120.2732414,29.539,-184,-30,16,98,-252,-849,-94.8328476,9.331843376,-29.53951263,0.000846772,1.416308165,0.039694201,16,182
2020/6/14,10:46:21,22.902146,120.2732409,30.49,197,99,1,29,-219,-952,-90.38313293,9.28217411,-30.49009323,0.015407531,1.417806149,-0.033463899,16,182
2020/6/14,10:46:23,22.9022084,120.2732382,30.029,-157,-1,-6,90,13,-1000,-81.57314301,8.780612946,-29.874403,0.059772767,1.418238759,-0.045712348,16,182
2020/6/14,10:46:26,22.9023246,120.2732175,29.72,-51,432,83,-16,-44,-985,-70.50402832,6.888795853,-29.72083092,-0.036041711,1.419301271,0.013196993,16,182
2020/6/14,10:46:28,22.9024251,120.2732052,29.989,-30,14,-11,24,-24,-969,-59.31722641,5.629454613,-29.98907089,-0.018851273,1.392810583,0.03995828,16,182
2020/6/14,10:46:31,22.9025234,120.273198,30.013,-49,-26,-13,29,-15,-1026,-48.37352371,4.887949944,-30.01365852,0.04892496,1.399225473,0.057132792,16,182
2020/6/14,10:46:33,22.9026465,120.2731874,29.951,-42,104,-15,99,-89,-988,-34.67086029,3.798719406,-29.95137978,0.070232742,1.390250087,0.059304621,16,182
2020/6/14,10:46:36,22.9027441,120.2731755,30.151,-3,44,12,96,-63,-924,-23.80461693,2.582586288,-30.15140724,0.032899894,1.412898779,0.054159533,16,182
2020/6/14,10:46:38,22.9028548,120.2731637,30.212,-28,-54,23,27,-77,-1067,-12.68026924,1.506958008,-30.2489109,0.04638987,1.415077209,0.14196153,16,182
2020/6/14,10:46:41,22.9029289,120.2731536,29.904,70,-69,15,107,-216,-986,-2.630595684,0.213796616,-29.88336182,0.013620289,1.414105654,0.273832291,16,182
2020/6/14,10:50:28,22.9029768,120.2731055,20.208,42,113,2,47,76,-985,4.767422676,-7.926815987,-20.3396492,-0.00981445,-0.98507762,-0.06866423,17,200
2020/6/14,10:50:30,22.9030034,120.2730581,20.134,20,27,-67,81,63,-983,7.054092407,-11.63222027,-20.13436699,0.026180204,-0.8993572,-0.077540688,17,200
2020/6/14,10:50:33,22.9030267,120.2730205,20.341,12,13,8,69,72,-1006,9.642102242,-15.48421574,-20.34135628,0.012825362,-0.915629029,-0.089528114,17,200
2020/6/14,10:50:35,22.9030479,120.2729811,20.099,27,-99,-67,55,52,-1003,12.00638676,-19.52555847,-20.0999012,0.047813237,-0.818017662,-0.048134651,17,200
2020/6/14,10:50:38,22.9030705,120.2729481,20.068,-39,-27,-115,84,127,-950,14.52177715,-22.91517258,-20.06877136,0.057805158,-0.903926909,-0.074483611,17,200
2020/6/14,10:50:40,22.9030893,120.2729174,20.097,-26,-3,-104,80,112,-957,16.61856461,-26.06511307,-20.09737396,0.056676492,-0.984572232,-0.120258905,17,200
2020/6/14,10:50:43,22.9031068,120.2728913,20.174,-273,-37,-819,-8,249,-954,18.56335831,-28.74003983,-20.17490005,0.075704776,-1.045161605,-0.148801893,17,200
2020/6/14,10:50:45,22.903102,120.2728549,19.91,25,174,-51,-140,137,-1025,18.02383041,-32.47503281,-19.91030693,-0.239273578,-2.198088884,-0.174617261,17,200
2020/6/14,10:50:48,22.9030548,120.2728069,20.12,108,-136,-5,-147,214,-987,12.77663517,-37.39375305,-20.12080765,-0.122772865,-2.380808353,-0.187200814,17,200
2020/6/14,10:50:50,22.903015,120.2727786,20.458,-37,149,171,-92,128,-998,8.821507454,-39.98226547,-20.39027786,-0.108308703,-2.251643658,-0.066635877,17,200
2020/6/14,10:50:53,22.9029797,120.2727492,20.391,6,263,-27,-107,144,-1014,4.418259621,-43.31315231,-20.39145851,-0.112439208,-2.1228652,-0.066401146,17,200
2020/6/14,10:50:55,22.9029488,120.2727153,20.444,-36,34,-66,-78,111,-1032,0.975291252,-46.78659058,-20.44402313,-0.066429436,-2.298237324,-0.156534523,17,200
