date,time,lat,lon,alt,x_gyro,y_gyro,z_gyro,x_acc,y_acc,z_acc,north,east,down,pitch,yaw,roll,wind_speed,wind_direction
2020/6/17,18:12:50,22.902832,120.2731605,-0.035,3,-1,0,-13,3,-999,0.025114059,-0.078639984,0.035859585,-0.029949741,-1.644405484,0.010076767,19,290
2020/6/17,18:12:53,22.9028209,120.2731636,0.106,-69,0,-9,0,69,-1027,-1.207309723,0.243774414,-0.106313109,-0.029682707,-1.716329575,-0.020516131,19,290
2020/6/17,18:12:56,22.9027461,120.2731778,2.624,21,47,12,-24,-40,-999,-9.533567429,1.699188232,-2.624646902,-0.112323396,2.987900496,0.026199434,19,290
2020/6/17,18:12:59,22.9026317,120.273194,5.926,-25,-28,-19,-116,-22,-1005,-22.2796669,3.356713295,-5.926088333,-0.097917087,2.941308737,0.052021679,19,290
2020/6/17,18:13:02,22.9025132,120.273215,9.086,106,55,-27,-51,-67,-1003,-35.46736908,5.516273499,-9.086779594,-0.092073627,2.96172452,0.045372304,19,290
2020/6/17,18:13:05,22.9023879,120.2732357,12.592,47,-72,-34,-111,-5,-983,-49.4175415,7.633574486,-12.59266472,-0.123192765,2.978340864,0.029490355,19,290
2020/6/17,18:13:08,22.9022634,120.2732583,15.44,35,24,50,-57,-29,-992,-63.38230133,9.972011566,-15.46021843,-0.073036879,2.984762669,0.046429414,19,290
2020/6/17,18:13:11,22.902133,120.2732825,18.69,-14,41,21,-103,-33,-989,-77.79955292,12.43284988,-18.69096565,-0.106082916,2.978512049,0.066848718,19,290
2020/6/17,18:13:14,22.9020153,120.2732682,20.255,66,90,107,-142,-7,-986,-90.90201569,10.96993446,-20.25592613,-0.176973343,-2.625541687,0.131817624,19,290
2020/6/17,18:13:17,22.9019215,120.2731915,20.2,-32,28,28,-156,-20,-983,-101.3419876,3.101753235,-20.20093155,-0.168001249,-2.381025791,0.068616927,19,290
2020/6/17,18:13:20,22.9018234,120.2730938,20.154,91,122,132,-133,-57,-1004,-112.2563019,-6.913005829,-20.15499306,-0.07048957,-2.294030428,0.111338638,19,290
2020/6/17,18:13:23,22.9018005,120.2730046,20.111,-79,37,140,-136,8,-1006,-114.8080902,-16.06836891,-20.11174202,-0.233508423,-1.116811991,0.062229257,19,290
2020/6/17,18:13:26,22.9018579,120.2729166,20.079,-15,13,39,-192,5,-981,-108.4185104,-25.0842762,-20.07995224,-0.221409664,-0.958728254,-0.031194024,19,290
2020/6/17,18:13:29,22.9019397,120.2728012,19.845,95,9,39,-97,88,-964,-99.3138504,-36.91731262,-19.84572983,-0.1374695,-0.918610811,-0.059152532,19,290
2020/6/17,18:13:32,22.9020125,120.272729,19.962,-188,-11,411,-90,172,-1014,-91.2069931,-44.32907867,-19.96251678,-0.187683001,0.136447176,0.064845011,19,290
2020/6/17,18:13:35,22.9021113,120.2727675,20.086,-2,7,7,-109,155,-979,-80.20917511,-40.37387085,-20.0863781,-0.129687756,0.405442059,-0.10691148,19,290
2020/6/17,18:13:38,22.9022207,120.2728212,20.152,144,-31,76,-85,69,-1008,-68.03470612,-34.87232208,-20.15209961,-0.113937683,0.45918709,-0.060423117,19,290
2020/6/17,18:13:41,22.9023445,120.2728878,20.183,-10,-14,0,-52,67,-985,-54.24687195,-28.03769875,-20.18388367,-0.097230099,0.487049013,-0.087482981,19,290
2020/6/17,18:13:44,22.9024571,120.2729334,20.13,-84,42,-89,-99,161,-955,-41.7158432,-23.36242867,-20.13012505,-0.132753119,0.112636887,-0.168793976,19,290
2020/6/17,18:13:47,22.9025925,120.2729379,20.139,-2,41,-21,-98,77,-963,-26.64258957,-22.90002632,-20.13912964,-0.151595712,-0.043483805,-0.124000914,19,290
2020/6/17,18:13:50,22.9027235,120.2729295,20.124,202,17,164,-96,25,-980,-12.04890156,-23.75963402,-20.12499809,-0.063939109,-0.064666338,-0.071457401,19,290
2020/6/17,18:13:53,22.9028048,120.2729592,20.124,-7,-153,364,-2,0,-1052,-3.300180435,-21.35359001,-20.23967743,-0.063284621,1.092764258,0.078074388,19,290
2020/6/17,18:13:56,22.9028193,120.2730569,19.773,-3,66,22,9,-18,-987,-1.382404327,-10.69680595,-19.77375603,-0.046143655,1.34972775,-0.041948222,19,290
2020/6/17,18:13:59,22.9028385,120.27317,19.81,-56,319,7,17,19,-992,0.756015778,0.898349762,-19.81070137,0.151464403,1.269794226,-0.054711483,19,290
2020/6/17,18:15:20,22.9028326,120.2731628,18.235,-17,-37,16,-44,-13,-899,-0.189720154,-0.172874451,-18.2355423,-0.065574601,-1.881630063,-0.009600428,19,290
2020/6/17,18:15:23,22.9028317,120.2731433,20.092,35,149,-38,-65,-66,-983,-0.298643112,-2.170892715,-20.09247017,-0.180410758,-1.660370708,-0.005444708,19,290
2020/6/17,18:15:26,22.9028263,120.2730795,20.385,80,-110,144,-113,10,-985,-0.901226044,-8.714853287,-20.3853054,-0.142099485,-1.60330534,0.053977113,19,290
2020/6/17,18:15:29,22.9028242,120.2730219,20.036,-45,20,-34,-119,39,-971,-1.13368988,-14.61918259,-20.03698921,-0.133681178,-1.621507406,0.004614708,19,290
2020/6/17,18:15:32,22.9028223,120.2729582,19.922,-14,42,-66,-101,55,-950,-1.345643997,-21.14467621,-19.9222374,-0.105254598,-1.698399663,-0.030755069,19,290
2020/6/17,18:15:35,22.9028163,120.2729042,20.054,-109,-38,-50,-46,-35,-973,-2.006132126,-26.68803024,-20.05402565,-0.087245993,-1.580452204,-0.003353385,19,290
2020/6/17,18:15:38,22.9028125,120.2728394,19.933,48,-75,45,-65,-37,-993,-2.43298912,-33.33015442,-19.93334007,-0.101730257,-1.54747498,-0.00018139,19,290
2020/6/17,18:15:41,22.9028113,120.2727814,20.095,45,54,2,-64,-39,-1022,-2.571456909,-39.31855774,-20.09554482,-0.112613425,-1.644886971,-0.022819221,19,290
2020/6/17,18:15:44,22.9028072,120.2727247,19.936,-20,14,44,-88,0,-1005,-3.017713547,-45.09643555,-19.93632126,-0.113455541,-1.618989944,0.010006165,19,290
2020/6/17,18:15:47,22.9028044,120.2726698,19.996,48,-7,-42,-87,-14,-1005,-3.337854385,-50.72068787,-19.99625969,-0.1062629,-1.615952015,-0.003688771,19,290
2020/6/17,18:15:50,22.9028017,120.2726112,19.957,9,186,-68,-86,58,-962,-3.630992889,-56.73206329,-19.95788574,-0.07996282,-1.642747879,-0.012759113,19,290
2020/6/17,18:15:53,22.9027901,120.2726042,19.813,-67,64,-1006,-5,5,-1020,-4.927097321,-57.45204926,-19.81357193,-0.069490165,-3.113242388,-0.034132876,19,290
2020/6/17,18:15:56,22.9027592,120.2726507,19.856,35,5,83,-4,-79,-1016,-8.364853859,-52.68409729,-19.85605812,0.000324953,2.204553604,0.040086411,19,290
2020/6/17,18:15:59,22.9027274,120.2726973,20.02,47,11,30,33,-82,-979,-11.90306377,-47.90502167,-20.02099228,-0.016176876,2.267548323,0.045654226,19,290
2020/6/17,18:16:02,22.9026941,120.2727399,20.076,96,-1,-18,47,-94,-992,-15.61373806,-43.53660202,-20.0766983,-0.003927738,2.162852049,0.016726688,19,290
2020/6/17,18:16:05,22.9026579,120.2727919,20.071,1,7,30,-15,-30,-997,-19.64388657,-38.19991684,-20.07111549,-0.006952023,2.199163914,0.034153204,19,290
2020/6/17,18:16:08,22.9026233,120.2728387,20.045,0,19,10,-20,-8,-1012,-23.50470352,-33.40175629,-20.04564285,0.003115227,2.152158737,0.027076211,19,290
2020/6/17,18:16:11,22.9025897,120.2728877,20.045,33,-3,40,39,-42,-997,-27.24325562,-28.37551117,-20.04571915,0.001814516,2.197496891,0.036322877,19,290
2020/6/17,18:16:14,22.9025581,120.2729073,20.027,-8,-46,-58,-41,-31,-1004,-30.76558685,-26.36816025,-20.02732086,-0.165967509,-2.601681709,0.07745561,19,290
2020/6/17,18:16:17,22.9025144,120.2728751,20.12,-18,11,11,-108,-5,-989,-35.62441254,-29.67327118,-20.12063599,-0.083624676,-2.689730883,0.040934179,19,290
2020/6/17,18:16:20,22.9024582,120.2728409,20.188,-50,0,26,-84,-11,-1032,-41.87979889,-33.17745209,-20.18816757,-0.087111764,-2.530327797,0.051580306,19,290
2020/6/17,18:16:23,22.9024128,120.27281,20.005,1,20,-39,-54,-64,-1005,-46.9321785,-36.3443718,-20.00587273,-0.076971397,-2.560090065,0.030162945,19,290
2020/6/17,18:16:26,22.9023638,120.2727774,19.756,1,9,-5,-101,-19,-1005,-52.39070129,-39.68513107,-19.75613785,-0.080166876,-2.562643528,0.053192336,19,290
2020/6/17,18:16:29,22.9023205,120.2727471,19.979,-67,4,-16,-56,-61,-1006,-57.21416473,-42.79626083,-19.97934151,-0.081443503,-2.588426113,0.056341127,19,290
2020/6/17,18:16:32,22.9022735,120.272715,19.993,56,254,-29,-84,-42,-997,-62.44589996,-46.09065247,-19.99343491,-0.054798685,-2.597331524,0.049389366,19,290
2020/6/17,18:16:35,22.9022555,120.2727138,20.091,-54,20,-1064,14,30,-1010,-64.45059967,-46.21567535,-20.09124947,-0.03867707,2.190865993,-0.046537574,19,290
2020/6/17,18:16:38,22.90226,120.2727728,19.985,21,-10,74,36,64,-973,-63.9451828,-40.15976334,-19.98560905,-0.003465171,1.381519318,-0.021966174,19,290
2020/6/17,18:16:41,22.902266,120.2728259,20.023,32,-17,-33,-17,68,-979,-63.27620697,-34.67441559,-20.02482986,-0.004911522,1.499924779,-0.016247392,19,290
2020/6/17,18:16:44,22.902269,120.2728848,20.036,23,21,-54,21,17,-1001,-62.95075989,-28.67154312,-20.0361824,0.003841761,1.442457676,-0.030448589,19,290
2020/6/17,18:16:47,22.9022726,120.2729454,20.04,38,-12,0,-9,19,-1011,-62.54983521,-22.46288681,-20.04086113,0.003084099,1.412923932,-0.037739601,19,290
2020/6/17,18:16:50,22.9022765,120.2730018,20.044,-20,43,15,32,30,-1002,-62.10585785,-16.67690277,-20.04472351,-0.002955619,1.413710117,-0.027978819,19,290
2020/6/17,18:16:53,22.9022814,120.2730653,20.036,-7,6,-57,3,64,-996,-61.56843567,-10.16481209,-20.03613663,0.005068455,1.394033432,-0.020324335,19,290
2020/6/17,18:16:56,22.9022858,120.2731224,20.011,28,-17,28,31,8,-997,-61.0734787,-4.314529419,-20.01135826,0.008244241,1.40274179,-0.03186914,19,290
2020/6/17,18:16:59,22.9022902,120.2731858,20.0,65,15,16,15,-20,-1000,-60.58006287,2.187274933,-20.00008202,0.005121736,1.401644945,-0.031473946,19,290
2020/6/17,18:17:02,22.9022973,120.2732388,20.075,115,-9,-1146,7,13,-988,-59.7937088,7.623603821,-20.07513237,-0.046726637,0.366107792,-0.174473837,19,290
2020/6/17,18:17:05,22.9023411,120.2732405,19.992,40,-17,105,-26,48,-1004,-54.91587067,7.801314354,-19.99257851,-0.085694894,-0.162389129,-0.076803274,19,290
2020/6/17,18:17:08,22.9023971,120.2732318,19.893,-16,35,56,-37,82,-989,-48.68243027,6.90711689,-19.89319992,-0.069822133,-0.068268836,-0.062535368,19,290
2020/6/17,18:17:11,22.9024407,120.2732251,19.746,-27,-36,-60,-69,73,-1007,-43.83680725,6.218804359,-19.74679756,-0.075198248,0.004678916,-0.038914438,19,290
2020/6/17,18:17:14,22.9024976,120.273223,19.514,78,-19,3,-32,52,-968,-37.50066376,6.008721352,-19.51441956,-0.080898024,-0.158302724,-0.073802069,19,290
2020/6/17,18:17:17,22.9025523,120.2732174,19.488,28,32,0,-64,82,-982,-31.41379547,5.434448242,-19.48801041,-0.092906557,-0.166184872,-0.062162276,19,290
2020/6/17,18:17:20,22.9026055,120.2732103,19.497,17,-38,6,-78,96,-980,-25.48450089,4.700982094,-19.49793053,-0.083288036,-0.103399485,-0.042375512,19,290
2020/6/17,18:17:23,22.9026594,120.2732048,19.355,14,-4,-144,-84,57,-982,-19.47403717,4.140374184,-19.35588264,-0.080321684,-0.1358224,-0.055445869,19,290
2020/6/17,18:17:26,22.902717,120.2731998,19.09,-4,-1,36,-89,87,-999,-13.06033707,3.629899025,-19.09049416,-0.09065713,-0.157012463,-0.054836359,19,290
2020/6/17,18:17:29,22.9027719,120.2731935,18.988,-4,0,23,-72,21,-1025,-7.426693916,3.026016235,-18.98617744,-0.109611548,-0.135821462,-0.054942328,19,290
2020/6/17,18:17:32,22.9028229,120.2731888,18.859,-16,77,18,-99,84,-992,-1.277070999,2.497402191,-18.85933113,-0.094022751,-0.160001308,-0.064223289,19,290
2020/6/17,18:19:21,22.902854,120.2731691,19.67,4,30,14,-19,-52,-963,-0.120214462,-0.215118408,-19.67057991,-0.114234492,-2.777698755,0.067159079,19,290
2020/6/17,18:19:24,22.9028098,120.2731398,20.027,-21,16,13,-47,-13,-1008,-5.033693314,-3.211809158,-20.02729416,-0.06397295,-2.714942694,0.055862229,19,290
2020/6/17,18:19:27,22.9027621,120.2731098,20.055,-66,-35,-17,-76,38,-1002,-10.34588718,-6.287197113,-20.05599785,-0.048030965,-2.665327549,0.029276256,19,290
2020/6/17,18:19:30,22.9027117,120.2730799,20.092,-34,-11,-18,-43,5,-975,-15.95839119,-9.355642319,-20.09219742,-0.060849726,-2.60398674,0.01684233,19,290
2020/6/17,18:19:33,22.902668,120.2730532,20.109,-42,-47,5,-31,-21,-1018,-20.82756996,-12.10000801,-20.10933685,-0.079813883,-2.57102108,0.027907185,19,290
2020/6/17,18:19:36,22.9026188,120.2730215,19.81,16,-17,38,-21,-55,-993,-26.30991364,-15.34874535,-19.81064224,-0.081792332,-2.595131397,0.033367507,19,290
2020/6/17,18:19:39,22.9025719,120.2729924,19.969,-37,-33,-14,-60,-1,-1006,-31.53373718,-18.32967186,-19.96956253,-0.070234843,-2.582200527,0.057329122,19,290
2020/6/17,18:19:42,22.9025276,120.2729638,20.127,-205,105,-239,-71,-22,-965,-36.46247101,-21.26191139,-20.12750816,-0.012137937,-2.637283802,0.00633837,19,290
2020/6/17,18:19:45,22.90249,120.2729933,19.805,-36,33,-43,10,44,-978,-40.6446228,-18.24228096,-19.80522728,0.003173456,2.0885005,-0.005952005,19,290
2020/6/17,18:19:48,22.9024621,120.2730397,19.938,15,-15,24,-20,-33,-1000,-43.75177002,-13.47467422,-19.93844986,-0.016071552,2.160199881,0.029606536,19,290
2020/6/17,18:19:51,22.9024313,120.2730868,20.013,18,-1,-52,2,0,-980,-47.17895508,-8.64642334,-20.01354408,-0.008604339,2.144058704,0.020106498,19,290
2020/6/17,18:19:54,22.9024018,120.2731317,20.023,-19,-1,12,-11,4,-987,-50.46251678,-4.043430328,-20.02329826,-0.013054616,2.103660345,0.010642473,19,290
2020/6/17,18:19:57,22.9023698,120.2731827,20.054,-31,5,14,40,-3,-986,-54.02630615,1.185770035,-20.05449486,0.007066457,2.12703228,0.018767841,19,290
2020/6/17,18:20:00,22.9023367,120.2732348,19.99,46,242,-53,31,-105,-1005,-57.71033859,6.523320198,-19.99024963,-0.000235575,2.147461653,0.023834463,19,290
2020/6/17,18:20:03,22.9023282,120.2732487,20.079,20,-13,1112,-19,-53,-980,-58.66440201,7.954807281,-20.07978439,-0.07306613,-3.098183393,0.173036322,19,290
2020/6/17,18:20:06,22.9023214,120.273211,20.329,0,6,101,-112,21,-1011,-59.43647385,4.042572975,-20.32929993,-0.119655371,-1.784661174,0.01119307,19,290
2020/6/17,18:20:09,22.9023041,120.2731332,20.103,14,24,28,-68,-23,-999,-61.35106659,-3.930339813,-20.10142326,-0.111713156,-1.638725042,0.005098762,19,290
2020/6/17,18:20:12,22.9022944,120.2730721,19.976,52,-28,21,-62,2,-988,-62.32925415,-9.65391922,-19.96785927,-0.085296571,-1.633434772,0.003372469,19,290
2020/6/17,18:20:15,22.9022875,120.2730174,19.985,-100,-50,-92,-79,-6,-1005,-63.19143295,-15.76309776,-19.98534393,-0.088187382,-1.713127971,-0.006570139,19,290
2020/6/17,18:20:18,22.9022804,120.2729633,19.936,80,29,-2,-66,-52,-999,-63.98321533,-21.31660652,-19.93611336,-0.114162765,-1.791209579,-0.040329937,19,290
2020/6/17,18:20:21,22.9022713,120.272902,20.053,0,64,-93,-98,97,-990,-64.99742126,-27.5985775,-20.05364037,-0.101666808,-1.829822779,-0.057135392,19,290
2020/6/17,18:20:24,22.9022598,120.2728427,19.896,-40,-34,-35,-46,4,-1005,-66.27670288,-33.6842804,-19.89632225,-0.074262954,-1.708281636,-0.007760222,19,290
2020/6/17,18:20:27,22.902256,120.2727947,20.12,161,-100,1302,-67,40,-968,-66.69596863,-38.60463715,-20.12093544,-0.034537904,-1.041782618,0.080766752,19,290
2020/6/17,18:20:30,22.9022947,120.2727874,19.841,-29,-5,43,-35,59,-983,-62.38522339,-39.34960938,-19.84133911,-0.066062003,-0.225811914,-0.049076617,19,290
2020/6/17,18:20:33,22.9023497,120.2727767,20.067,-21,-26,33,-46,15,-1014,-57.26839828,-40.33293915,-20.0669384,-0.084204659,-0.063530982,-0.021601789,19,290
2020/6/17,18:20:36,22.902401,120.2727732,20.028,39,-17,-8,-87,54,-980,-50.56014633,-40.81119537,-20.02894974,-0.079088062,-0.169330239,-0.069079414,19,290
2020/6/17,18:20:39,22.9024555,120.2727647,20.004,-71,110,13,-48,98,-992,-44.49013519,-41.68109131,-20.00410461,-0.079687744,-0.074795455,-0.043158617,19,290
2020/6/17,18:20:42,22.9025094,120.2727583,20.041,13,-5,12,-34,19,-1016,-38.49018097,-42.33059692,-20.04136086,-0.073837146,-0.111997366,-0.053405035,19,290
2020/6/17,18:20:45,22.9025625,120.2727516,20.036,-63,9,-3,-67,98,-990,-32.57449341,-43.01924133,-20.03684998,-0.065269537,-0.094059177,-0.062609039,19,290
2020/6/17,18:20:48,22.9026182,120.2727446,20.058,-10,-36,19,-61,86,-990,-26.37704086,-43.73717499,-20.05814743,-0.065818161,-0.102075584,-0.049352866,19,290
2020/6/17,18:20:51,22.9026733,120.2727391,20.058,-134,3,-97,-78,125,-1002,-20.2329216,-44.30347443,-20.05867577,-0.076248989,-0.135785058,-0.091008477,19,290
2020/6/17,18:20:54,22.9027242,120.2727323,20.089,21,2,6,-45,61,-996,-14.5640564,-45.00208282,-20.0896244,-0.095264666,-0.124389827,-0.064989932,19,290
2020/6/17,18:20:57,22.9027812,120.2727252,20.064,17,-15,0,-82,43,-996,-8.221429825,-45.72769165,-20.06464386,-0.081504218,-0.119897254,-0.073178239,19,290
2020/6/17,18:21:01,22.9028206,120.2727275,20.093,3,-63,1047,62,-7,-1003,-3.838495255,-45.49320221,-20.09341431,-0.058846977,1.295911789,0.075614847,19,290
2020/6/17,18:21:04,22.9028206,120.2727795,19.839,49,41,-14,23,18,-1004,-3.831041336,-40.16197205,-19.8397541,-0.000458454,1.343692064,-0.034626938,19,290
2020/6/17,18:21:07,22.9028251,120.2728486,19.873,-20,-16,-16,30,80,-982,-3.329248428,-33.07289886,-19.87334442,0.008481909,1.362195253,-0.035395041,19,290
2020/6/17,18:21:10,22.9028296,120.2729066,19.898,29,-17,-73,44,-8,-987,-2.824729919,-27.09154701,-19.89790344,0.004066827,1.41965127,-0.029050428,19,290
2020/6/17,18:21:13,22.9028342,120.2729716,19.856,-8,-22,-100,14,4,-994,-2.322174072,-20.46412468,-19.85692406,0.008360323,1.456588745,-0.014308282,19,290
2020/6/17,18:21:16,22.9028363,120.2730329,19.849,-21,-9,-35,39,-40,-998,-2.085638046,-14.17180443,-19.84949112,0.005620632,1.395750523,-0.021559693,19,290
2020/6/17,18:21:19,22.9028402,120.273091,19.794,5,-22,11,22,43,-984,-1.651695251,-8.222986221,-19.7947731,0.004395442,1.395769,-0.016692363,19,290
2020/6/17,18:21:22,22.9028448,120.2731539,19.731,14,6,-18,3,77,-1013,-1.137519836,-1.766439438,-19.73151779,0.014016071,1.416400909,-0.010221611,19,290
2020/6/17,18:21:25,22.9028484,120.2731846,18.502,76,-16,13,50,3,-924,-0.744724274,1.376375198,-18.50261688,0.085791923,1.423912168,0.018081607,19,290
2020/6/17,18:26:16,22.9028527,120.2731681,-0.005,0,1,0,8,34,-998,0.002037048,0.017789841,0.005918026,-0.008150052,-2.0028162,-0.024249475,19,290
2020/6/17,18:26:19,22.9028525,120.2731601,1.055,-146,-57,35,-9,21,-1103,-0.011808395,-0.805353165,-1.055022836,-0.086880296,-2.049172401,0.055363115,19,290
2020/6/17,18:26:22,22.9028521,120.2731052,7.029,6,-6,-16,-81,-52,-1022,-0.065603256,-6.437303543,-7.02980423,-0.075984359,-1.728297234,0.001055537,19,290
2020/6/17,18:26:25,22.902846,120.2730391,13.879,-15,-43,43,-70,10,-1009,-0.744140625,-13.21070099,-13.87935638,-0.052677941,-1.601724267,0.011298846,19,290
2020/6/17,18:26:28,22.9028393,120.2729851,19.49,-1,-35,-1193,-53,11,-934,-1.48550415,-18.75421143,-19.49036026,-0.078476124,-1.565502763,-0.098041154,19,290
2020/6/17,18:26:31,22.9027949,120.2729177,20.359,176,296,104,-98,27,-1003,-6.425357819,-25.66075134,-20.35917664,-0.049316101,-2.217531919,0.064853698,19,290
2020/6/17,18:26:34,22.9027867,120.272826,20.31,-1,50,53,-59,-25,-1004,-7.345499039,-35.06457138,-20.3107605,-0.180107594,-1.202151775,0.027326915,19,290
2020/6/17,18:26:37,22.9028221,120.2727421,20.149,-84,-37,-33,-89,63,-994,-3.396095276,-43.71098328,-20.14745903,0.023584202,-1.418411851,-0.069937594,19,290
2020/6/17,18:26:40,22.9028082,120.2727274,19.787,-6,-21,-15,0,62,-986,-4.945167542,-45.17140198,-19.78771019,0.031658493,-1.373610139,-0.094099283,19,290
2020/6/17,18:26:43,22.9027473,120.2727478,20.063,-57,-112,225,-92,-2,-964,-11.72552299,-43.08666229,-20.0630722,-0.154238045,2.898707867,0.020747196,19,290
2020/6/17,18:26:46,22.9026462,120.2727828,20.204,-2,-91,-458,-102,34,-993,-22.9910202,-39.49571228,-20.20471573,-0.094311789,2.387960434,-0.118384771,19,290
2020/6/17,18:26:49,22.9025914,120.2728922,20.121,-55,-8,-51,-34,12,-967,-29.0884285,-28.27629852,-20.12195778,-0.06753993,1.823296547,-0.061282326,19,290
2020/6/17,18:26:52,22.9025752,120.2730139,20.124,18,-1,-485,-25,53,-984,-30.89264679,-15.7989502,-20.12438774,-0.051242329,1.26169908,-0.165120661,19,290
2020/6/17,18:26:55,22.902642,120.2731067,20.107,-69,-21,-308,-83,16,-980,-23.40224648,-6.229959488,-20.10926628,-0.07715413,0.713166296,-0.11893142,19,290
2020/6/17,18:26:58,22.9027421,120.2731528,19.951,12,28,21,-100,58,-998,-12.30865288,-1.555353165,-19.95172882,-0.084620029,0.29151988,-0.05245845,19,290
2020/6/17,18:27:01,22.9028314,120.2731743,19.603,-20,59,222,-57,63,-1012,-2.366704941,0.655817032,-19.60331535,0.034266882,0.488073558,0.022307668,19,290
2020/6/17,18:27:04,22.9028439,120.273181,17.126,14,60,17,0,40,-1004,-0.96969986,1.335186005,-17.12697792,-0.009627014,0.506168008,-0.045014709,19,290
2020/6/17,18:27:07,22.9028463,120.2731877,12.885,-109,-99,-7,-31,118,-981,-0.707336426,2.028839111,-12.88564968,-0.00937628,0.463263154,-0.060623068,19,290
2020/6/17,18:29:40,22.9028373,120.2731855,19.459,4,-74,-2,21,-30,-917,0.077474594,0.117416382,-19.45912361,-0.040648442,2.705935478,0.115740083,19,290
2020/6/17,18:29:43,22.9027998,120.2731621,20.24,-19,28,20,-28,-50,-997,-4.157532692,-2.310958862,-20.241745,-0.178157434,-2.877509117,0.014605014,19,290
2020/6/17,18:29:46,22.9027055,120.2731222,20.331,166,-17,485,-95,3,-1012,-14.60260582,-6.374279022,-20.33171844,-0.014636909,-2.702180624,0.100813515,19,290
2020/6/17,18:29:49,22.9026651,120.2730448,20.081,74,-6,39,-70,-36,-989,-19.09453201,-14.30735207,-20.0819416,-0.218419582,-1.718239069,0.013937529,19,290
2020/6/17,18:29:52,22.9026565,120.2729181,20.031,-43,37,-7,-191,37,-996,-20.06492424,-27.30060768,-20.03117371,-0.167413861,-1.667039156,0.008885487,19,290
2020/6/17,18:29:55,22.9026455,120.2727718,20.111,0,132,30,-113,71,-1017,-21.29158974,-42.30903625,-20.11188507,-0.042500682,-1.650520325,-0.017716378,19,290
2020/6/17,18:29:58,22.9026358,120.2726982,19.884,32,-96,-32,-56,43,-1024,-22.36853409,-49.85849762,-19.87772942,0.032746643,-1.325526476,0.095425591,19,290
2020/6/17,18:30:01,22.9026752,120.2727304,19.612,-82,104,-137,-28,114,-993,-17.97522354,-46.55178833,-19.61297417,-0.094246686,0.51105088,-0.069126546,19,290
2020/6/17,18:30:04,22.9027566,120.2727926,20.031,-9,-117,515,-51,121,-981,-8.911629677,-40.17438507,-20.03114319,-0.100298725,1.189075232,0.133746311,19,290
2020/6/17,18:30:07,22.9027741,120.2728946,20.053,-55,-23,4,-62,36,-987,-6.962067604,-29.71468163,-20.05392647,-0.114143349,1.541480184,0.008347542,19,290
2020/6/17,18:30:10,22.9027892,120.2730222,20.059,5,-7,-64,-58,-13,-988,-5.284818649,-16.63195992,-20.05992889,-0.070723146,1.228719234,-0.076138705,19,290
2020/6/17,18:30:13,22.9028332,120.2731451,19.978,9,108,42,-18,76,-1019,-0.386520386,-4.027708054,-19.97841454,0.08468017,1.174021006,-0.027513452,19,290
2020/6/17,18:30:16,22.902852,120.2731801,18.194,-70,26,-46,52,-15,-948,1.710496902,-0.431467056,-18.19453239,0.026185229,1.255320072,0.047267027,19,290
2020/6/17,18:31:37,22.9028359,120.2731612,19.886,-30,-57,-182,-102,7,-972,-0.20554924,-1.058193207,-19.88618469,-0.182627156,-2.174819708,-0.003775346,15,290
2020/6/17,18:31:40,22.9028141,120.2731091,20.213,-34,-34,11,-95,-11,-996,-2.637939453,-6.400224686,-20.21341515,-0.100568056,-2.091714382,0.001401905,15,290
2020/6/17,18:31:43,22.9027852,120.2730478,20.062,-26,-7,19,-64,-12,-1005,-5.845650673,-12.6944809,-20.06232071,-0.102164909,-1.959804296,0.020484444,15,290
2020/6/17,18:31:46,22.9027626,120.2729932,20.211,105,0,117,-132,40,-1007,-8.362789154,-18.28884125,-20.21185303,-0.1200848,-1.987913132,-0.037568327,15,290
2020/6/17,18:31:49,22.9027408,120.2729381,20.001,58,80,10,-73,-3,-993,-10.7904377,-23.93484497,-20.00132561,-0.086749241,-1.978019595,0.000904791,15,290
2020/6/17,18:31:52,22.9027183,120.2728838,19.999,22,-20,11,-87,-45,-986,-13.29835701,-29.50576019,-19.99983215,-0.108186431,-1.96598804,0.021988623,15,290
2020/6/17,18:31:55,22.9026962,120.2728293,19.987,19,2,6,-135,20,-993,-15.7561245,-35.09251404,-19.98796272,-0.119291402,-1.986416936,0.012897798,15,290
2020/6/17,18:31:58,22.9026671,120.2727799,19.998,42,-5,-764,-44,-91,-1009,-18.99359512,-40.16413116,-19.99864578,-0.127390996,-2.981142521,-0.055642415,15,290
2020/6/17,18:32:01,22.9026068,120.2727827,19.78,6,-32,7,-44,-14,-1001,-25.7222023,-39.87294006,-19.78057098,-0.054297712,2.938705444,0.063633963,15,290
2020/6/17,18:32:04,22.9025571,120.2727898,19.962,-50,70,40,-71,9,-1007,-31.25735092,-39.14596176,-19.96263313,-0.063074194,3.014055014,0.053598706,15,290
2020/6/17,18:32:07,22.9025066,120.272795,20.129,38,38,17,-44,-98,-1011,-36.87731171,-38.61170578,-20.12934113,-0.06866625,2.98427248,0.032718658,15,290
2020/6/17,18:32:10,22.9024484,120.2728034,19.871,-92,284,-69,-48,-7,-1010,-43.35845184,-37.7558403,-19.87103081,0.001489809,2.987463236,0.031894173,15,290
2020/6/17,18:32:13,22.902431,120.2728414,19.933,-8,96,-79,10,34,-999,-45.29344177,-33.8538475,-19.93339539,-0.002172564,1.316224575,-0.068861321,15,290
2020/6/17,18:32:16,22.9024401,120.2729029,20.017,12,20,46,-7,12,-1015,-44.2818985,-27.54743576,-20.01721764,0.00504842,1.444115758,-0.003654228,15,290
2020/6/17,18:32:19,22.9024449,120.2729556,20.05,-70,-20,-14,14,109,-975,-43.74219513,-22.13943481,-20.05049896,-0.002193783,1.472604156,-0.018923122,15,290
2020/6/17,18:32:22,22.9024467,120.2730113,20.031,-24,-19,-20,42,18,-1004,-43.5368042,-16.42802429,-20.0319519,0.009228894,1.343827486,-0.045753237,15,290
2020/6/17,18:32:25,22.9024524,120.2730699,20.032,-36,-24,23,24,94,-988,-42.90452576,-10.42506218,-20.032547,0.013175569,1.341008663,-0.031103238,15,290
2020/6/17,18:32:28,22.9024586,120.2731237,19.986,100,-6,-4,6,-21,-998,-42.21495056,-4.902196884,-19.9862957,0.009456465,1.431675196,0.00854819,15,290
2020/6/17,18:32:31,22.9024626,120.2731805,20.045,-32,8,-10,31,54,-969,-41.77516174,0.91740036,-20.04585075,0.00710763,1.394513965,-0.024744723,15,290
2020/6/17,18:32:34,22.9024872,120.2732096,20.068,-57,64,-78,-45,117,-984,-39.03394318,3.903688431,-20.06806755,-0.10587351,-0.1183329,-0.123482235,15,290
2020/6/17,18:32:37,22.9025444,120.2732019,20.019,74,-17,97,-50,91,-1013,-32.66796112,3.113376617,-20.01941299,-0.074160665,-0.000931671,-0.036615033,15,290
2020/6/17,18:32:40,22.9025951,120.2731991,19.825,-107,1,0,-80,130,-976,-27.0256691,2.820482254,-19.82525253,-0.085602216,0.02441836,-0.052725434,15,290
2020/6/17,18:32:43,22.9026455,120.2731972,19.644,-30,-30,-57,-86,120,-975,-21.40748215,2.632696152,-19.64414978,-0.103514552,-0.042213935,-0.077683382,15,290
2020/6/17,18:32:46,22.9026989,120.2731938,19.564,-7,57,101,-31,68,-980,-15.46059227,2.277774811,-19.56496811,-0.065382153,-0.042707834,-0.062628359,15,290
2020/6/17,18:32:49,22.9027597,120.2731903,19.494,45,3,36,-58,69,-1008,-8.685191154,1.927680969,-19.49452782,-0.069027424,-0.051823474,-0.069174349,15,290
2020/6/17,18:32:52,22.9028121,120.2731873,19.357,6,-34,52,-69,96,-976,-2.856136322,1.610107422,-19.35750198,-0.059605211,-0.074481137,-0.083827309,15,290
2020/6/17,18:32:55,22.9028477,120.273183,18.672,-106,-105,-51,-27,54,-936,1.108449936,1.170825958,-18.67261696,0.014823943,-0.060071178,-0.008845308,15,290
2020/6/17,18:41:48,22.9028212,120.2731825,20.549,-13,-48,28,-93,36,-976,-3.50553894,0.461357117,-20.54928207,-0.107203826,3.033724308,0.011627045,15,290
2020/6/17,18:41:51,22.9027112,120.2731958,20.546,63,-10,9,-54,-5,-1007,-15.74071598,1.816759109,-20.54678917,-0.092388093,3.050231218,0.015985513,15,290
2020/6/17,18:41:54,22.9025868,120.2732131,20.097,33,-26,39,-71,-36,-984,-29.61079979,3.591491699,-20.09772873,-0.104796156,-3.13791728,0.076339945,15,290
2020/6/17,18:41:57,22.9024649,120.2732048,19.874,-37,-10,183,-127,-34,-1009,-43.17307281,2.745014191,-19.87422562,-0.159242168,-2.690999985,0.145068124,15,290
2020/6/17,18:42:00,22.9023675,120.2731297,20.021,19,26,43,-144,-84,-985,-54.0189476,-4.961584091,-20.0219059,-0.165188015,-2.433611393,0.035884827,15,290
2020/6/17,18:42:03,22.9022697,120.2730349,20.208,88,323,30,-101,-57,-977,-64.89977264,-14.67806053,-20.20840836,-0.121197134,-2.379031181,0.032993633,15,290
2020/6/17,18:42:06,22.9022171,120.2729513,20.106,-63,-27,480,-99,-9,-1027,-70.75863647,-23.25104713,-20.10624123,-0.196985468,-1.252148867,0.121676907,15,290
2020/6/17,18:42:09,22.9022695,120.2728655,19.956,13,-26,27,-157,79,-1004,-64.92482758,-32.04491425,-19.95665169,-0.18094255,-0.964853227,-0.039823059,15,290
2020/6/17,18:42:12,22.9023452,120.272758,19.99,173,95,60,-175,62,-981,-56.50362778,-43.07206726,-19.99024391,-0.17613557,-0.9096753,-0.045044631,15,290
2020/6/17,18:42:15,22.9024374,120.2726933,19.867,-18,15,74,-76,89,-983,-46.24077606,-49.70427704,-19.86732292,-0.147707999,-0.20322071,-0.021723229,15,290
2020/6/17,18:42:19,22.9025601,120.2726683,20.155,31,-7,17,-102,146,-962,-32.5799942,-52.27142334,-20.15593719,-0.138790637,-0.109272204,-0.020735223,15,290
2020/6/17,18:42:22,22.902691,120.2726546,20.099,-35,-73,-35,-142,143,-965,-17.99542046,-53.67362213,-20.0993557,-0.110495567,-0.068607882,-0.076440275,15,290
2020/6/17,18:42:25,22.9028061,120.2726417,20.155,-50,48,162,-50,126,-1005,-5.180370331,-55.00280762,-20.15500069,0.055334918,0.000850704,0.008019678,15,290
2020/6/17,18:42:28,22.9028273,120.2726433,19.924,-45,61,236,22,-34,-1016,-2.818466187,-54.83672333,-19.92414856,0.081651539,0.04464265,0.06111915,15,290
2020/6/17,18:42:31,22.902776,120.272695,20.05,20,21,-41,-56,26,-977,-8.532124519,-49.5306015,-20.05052567,-0.120290317,2.355107546,0.026961964,15,290
2020/6/17,18:42:34,22.9026914,120.2727819,20.146,28,14,27,-29,-41,-988,-17.94923592,-40.62602997,-20.14647865,-0.080370136,2.396814585,0.025869645,15,290
2020/6/17,18:42:37,22.9026046,120.2728714,20.146,-4,111,-8,-82,-39,-1008,-27.62919617,-31.4458065,-20.14662552,-0.011351708,2.420686245,0.015950274,15,290
2020/6/17,18:42:40,22.90256,120.2729363,19.802,105,0,9,-2,3,-1029,-32.58388519,-24.79124641,-19.80295372,0.084228382,1.984514475,-0.085132398,15,290
2020/6/17,18:42:43,22.902609,120.2729823,19.898,43,-102,14,-12,-1,-979,-27.1292305,-20.07649422,-19.89856339,-0.104824059,0.628810644,-0.041211627,15,290
2020/6/17,18:42:46,22.9026849,120.2730474,20.037,-1,56,-4,-79,35,-988,-18.67639923,-13.39571953,-20.03742027,-0.135318756,0.669638634,-0.05185926,15,290
2020/6/17,18:42:49,22.9027807,120.273126,20.03,14,20,26,-117,68,-969,-8.007074356,-5.337738037,-20.03053665,-0.052645519,0.654519856,-0.028867699,15,290
2020/6/17,18:42:52,22.902845,120.2731783,19.438,-47,-75,-62,-17,-3,-971,-0.853834152,0.022027969,-19.43806267,0.102909811,0.80803299,-0.004597175,15,290
2020/6/17,18:34:29,22.9028523,120.2731871,18.808,-149,-83,0,-41,29,-885,0.019908905,0.500415802,-18.80840302,-0.077374011,-2.025910378,-0.012754896,15,290
2020/6/17,18:34:32,22.9028185,120.2731833,20.025,-4,115,-165,-12,-37,-996,-3.74180603,0.103279114,-20.02596283,-0.079095438,2.888468742,-0.018560022,15,290
2020/6/17,18:34:35,22.9027628,120.2731926,20.237,-10,33,53,-53,-72,-991,-9.948935509,1.061998367,-20.2377224,-0.074858174,3.024513006,0.053801887,15,290
2020/6/17,18:34:38,22.9027092,120.2732003,20.008,6,2,0,-35,-100,-1009,-15.91089344,1.852035522,-20.00873184,-0.072555542,-3.10343051,0.073489435,15,290
2020/6/17,18:34:41,22.9026555,120.2732004,20.026,40,23,-16,-26,-21,-995,-21.94453621,1.862962723,-20.02425385,-0.056231026,3.006950617,0.028856162,15,290
2020/6/17,18:34:44,22.9025967,120.2732065,19.95,49,43,25,9,-95,-994,-28.45264244,2.485809326,-19.95065117,-0.045543451,3.057581902,0.046082709,15,290
2020/6/17,18:34:47,22.902538,120.2732106,20.024,-58,19,12,-46,-21,-1003,-34.98621368,2.903158188,-20.0243721,-0.058563326,3.078181267,0.019205291,15,290
2020/6/17,18:34:50,22.9024805,120.2732157,19.938,89,-34,-15,-47,-98,-1006,-41.38039398,3.429302216,-19.93815231,-0.048497848,3.06380415,0.030135073,15,290
2020/6/17,18:34:53,22.9024394,120.2732219,19.974,-21,-60,1141,-13,-46,-1003,-45.95491791,4.070162773,-19.97402573,-0.029145334,-2.302387714,0.192487195,15,290
2020/6/17,18:34:56,22.9024627,120.2731915,20.252,-41,66,86,-71,3,-967,-43.36063004,0.947174072,-20.25273323,-0.133662835,-1.138549566,-0.005419092,15,290
2020/6/17,18:34:59,22.9024962,120.2731347,19.958,14,-33,128,-91,28,-1031,-39.63433838,-4.872148514,-19.95893288,-0.085027821,-0.949623644,-0.040962994,15,290
2020/6/17,18:35:02,22.9025266,120.2730832,19.873,-55,51,-12,-53,100,-988,-36.25395584,-10.15435219,-19.87330437,-0.059396241,-0.756501079,-0.023728158,15,290
2020/6/17,18:35:05,22.9025578,120.2730415,19.966,-110,59,-27,-33,17,-984,-32.77304459,-14.43766403,-19.96661568,-0.074057989,-0.911656022,-0.054455776,15,290
2020/6/17,18:35:08,22.9025928,120.2729934,20.063,-18,-40,57,-102,51,-1008,-28.88142776,-19.3669548,-20.06302071,-0.093075655,-0.977972627,-0.039244048,15,290
2020/6/17,18:35:11,22.902623,120.2729487,20.0,-8,-18,22,-88,5,-998,-25.51473808,-23.94717789,-20.00041199,-0.093509801,-1.00400424,-0.043421268,15,290
2020/6/17,18:35:14,22.9026334,120.2728943,20.145,-6,8,-29,-51,-34,-975,-24.3662281,-29.52890015,-20.14525604,-0.101615608,-1.590765834,-0.026183505,15,290
2020/6/17,18:35:17,22.9026319,120.2728382,20.053,-56,8,-69,-88,26,-988,-24.5310936,-35.27521133,-20.05332184,-0.106290698,-1.6179775,-0.018960148,15,290
2020/6/17,18:35:20,22.9026293,120.2727832,20.076,45,20,37,-125,4,-1017,-24.81730652,-40.92424774,-20.07651901,-0.139603585,-1.618955731,-0.038005274,15,290
2020/6/17,18:35:23,22.9026272,120.2727277,19.842,-35,48,-87,-101,101,-998,-25.05225754,-46.61394501,-19.84231949,-0.110234223,-1.608892441,-0.040880557,15,290
2020/6/17,18:35:26,22.9026246,120.2726726,19.907,70,-75,1241,-42,66,-1002,-25.34125137,-52.26099396,-19.90726089,-0.024973286,-0.968634367,0.115494236,15,290
2020/6/17,18:35:29,22.9026576,120.2726663,20.067,-57,31,-42,-62,20,-943,-21.65950584,-52.90361786,-20.06735229,-0.086391255,-0.255945116,-0.035670631,15,290
2020/6/17,18:35:32,22.9027137,120.2726631,19.972,3,2,24,-42,77,-980,-15.41635513,-53.23441315,-19.97224426,-0.042209502,-0.194977462,-0.064703763,15,290
2020/6/17,18:35:35,22.902771,120.2726566,20.057,26,-53,35,-62,82,-1002,-9.038739204,-53.9024353,-20.05742264,-0.05133643,-0.053780224,-0.070475169,15,290
2020/6/17,18:35:38,22.902823,120.2726551,20.022,145,-47,1193,-14,-47,-1028,-3.245092392,-54.05393982,-20.02278519,-0.025277784,0.729488969,0.101686001,15,290
2020/6/17,18:35:41,22.9028253,120.2727053,19.896,0,0,-198,3,33,-991,-2.990222931,-48.90917969,-19.89608192,-0.052156519,1.366302252,-0.019149322,15,290
2020/6/17,18:35:44,22.9028292,120.2727696,19.92,85,14,38,11,-56,-988,-2.560125351,-42.31099701,-19.92068291,-0.014490735,1.352849483,-0.012891836,15,290
2020/6/17,18:35:47,22.9028345,120.2728367,19.973,-43,-2,-44,4,-14,-982,-1.969099045,-35.43748856,-19.97398567,-0.030037135,1.528974056,0.009000674,15,290
2020/6/17,18:35:50,22.9028347,120.2728961,19.868,41,7,-46,-6,-50,-998,-1.940593719,-29.33897018,-19.86875343,-0.058825061,1.407693863,-0.0276438,15,290
2020/6/17,18:35:53,22.9028363,120.2729598,19.857,8,22,-19,-16,49,-985,-1.765008926,-22.8118782,-19.85757637,-0.024724334,1.422940969,-0.01781689,15,290
2020/6/17,18:35:56,22.9028394,120.273024,19.812,29,0,44,-23,19,-1004,-1.416374207,-16.22966766,-19.81214905,-0.030696305,1.431474209,-0.021800328,15,290
2020/6/17,18:35:59,22.9028424,120.2730868,19.732,-36,1,-30,-43,30,-987,-1.082424164,-9.786102295,-19.7326107,-0.034445271,1.429044366,-0.026278824,15,290
2020/6/17,18:36:02,22.902845,120.2731504,19.722,-22,6,-36,-22,14,-999,-0.791330338,-3.262573242,-19.72224426,-0.034974031,1.435121417,-0.017773874,15,290
2020/6/17,18:36:05,22.9028501,120.273185,18.326,0,-52,21,41,11,-965,-0.229656219,0.286109924,-18.32659912,0.064515062,1.371292353,0.025849704,15,290
2020/6/17,18:44:29,22.9028453,120.2731682,19.593,48,-29,-75,2,2,-948,-0.139030457,0.5194664,-19.59347153,-0.128425598,-1.64824295,-0.003249295,13,300
2020/6/17,18:44:32,22.9028443,120.2731258,20.163,65,14,54,-31,-56,-1011,-0.250371933,-3.830652237,-20.16329002,-0.079437524,-1.725138545,0.001846446,13,300
2020/6/17,18:44:35,22.9028396,120.2730661,20.04,43,18,6,-43,-7,-993,-0.774908066,-9.948181152,-20.04024696,-0.072700739,-1.668068647,-0.002070336,13,300
2020/6/17,18:44:38,22.9028349,120.2730061,20.227,-8,-107,14,-68,28,-967,-1.291677475,-16.10050583,-20.22714806,-0.051225662,-1.619867086,-0.010110983,13,300
2020/6/17,18:44:41,22.9028312,120.2729531,20.074,-20,42,-68,-50,8,-987,-1.712879181,-21.53453445,-20.07434273,-0.092999049,-1.555531859,-0.006235066,13,300
2020/6/17,18:44:44,22.9028298,120.2728933,20.086,-48,-16,2,-97,63,-1003,-1.868545532,-27.67286301,-20.08693504,-0.100622453,-1.650973201,-0.005490089,13,300
2020/6/17,18:44:47,22.9028258,120.272838,19.943,-9,-8,14,-61,-46,-994,-2.311021805,-33.33742142,-19.94312096,-0.092097811,-1.620351434,0.006602537,13,300
2020/6/17,18:44:50,22.9028232,120.2727795,20.034,23,-40,-41,-97,30,-988,-2.598670959,-39.3418808,-20.03494453,-0.085336499,-1.623379827,0.006483566,13,300
2020/6/17,18:44:53,22.9028192,120.2727301,20.012,-93,18,-305,-49,56,-1001,-3.046243668,-44.40807724,-20.01212692,0.037871234,-1.655161619,0.007292398,13,300
2020/6/17,18:44:56,22.902794,120.2727522,19.775,27,178,-494,-29,43,-1004,-5.847076416,-42.14419937,-19.7753334,-0.013721061,2.200393677,0.02337987,13,300
2020/6/17,18:44:59,22.902758,120.2727951,19.926,7,-43,41,16,-50,-998,-9.86205101,-37.73654556,-19.92643356,0.001581222,2.397416592,0.04872819,13,300
2020/6/17,18:45:02,22.9027172,120.2728393,20.041,-49,8,-33,8,40,-994,-14.39361954,-33.20969391,-20.04124641,-0.008455666,2.367657185,0.030814808,13,300
2020/6/17,18:45:05,22.902679,120.2728808,20.046,-2,3,-17,5,-37,-999,-18.65571404,-28.95298004,-20.04656029,-0.018888973,2.326509714,0.031101409,13,300
2020/6/17,18:45:08,22.9026358,120.2729285,20.074,17,0,46,18,6,-974,-23.46888733,-24.06055069,-20.07409096,-0.000950022,2.342734814,0.040155083,13,300
2020/6/17,18:45:11,22.9025955,120.2729723,20.039,2,-5,-17,-17,-3,-1005,-27.96234894,-19.56555557,-20.03962326,-0.001037336,2.306357622,0.026528951,13,300
2020/6/17,18:45:14,22.9025849,120.2730091,20.093,5,-10,-135,-12,37,-1004,-29.1155777,-15.77059937,-20.0932312,-0.139255196,0.238980889,-0.056188736,13,300
2020/6/17,18:45:17,22.9026322,120.2730382,20.067,43,18,61,-23,138,-982,-23.8693428,-12.81524658,-20.06793594,-0.050267067,0.46302253,-0.048187274,13,300
2020/6/17,18:45:20,22.9026749,120.273065,19.902,32,-19,-67,-39,21,-1014,-19.10526657,-10.06042099,-19.90269661,-0.035616908,0.55121839,-0.050943784,13,300
2020/6/17,18:45:23,22.9027167,120.2730959,19.755,-11,-5,-51,-12,69,-1009,-14.45451164,-6.893270493,-19.75571251,-0.04455724,0.491360784,-0.066958159,13,300
2020/6/17,18:45:26,22.9027613,120.273125,19.552,-70,46,-12,-34,104,-982,-9.493388176,-3.914396286,-19.55202293,-0.051591072,0.572562695,-0.029167905,13,300
2020/6/17,18:45:29,22.9028097,120.2731608,19.502,-112,23,69,-7,15,-980,-4.100290298,-0.240743637,-19.5029068,-0.027742721,0.473623574,-0.050704673,13,300
2020/6/17,18:45:32,22.9028479,120.2731838,19.036,0,6,18,26,80,-890,0.147678375,2.118377686,-19.03606796,0.085222587,0.444252431,-0.041281871,13,300
2020/6/17,18:46:57,22.9028414,120.2731697,19.479,14,-31,23,-37,-47,-943,0.11239624,-0.608285904,-19.47964859,-0.140389591,-1.675254822,-0.015711457,13,300
2020/6/17,18:47:00,22.9028402,120.2731213,20.21,55,18,68,-49,-37,-1010,-0.017297745,-5.571548462,-20.21035004,-0.097214796,-1.81255281,-0.023255054,13,300
2020/6/17,18:47:03,22.9028329,120.2730597,20.244,0,32,16,-77,-7,-993,-0.829450607,-11.89458466,-20.24423218,-0.110960744,-1.653625965,-0.028318956,13,300
2020/6/17,18:47:06,22.9028276,120.2729998,20.03,58,72,39,-94,43,-1017,-1.418188095,-18.03103256,-20.03016281,-0.088939399,-1.618372917,-0.018472385,13,300
2020/6/17,18:47:09,22.9028235,120.2729377,20.036,-37,45,-25,-51,63,-980,-1.873329163,-24.39994812,-20.03646278,-0.102275692,-1.602653265,-0.01231311,13,300
2020/6/17,18:47:12,22.9028192,120.2728809,20.037,14,-10,25,-87,13,-991,-2.350944519,-30.22834015,-20.03704834,-0.109183587,-1.601211667,0.005383403,13,300
2020/6/17,18:47:15,22.9028171,120.2728246,20.01,34,-6,-19,-64,-30,-1007,-2.590053558,-35.99539566,-20.01046562,-0.103385143,-1.68995142,-0.009430609,13,300
2020/6/17,18:47:18,22.9028118,120.2727623,19.953,36,-1,45,-39,-17,-993,-3.177118301,-42.38610077,-19.95393944,-0.081601895,-1.670335054,-0.012271528,13,300
2020/6/17,18:47:21,22.9028076,120.272706,20.164,209,195,154,-44,34,-987,-3.64437294,-48.1551857,-20.16489792,-0.066805236,-1.582830787,0.0326031,13,300
2020/6/17,18:47:24,22.9028369,120.2726632,19.88,-67,52,-45,-43,33,-1009,-0.380554199,-52.54677963,-19.88089752,-0.084649637,-0.748152196,-0.044557676,13,300
2020/6/17,18:47:27,22.9028771,120.2726257,19.872,23,82,-88,-42,20,-1006,4.092082977,-56.39277267,-19.87232399,0.033936061,-0.720696092,-0.074290626,13,300
2020/6/17,18:47:30,22.9028643,120.2726211,20.008,62,49,-1114,3,-50,-1001,2.66985321,-56.86892319,-20.0087986,-0.12163382,-2.643375397,-0.078301705,13,300
2020/6/17,18:47:33,22.9028133,120.2726296,20.113,-69,-20,-54,-44,0,-979,-3.007089615,-55.99550247,-20.11310387,-0.06210446,2.957016468,0.037150051,13,300
2020/6/17,18:47:36,22.9027583,120.2726398,20.062,-145,39,-38,-16,-21,-968,-9.133971214,-54.95283127,-20.06223679,-0.051124793,2.93811655,0.065192074,13,300
2020/6/17,18:47:39,22.9027018,120.272649,20.033,59,-48,21,-6,-40,-983,-15.42598534,-54.00004959,-20.0332756,-0.024618171,2.964470863,0.047655534,13,300
2020/6/17,18:47:42,22.9026475,120.2726579,19.974,11,18,15,-47,-47,-1015,-21.47907639,-53.09634781,-19.97414017,-0.047654204,2.981207371,0.038688838,13,300
2020/6/17,18:47:45,22.9025941,120.2726657,20.025,12,-9,-5,-17,-61,-992,-27.42072105,-52.2882576,-20.02540588,-0.030638598,2.935911894,0.021556765,13,300
2020/6/17,18:47:48,22.9025336,120.2726765,20.063,-81,1,-20,-25,18,-995,-34.15493393,-51.18925858,-20.06346512,-0.033542536,2.996394634,0.037409645,13,300
2020/6/17,18:47:51,22.9025014,120.2726851,20.009,-236,57,175,-10,-12,-1020,-37.74326324,-50.29831314,-20.00955963,0.10663759,-2.969948053,0.037428487,13,300
2020/6/17,18:47:54,22.9025371,120.2727053,20.113,30,154,810,-86,66,-1003,-33.76608276,-48.23229599,-20.11390114,-0.072675794,0.125228018,-0.093836538,13,300
2020/6/17,18:47:57,22.9025884,120.2727202,20.037,63,-24,978,-37,52,-1033,-28.05385399,-46.69892502,-20.03713608,-0.011740509,0.758622527,0.080020614,13,300
2020/6/17,18:48:00,22.9026012,120.2727682,19.874,31,-16,-68,27,18,-980,-26.62956238,-41.78253174,-19.87426949,-0.009292936,1.4873209,-0.012344905,13,300
2020/6/17,18:48:03,22.9026011,120.2728216,19.96,-28,62,29,-37,86,-1004,-26.64350891,-36.30710602,-19.96098137,-0.027523562,1.318331838,-0.040528771,13,300
2020/6/17,18:48:06,22.9026067,120.2728827,19.992,6,13,-39,-9,-23,-994,-26.02420044,-30.04211426,-19.99207497,-0.028957762,1.414583445,-0.033570342,13,300
2020/6/17,18:48:09,22.9026109,120.2729437,20.03,-48,-52,-168,-7,37,-974,-25.55741501,-23.78237534,-20.03081322,-0.027268168,1.460234284,-0.016940147,13,300
2020/6/17,18:48:12,22.9026133,120.2730013,20.062,-67,-11,23,-25,85,-978,-25.28440857,-17.87408447,-20.06226921,-0.043604486,1.398712873,-0.036588959,13,300
2020/6/17,18:48:15,22.9026168,120.27306,19.982,-6,-28,20,-48,93,-998,-24.89686775,-11.85702705,-19.9828167,-0.034922138,1.388620138,-0.040764153,13,300
2020/6/17,18:48:18,22.9026213,120.2731187,19.974,-30,22,24,-32,48,-1011,-24.39149094,-5.84469223,-19.97481155,-0.027492499,1.439101577,-0.027959134,13,300
2020/6/17,18:48:21,22.9026241,120.2731796,20.109,-117,172,-490,-29,-45,-1011,-24.08178139,0.408067703,-20.10939407,-0.015528889,1.40649569,-0.041701797,13,300
2020/6/17,18:48:24,22.9026609,120.2731985,20.12,-130,73,-79,-87,74,-970,-19.97560883,2.3474617,-20.12024307,-0.086074442,-0.241940901,-0.065163173,13,300
2020/6/17,18:48:27,22.9027176,120.2731932,19.882,-18,43,-29,-28,87,-990,-13.65934372,1.797592163,-19.88290024,-0.063060597,-0.089205429,-0.065767273,13,300
2020/6/17,18:48:30,22.902769,120.2731868,19.7,-6,24,44,-47,9,-1009,-7.93918705,1.145040512,-19.70071793,-0.063725665,0.029739492,-0.016468305,13,300
2020/6/17,18:48:33,22.9028199,120.2731856,19.666,45,20,12,-31,0,-992,-2.271526337,1.017009735,-19.6666069,-0.060736742,-0.02703684,-0.035514794,13,300
2020/6/17,18:48:36,22.9028465,120.2731831,18.167,-141,-38,-27,-3,39,-960,0.68031311,0.765146255,-18.1676445,-0.026669532,-0.12096896,-0.021954976,13,300
2020/6/17,18:53:56,22.9028412,120.2731841,0.452,52,221,-314,-29,-41,-1104,-0.73582077,0.433418274,-0.452260911,-0.062357452,2.862321854,0.076148987,13,300
2020/6/17,18:53:59,22.9027761,120.2731868,5.033,-3,65,55,-57,-1,-1037,-7.990984917,0.711679459,-5.033270836,-0.108535528,2.991418123,0.025979415,13,300
2020/6/17,18:54:02,22.9026724,120.2731977,11.777,-20,-6,8,-63,-65,-986,-19.52959633,1.831079483,-11.77789402,-0.086820655,3.032231331,0.029552083,13,300
2020/6/17,18:54:05,22.9025775,120.2732083,17.424,2,5,6,-41,-22,-989,-30.10190201,2.920810699,-17.4249115,-0.065305024,3.081753016,0.041681215,13,300
2020/6/17,18:54:08,22.9025143,120.2732122,19.948,40,-3,61,19,7,-973,-37.13642883,3.312637329,-19.94866371,0.10839504,-3.118844271,0.068973541,13,300
2020/6/17,18:54:11,22.9025353,120.2731915,20.203,9,-28,962,-37,-70,-1005,-34.8037262,1.199398041,-20.20360374,-0.155869618,-1.653964281,0.131404012,13,300
2020/6/17,18:54:14,22.9025989,120.2731229,20.446,34,-71,-1,-60,24,-970,-27.72015762,-5.84406662,-20.44679642,-0.151747257,-0.802255213,-0.004153325,13,300
2020/6/17,18:54:17,22.9026642,120.2730372,20.281,-119,31,-528,-106,107,-1043,-20.44605637,-14.6283226,-20.28159142,0.032969326,-1.196894884,-0.119462125,13,300
2020/6/17,18:54:20,22.902629,120.2729859,19.706,-20,20,211,-74,0,-1001,-24.37600517,-19.88479233,-19.70650482,-0.141626611,-2.4405334,0.023944028,13,300
2020/6/17,18:54:23,22.9025583,120.2729185,20.058,-90,112,-7,-96,28,-980,-32.24000168,-26.79980087,-20.05800056,-0.03243807,-2.424592495,0.023013167,13,300
2020/6/17,18:54:26,22.9025101,120.2728775,20.045,37,23,-116,-24,-55,-1012,-37.60789108,-30.99962997,-20.04537773,0.057302482,-2.32715559,0.109268785,13,300
2020/6/17,18:54:29,22.9025447,120.2728629,19.9,-157,115,791,-86,-52,-994,-33.7532692,-32.50267029,-19.90004539,-0.195166513,-0.582833529,0.029607274,13,300
2020/6/17,18:54:32,22.9026422,120.2728205,20.409,-37,18,45,-93,91,-954,-22.89925957,-36.85136795,-20.40950203,-0.12581557,-0.447172403,-0.024328552,13,300
2020/6/17,18:54:35,22.9027389,120.2727717,20.265,83,5,175,-28,-6,-1017,-12.13105297,-41.8514061,-20.26552773,0.018825583,-0.346509844,0.013696299,13,300
2020/6/17,18:54:38,22.9027775,120.272788,19.647,-47,92,-152,-9,0,-1015,-7.831898689,-40.18438339,-19.64704323,-0.161555126,1.412741542,0.001541884,13,300
2020/6/17,18:54:41,22.9027907,120.2728809,20.056,3,-18,-21,-33,-11,-950,-6.359712601,-30.6511879,-20.05650711,-0.119218886,1.335107446,-0.035614792,13,300
2020/6/17,18:54:44,22.9028136,120.2730145,20.282,-3,15,24,-117,89,-1015,-3.795253754,-16.86359406,-20.27920151,-0.117327221,1.323500156,-0.051219668,13,300
2020/6/17,18:54:47,22.9028383,120.2731347,20.058,37,102,7,-47,6,-991,-1.067832947,-4.628019333,-20.058815,0.015615765,1.353520632,-0.036144976,13,300
2020/6/17,18:54:50,22.902849,120.2731825,18.621,6,-16,-13,7,80,-939,0.123985291,0.272323608,-18.62106323,0.039140098,1.372710466,-0.01169436,13,300
2020/6/17,18:56:17,22.9028498,120.2731662,17.759,0,-45,0,-3,-21,-897,-0.031141281,0.146347046,-17.75928688,-0.026751349,-1.911244392,0.031960025,13,300
2020/6/17,18:56:20,22.90285,120.2731441,19.966,-21,152,30,-25,-55,-981,-0.000957489,-2.112539291,-19.96602631,-0.143572167,-1.651787639,0.026393108,13,300
2020/6/17,18:56:23,22.9028482,120.2730888,20.215,30,-8,24,-93,46,-1013,-0.201076508,-7.791910172,-20.21547699,-0.081886083,-1.688793778,-0.003107077,13,300
2020/6/17,18:56:26,22.902843,120.2730268,20.116,-36,19,27,-111,50,-1020,-0.785657883,-14.14960861,-20.11697388,-0.078692742,-1.565362811,0.020195657,13,300
2020/6/17,18:56:29,22.9028403,120.2729659,20.042,35,9,31,-75,-37,-998,-1.089296341,-20.39466476,-20.0425148,-0.091771796,-1.544030905,0.018370064,13,300
2020/6/17,18:56:32,22.9028384,120.2729104,20.07,15,-1,-5,-113,16,-1028,-1.299053192,-26.08150864,-20.07012177,-0.085240096,-1.549384952,0.019830965,13,300
2020/6/17,18:56:35,22.9028371,120.2728516,20.017,23,40,52,-26,-44,-967,-1.43932724,-32.11491013,-20.01720238,-0.081568941,-1.606575847,0.031453606,13,300
2020/6/17,18:56:38,22.9028335,120.2727876,20.009,24,-5,-7,-34,7,-975,-1.845499039,-38.67642593,-20.00983047,-0.067458205,-1.557535291,0.016238391,13,300
2020/6/17,18:56:41,22.9028304,120.2727389,20.02,25,-36,-1156,-16,-74,-1009,-2.187822342,-43.67073059,-20.02046204,-0.064685039,-2.599839926,-0.106441043,13,300
2020/6/17,18:56:44,22.90278,120.2727355,19.909,-51,-1,-70,-36,-51,-994,-7.801281929,-44.01865387,-19.90938377,-0.030790012,3.015357733,0.005541758,13,300
2020/6/17,18:56:47,22.9027314,120.2727413,20.076,28,-48,1,-37,-19,-1003,-13.21199512,-43.42264557,-20.07659912,-0.049824584,3.12032795,0.023411281,13,300
2020/6/17,18:56:50,22.9026786,120.2727449,20.007,-5,8,-32,-4,29,-984,-19.08654976,-43.04983521,-20.00767899,-0.056713391,3.099153757,0.001050638,13,300
2020/6/17,18:56:53,22.9026247,120.2727486,20.043,8,0,30,-40,3,-1013,-24.58898163,-42.71392822,-20.04585838,-0.051036377,3.092316151,0.012697256,13,300
2020/6/17,18:56:56,22.9025736,120.2727511,20.053,-23,16,-22,-37,-22,-996,-30.79019165,-42.41313934,-20.05334473,-0.060732313,3.051045656,-0.007499492,13,300
2020/6/17,18:56:59,22.902549,120.2727789,20.069,46,116,-94,-43,-6,-993,-33.52638245,-39.56212234,-20.06990623,-0.074080773,1.451602101,-0.032062761,13,300
2020/6/17,18:57:02,22.9025508,120.2728376,20.07,-3,-5,62,-63,-14,-1012,-33.32228088,-33.55063248,-20.07084656,-0.052790411,1.398432374,-0.004609746,13,300
2020/6/17,18:57:05,22.9025544,120.2728971,20.05,-24,-5,-45,-34,57,-979,-32.91785431,-27.44766235,-20.05042648,-0.051270518,1.455852389,-0.02364086,13,300
2020/6/17,18:57:08,22.9025565,120.2729515,20.094,-50,28,-9,-57,89,-997,-32.68974304,-21.86581039,-20.09479141,-0.048714124,1.428389311,-0.038442019,13,300
2020/6/17,18:57:11,22.90256,120.2730134,20.015,-18,4,-56,-34,81,-988,-32.29802704,-15.52404022,-20.01517105,-0.042509645,1.451518536,-0.030638508,13,300
2020/6/17,18:57:14,22.9025627,120.2730673,20.108,39,8,31,-37,30,-993,-31.99707603,-9.996189117,-20.10856247,-0.065093234,1.455237746,-0.015532949,13,300
2020/6/17,18:57:17,22.9025656,120.2731306,19.972,-6,11,17,-30,-26,-1001,-31.68029785,-3.499458313,-19.97223473,-0.04030814,1.463300943,-0.033520695,13,300
2020/6/17,18:57:20,22.9025685,120.2731895,19.894,-100,271,36,-24,86,-994,-31.35668564,2.533643723,-19.89497757,0.000708181,1.457599521,-0.042884789,13,300
2020/6/17,18:57:23,22.9026011,120.2732064,20.058,-16,13,-82,-54,37,-962,-27.72938538,4.272289276,-20.05809975,-0.105295502,-0.118607141,-0.057888996,13,300
2020/6/17,18:57:26,22.9026532,120.2732015,19.923,-13,34,84,-97,47,-1032,-21.9138031,3.765724182,-19.92315483,-0.095025033,-0.117601141,-0.044253469,13,300
2020/6/17,18:57:29,22.9027089,120.2731943,19.57,11,5,106,-50,20,-984,-15.70821285,3.02964592,-19.57062721,-0.088340394,0.005757015,-0.022427581,13,300
2020/6/17,18:57:32,22.9027597,120.2731922,19.591,-68,58,-79,-91,57,-975,-10.05558586,2.815654755,-19.59101486,-0.088721611,-0.099096008,-0.066012293,13,300
2020/6/17,18:57:35,22.9028162,120.2731881,19.441,11,-3,-59,-59,41,-1004,-3.769586563,2.397562027,-19.44184685,-0.099054791,-0.10225901,-0.067214109,13,300
2020/6/17,18:57:38,22.9028475,120.2731836,18.384,41,85,-58,-20,-16,-940,-0.282485962,1.934568405,-18.38449669,0.006726949,-0.090766363,-0.041424718,13,300
2020/6/17,18:59:07,22.9028444,120.2731721,18.774,44,-165,13,-38,-49,-886,-0.663421631,-0.759492874,-18.77495956,-0.065217309,-1.992042899,0.028969876,13,300
2020/6/17,18:59:10,22.9028447,120.2731376,20.215,-36,33,-19,-128,44,-1014,-0.582195282,-3.763820648,-20.16653252,-0.119320616,-1.680098534,-0.003233079,13,300
2020/6/17,18:59:13,22.902839,120.2730774,20.199,9,25,29,-69,43,-1012,-1.258628845,-10.47540855,-20.19944382,-0.082857653,-1.579372287,0.016723171,13,300
2020/6/17,18:59:16,22.9028342,120.2730097,20.035,38,48,8,-93,38,-1046,-1.795902252,-17.41872978,-20.03587532,-0.072058707,-1.539455175,0.014908336,13,300
2020/6/17,18:59:19,22.9028309,120.2729491,19.997,-2,5,-18,-66,24,-1000,-2.160718918,-23.62784767,-19.99785995,-0.097889356,-1.545086145,0.003243961,13,300
2020/6/17,18:59:22,22.9028292,120.2728927,19.937,83,-17,2,-79,-42,-974,-2.353954315,-29.41636467,-19.93771172,-0.108712494,-1.620319486,-0.015265702,13,300
2020/6/17,18:59:25,22.9028253,120.2728311,19.976,-41,6,26,-99,40,-1012,-2.792131424,-35.73581696,-19.97600937,-0.084346093,-1.608454704,-0.00253292,13,300
2020/6/17,18:59:28,22.9028206,120.2727641,19.973,-94,-7,-21,-78,50,-987,-3.312517166,-42.60603333,-19.97351837,-0.075649202,-1.56394577,0.011461353,13,300
2020/6/17,18:59:31,22.902817,120.272727,20.029,-77,26,-73,-45,45,-1022,-3.711587906,-46.40441132,-20.02905464,0.026481707,-1.282054543,0.002278029,13,300
2020/6/17,18:59:34,22.902791,120.2727539,19.933,-102,-40,106,18,7,-964,-6.612325668,-43.64395905,-19.93302155,-0.023303775,2.171108484,0.022662297,13,300
2020/6/17,18:59:37,22.9027533,120.2727947,20.001,22,-6,-28,16,12,-971,-10.80843353,-39.46150208,-20.00144005,-0.045261674,2.208898306,-0.005660799,13,300
2020/6/17,18:59:40,22.9027149,120.2728397,20.044,-18,2,0,1,1,-974,-15.07813263,-34.84950256,-20.04478836,-0.035221171,2.26759243,0.003099672,13,300
2020/6/17,18:59:43,22.9026756,120.272881,20.052,9,-5,-7,-2,-12,-994,-19.45215607,-30.61268044,-20.05253792,-0.029478595,2.208426714,-0.002791991,13,300
2020/6/17,18:59:46,22.9026318,120.2729295,20.031,-6,1,-71,-50,18,-1012,-24.33471489,-25.6442852,-20.03111458,-0.025992658,2.237774611,-0.013411771,13,300
2020/6/17,18:59:49,22.9025934,120.2729727,20.064,2,14,63,-40,15,-1019,-28.61084557,-21.21515465,-20.06433105,-0.025555188,2.242436886,-0.011925756,13,300
2020/6/17,18:59:52,22.9025841,120.2730048,20.048,-35,-37,-23,-48,77,-976,-29.64850998,-17.92001534,-20.04866982,-0.13382411,0.471633583,-0.060492244,13,300
2020/6/17,18:59:55,22.9026293,120.2730369,19.999,12,-25,33,-30,54,-995,-24.61625671,-14.62309456,-19.99936485,-0.049484298,0.445312589,-0.040583212,13,300
2020/6/17,18:59:58,22.9026707,120.2730614,19.881,-62,3,0,-43,60,-986,-19.99387741,-12.11937523,-19.8814106,-0.07292746,0.61557132,-0.029535156,13,300
2020/6/17,19:00:01,22.9027089,120.2730896,19.746,32,-16,16,-49,41,-1015,-15.75008583,-9.221746445,-19.74687386,-0.049719296,0.527726471,-0.037873603,13,300
2020/6/17,19:00:04,22.9027524,120.2731201,19.733,-57,7,29,-81,87,-1011,-10.9022646,-6.095695496,-19.73386955,-0.062843874,0.5124951,-0.042994279,13,300
2020/6/17,19:00:07,22.9027906,120.2731472,19.65,-15,-10,-11,-73,77,-997,-6.655822754,-3.319652557,-19.6505394,-0.063437447,0.49688378,-0.061240736,13,300
2020/6/17,19:00:10,22.9028352,120.2731773,19.54,19,271,13,-54,76,-995,-1.690309525,-0.227132797,-19.54035568,0.001721725,0.479324967,-0.056013335,13,300
2020/6/17,19:00:13,22.9028495,120.2731835,16.624,-52,-72,84,-3,80,-1028,-0.097351074,0.403816223,-16.62413788,-0.002098192,0.469219565,-0.045088802,13,300
