date,time,lat,lon,alt,x_gyro,y_gyro,z_gyro,x_acc,y_acc,z_acc,north,east,down,pitch,yaw,roll,wind_speed,wind_direction
2020/6/14,10:45:16,22.90293,120.2731349,20.963,113,-80,220,-146,40,-991,-3.100551605,-1.587373734,-20.9631691,-0.257725835,-2.637857437,-0.003302692,16,182
2020/6/14,10:45:18,22.9028839,120.2730938,20.579,-7,7,20,-272,124,-946,-7.557186127,-5.231649399,-20.62566185,-0.314719707,-2.540627718,-0.125232816,16,182
2020/6/14,10:45:21,22.9027976,120.2730221,20.244,27,152,35,-261,206,-967,-17.84963417,-13.15561676,-20.24461555,-0.296718389,-2.505913258,-0.192680776,16,182
2020/6/14,10:45:23,22.9027139,120.2729594,20.488,95,160,246,-228,201,-902,-27.16277695,-19.58328247,-20.48869896,-0.19098483,-2.437390566,-0.14916639,16,182
2020/6/14,10:45:26,22.9026892,120.2729157,21.256,-107,-1,222,-36,139,-918,-29.91973495,-24.05928802,-21.2561779,-0.098982811,-1.145103097,-0.006089379,16,182
2020/6/14,10:45:28,22.902708,120.2728924,21.465,-39,78,-154,-27,159,-1056,-27.82862473,-26.45397568,-21.46522903,-0.107902944,-0.994882882,-0.10945072,16,182
2020/6/14,10:45:31,22.9028057,120.2727709,20.263,140,27,117,50,133,-1037,-16.95159531,-38.9082222,-20.26387405,0.054083817,-0.94370389,-0.14184536,16,182
2020/6/14,10:45:33,22.9028664,120.2726871,20.265,75,173,113,26,83,-979,-10.19384766,-47.49961853,-20.26516914,0.049427412,-0.824519396,-0.058632936,16,182
2020/6/14,10:45:36,22.9029121,120.2726328,19.762,-79,197,97,60,98,-1024,-5.552849293,-52.6499176,-19.83718872,0.210052967,-0.62402463,-0.074149214,16,182
2020/6/14,10:45:38,22.9029186,120.2726234,19.588,-28,41,7,121,132,-959,-4.36579752,-54.03688812,-19.58848572,0.248455673,-0.564649224,-0.128186852,16,182
2020/6/14,10:45:41,22.9028788,120.2726366,19.887,55,109,-882,-190,215,-1033,-8.804885864,-52.68584442,-19.88740921,0.131072462,-1.273692846,-0.31147638,16,182
2020/6/14,10:45:43,22.90285,120.2726432,19.884,-50,8,-70,-271,97,-893,-12.01890182,-52.00830841,-19.88430977,-0.37426132,-3.094944715,-0.022916675,16,182
2020/6/14,10:45:46,22.9027061,120.2726469,20.538,-49,440,-26,-319,50,-1089,-28.03012466,-51.6275177,-20.53872299,-0.330899298,3.093502283,-0.053157821,16,182
2020/6/14,10:45:48,22.9025974,120.2726566,20.922,37,-136,-7,-167,32,-996,-40.13368225,-50.63555908,-20.92238426,-0.147681355,3.048843384,-0.00245844,16,182
2020/6/14,10:45:51,22.9024816,120.2726694,20.338,-21,-208,-3,-315,36,-982,-53.02548218,-49.31995392,-20.33831787,-0.20877853,3.046557903,-0.005789033,16,182
2020/6/14,10:45:53,22.9023783,120.2726789,19.761,-69,-138,-120,-270,110,-862,-64.52394867,-48.34182739,-19.76138496,-0.341072053,3.07336688,-0.067983598,16,182
2020/6/14,10:45:56,22.9022624,120.2726924,20.178,-251,71,7,-337,-50,-943,-77.42372894,-46.95474243,-20.17851639,-0.288990349,3.10623312,0.030645546,16,182
2020/6/14,10:45:58,22.9021708,120.2726988,20.071,88,17,-52,-294,30,-972,-87.61972809,-46.29982758,-20.07196999,-0.297183841,3.021339178,-0.031559575,16,182
2020/6/14,10:46:01,22.9020728,120.2727245,20.681,59,132,-191,-403,12,-1015,-98.53231049,-43.67234421,-20.68133545,-0.167229399,2.526146173,-0.117900871,16,182
2020/6/14,10:46:03,22.9020635,120.2727928,19.936,192,-2,-27,-81,-317,-923,-99.56417847,-36.663311,-19.93628693,-0.137605935,1.443391919,0.244350672,16,182
2020/6/14,10:46:06,22.9020654,120.2728656,20.163,56,-4,40,-28,-236,-954,-99.39053345,-27.17483902,-20.21957588,-0.149858579,1.427197933,0.120437369,16,182
2020/6/14,10:46:08,22.9020722,120.2729942,20.1,-43,5,1,-121,-56,-1008,-98.69483948,-17.31209946,-20.08292961,-0.139567077,1.365416169,0.105170429,16,182
2020/6/14,10:46:11,22.902083,120.2730997,20.283,208,141,21,-40,-150,-988,-97.39981842,-5.196931839,-20.28323936,-0.14759317,1.337864995,0.076272443,16,182
2020/6/14,10:46:13,22.9021007,120.2731974,21.304,-297,83,171,-39,-262,-1144,-95.42585754,4.828787804,-21.30480957,0.00823408,1.338391304,0.189974651,16,182
2020/6/14,10:46:16,22.902106,120.2732401,26.462,107,-66,46,8,-234,-961,-94.83840942,9.203003883,-26.46201897,0.018072762,1.422642112,0.192297757,16,182
2020/6/14,10:46:18,22.902106,120.2732414,29.539,-184,-30,16,98,-252,-849,-94.8328476,9.331843376,-29.53951263,0.000846772,1.416308165,0.039694201,16,182
2020/6/14,10:46:21,22.902146,120.2732409,30.49,197,99,1,29,-219,-952,-90.38313293,9.28217411,-30.49009323,0.015407531,1.417806149,-0.033463899,16,182
2020/6/14,10:46:23,22.9022084,120.2732382,30.029,-157,-1,-6,90,13,-1000,-81.57314301,8.780612946,-29.874403,0.059772767,1.418238759,-0.045712348,16,182
2020/6/14,10:46:26,22.9023246,120.2732175,29.72,-51,432,83,-16,-44,-985,-70.50402832,6.888795853,-29.72083092,-0.036041711,1.419301271,0.013196993,16,182
2020/6/14,10:46:28,22.9024251,120.2732052,29.989,-30,14,-11,24,-24,-969,-59.31722641,5.629454613,-29.98907089,-0.018851273,1.392810583,0.03995828,16,182
2020/6/14,10:46:31,22.9025234,120.273198,30.013,-49,-26,-13,29,-15,-1026,-48.37352371,4.887949944,-30.01365852,0.04892496,1.399225473,0.057132792,16,182
2020/6/14,10:46:33,22.9026465,120.2731874,29.951,-42,104,-15,99,-89,-988,-34.67086029,3.798719406,-29.95137978,0.070232742,1.390250087,0.059304621,16,182
2020/6/14,10:46:36,22.9027441,120.2731755,30.151,-3,44,12,96,-63,-924,-23.80461693,2.582586288,-30.15140724,0.032899894,1.412898779,0.054159533,16,182
2020/6/14,10:46:38,22.9028548,120.2731637,30.212,-28,-54,23,27,-77,-1067,-12.68026924,1.506958008,-30.2489109,0.04638987,1.415077209,0.14196153,16,182
2020/6/14,10:46:41,22.9029289,120.2731536,29.904,70,-69,15,107,-216,-986,-2.630595684,0.213796616,-29.88336182,0.013620289,1.414105654,0.273832291,16,182
2020/6/14,10:50:28,22.9029768,120.2731055,20.208,42,113,2,47,76,-985,4.767422676,-7.926815987,-20.3396492,-0.00981445,-0.98507762,-0.06866423,17,200
2020/6/14,10:50:30,22.9030034,120.2730581,20.134,20,27,-67,81,63,-983,7.054092407,-11.63222027,-20.13436699,0.026180204,-0.8993572,-0.077540688,17,200
2020/6/14,10:50:33,22.9030267,120.2730205,20.341,12,13,8,69,72,-1006,9.642102242,-15.48421574,-20.34135628,0.012825362,-0.915629029,-0.089528114,17,200
2020/6/14,10:50:35,22.9030479,120.2729811,20.099,27,-99,-67,55,52,-1003,12.00638676,-19.52555847,-20.0999012,0.047813237,-0.818017662,-0.048134651,17,200
2020/6/14,10:50:38,22.9030705,120.2729481,20.068,-39,-27,-115,84,127,-950,14.52177715,-22.91517258,-20.06877136,0.057805158,-0.903926909,-0.074483611,17,200
2020/6/14,10:50:40,22.9030893,120.2729174,20.097,-26,-3,-104,80,112,-957,16.61856461,-26.06511307,-20.09737396,0.056676492,-0.984572232,-0.120258905,17,200
2020/6/14,10:50:43,22.9031068,120.2728913,20.174,-273,-37,-819,-8,249,-954,18.56335831,-28.74003983,-20.17490005,0.075704776,-1.045161605,-0.148801893,17,200
2020/6/14,10:50:45,22.903102,120.2728549,19.91,25,174,-51,-140,137,-1025,18.02383041,-32.47503281,-19.91030693,-0.239273578,-2.198088884,-0.174617261,17,200
2020/6/14,10:50:48,22.9030548,120.2728069,20.12,108,-136,-5,-147,214,-987,12.77663517,-37.39375305,-20.12080765,-0.122772865,-2.380808353,-0.187200814,17,200
2020/6/14,10:50:50,22.903015,120.2727786,20.458,-37,149,171,-92,128,-998,8.821507454,-39.98226547,-20.39027786,-0.108308703,-2.251643658,-0.066635877,17,200
2020/6/14,10:50:53,22.9029797,120.2727492,20.391,6,263,-27,-107,144,-1014,4.418259621,-43.31315231,-20.39145851,-0.112439208,-2.1228652,-0.066401146,17,200
2020/6/14,10:50:55,22.9029488,120.2727153,20.444,-36,34,-66,-78,111,-1032,0.975291252,-46.78659058,-20.44402313,-0.066429436,-2.298237324,-0.156534523,17,200
2020/6/14,10:50:58,22.9029139,120.2726849,20.177,-45,-1,-115,-28,167,-967,-2.915723801,-49.90706635,-20.17729378,-0.088780463,-2.302672148,-0.115956001,17,200
2020/6/14,10:51:00,22.9028772,120.2726515,20.14,32,62,120,-99,126,-920,-6.993237495,-53.32752228,-20.14014626,-0.132429227,-2.312862873,-0.118175961,17,200
2020/6/14,10:51:03,22.9028387,120.2726182,20.382,-1,-71,-112,-133,126,-925,-11.29497719,-56.74284363,-20.38257408,-0.085100494,-2.286821365,-0.128535062,17,200
2020/6/14,10:51:05,22.9028174,120.272611,20.457,-38,190,-301,-96,-25,-1037,-13.66463852,-57.48327637,-20.45756912,-0.267595619,2.63095808,0.032273624,17,200
2020/6/14,10:51:08,22.9027667,120.2726512,20.533,48,-55,-108,-74,-26,-971,-19.345644,-53.33154297,-20.53406143,-0.170102522,2.33389616,0.044985291,17,200
2020/6/14,10:51:10,22.9027353,120.2726852,20.383,-44,-186,-134,-106,17,-976,-22.82922745,-49.84197998,-20.37963104,-0.12992467,2.21675396,0.040406939,17,200
2020/6/14,10:51:13,22.9027003,120.2727272,20.073,-27,43,-48,-142,-19,-973,-26.69768143,-45.56185532,-20.07382202,-0.151087254,2.396075964,0.044351377,17,200
2020/6/14,10:51:15,22.9026716,120.2727572,19.861,-44,-96,25,-234,-112,-960,-29.89175034,-42.49123001,-19.86108208,-0.155529499,2.351217747,0.069210351,17,200
2020/6/14,10:51:18,22.9026317,120.2728,19.772,77,-11,-48,-233,-194,-996,-34.33881378,-38.09526443,-19.77217102,-0.225382119,2.342362881,0.138026252,17,200
2020/6/14,10:51:20,22.9026048,120.2728254,19.925,-189,72,-37,-170,-79,-1007,-38.70796204,-34.41998672,-20.06424522,-0.197877541,2.227358818,0.062897861,17,200
2020/6/14,10:51:23,22.902556,120.2728749,20.074,83,69,3,-136,-136,-1007,-42.76667786,-30.41712952,-20.07441711,-0.176958472,2.166172743,0.109267369,17,200
2020/6/14,10:51:25,22.9025186,120.2729123,20.435,85,-29,145,-114,-17,-967,-46.93054199,-26.57947922,-20.43524361,-0.168688372,2.195253372,0.043699071,17,200
2020/6/14,10:51:28,22.9024889,120.2729316,20.16,-55,-58,150,-148,134,-1001,-49.09766769,-24.50590515,-20.29180908,-0.230906397,3.107320786,0.089665659,17,200
2020/6/14,10:51:30,22.9024341,120.2729148,19.794,-20,3,53,-231,38,-1008,-56.33377075,-26.32818604,-19.79428673,-0.211079657,-2.881834745,-0.091029942,17,200
2020/6/14,10:51:33,22.9023925,120.2729008,19.915,-192,50,25,-154,110,-968,-60.96842575,-27.76342773,-19.91509056,-0.193820357,-2.820313454,-0.104457714,17,200
2020/6/14,10:51:35,22.9023333,120.2728804,20.14,-3,-6,-13,-178,116,-937,-67.55644226,-29.85116959,-20.1405735,-0.198309705,-2.804795265,-0.118794985,17,200
2020/6/14,10:51:38,22.9022851,120.2728634,20.258,34,-66,-35,-172,88,-967,-72.92272949,-31.59759903,-20.25842094,-0.181798846,-2.82885766,-0.107721835,17,200
2020/6/14,10:51:40,22.9022412,120.2728478,20.288,29,5,-34,-126,92,-1042,-77.8110199,-33.19945526,-20.28873825,-0.144098297,-2.815632105,-0.131090865,17,200
2020/6/14,10:51:43,22.9022148,120.2728368,20.202,-74,14,-40,-142,124,-990,-80.73996735,-34.32369614,-20.20214462,-0.164219409,-2.912919521,-0.085436575,17,200
2020/6/14,10:51:45,22.9021404,120.2728137,20.261,225,-160,-65,-218,125,-959,-89.02887726,-36.69046021,-20.26152229,-0.204793662,-2.800111532,-0.062301125,17,200
2020/6/14,10:51:48,22.9021015,120.2728005,20.375,279,-512,250,15,-74,-868,-93.91949463,-38.21231079,-20.41744232,-0.088338703,-2.776565075,-0.031722672,17,200
2020/6/14,10:51:50,22.9020546,120.2727821,20.195,-188,50,-273,-170,84,-1060,-98.62374115,-39.95562744,-20.19186401,-0.130263641,-2.866597176,-0.059036341,17,200
2020/6/14,10:51:53,22.901996,120.2727612,20.054,-59,19,-24,-160,68,-1011,-105.1045609,-42.08141708,-20.0547123,-0.219878182,-2.887268782,-0.068509161,17,200
2020/6/14,10:51:55,22.9019596,120.2727479,19.761,56,-5,20,-174,-1,-1055,-109.1490707,-43.44607544,-19.76108742,-0.230417743,-2.917245388,-0.079421297,17,200
2020/6/14,10:51:58,22.9019093,120.2727311,19.926,-10,174,-688,-265,-20,-1008,-114.7535324,-45.16576767,-19.92640305,-0.138323218,-3.035906792,-0.1750727,17,200
2020/6/14,11:27:55,22.9029356,120.2731289,20.102,-8,-214,254,-85,87,-960,-2.729066849,-1.823488474,-20.10224915,-0.148905158,-2.488387108,-0.089493029,17,202
2020/6/14,11:27:57,22.902869,120.2730739,20.212,-11,-19,-64,-85,29,-997,-10.1501894,-7.46385622,-20.21262169,-0.103246853,-2.418620825,-0.093206413,17,202
2020/6/14,11:28:00,22.9028108,120.2730248,20.189,-79,-102,7,-110,151,-984,-17.43605232,-13.15372849,-20.20147896,-0.161299452,-2.459092617,-0.106503688,17,202
2020/6/14,11:28:02,22.9027354,120.27296,20.362,-89,-49,-68,-175,154,-966,-25.02095032,-19.13967133,-20.36231041,-0.166871801,-2.500021458,-0.102898143,17,202
2020/6/14,11:28:05,22.9026383,120.272874,20.13,34,-200,-72,-193,145,-864,-35.82784271,-27.9557457,-20.13066292,-0.196128413,-2.490078688,-0.097069174,17,202
2020/6/14,11:28:07,22.9025538,120.2728038,20.502,51,-23,58,-184,202,-936,-45.23279953,-35.15551758,-20.50276756,-0.224868029,-2.448228359,-0.213721305,17,202
2020/6/14,11:28:10,22.9024721,120.2727363,20.909,113,-29,-35,-208,166,-969,-54.33435059,-42.07483673,-20.90990067,-0.204295173,-2.491461039,-0.189720437,17,202
2020/6/14,11:28:12,22.9023836,120.2726669,20.887,3,87,-403,-191,73,-1030,-64.1785965,-49.19863129,-20.88799095,-0.182633325,-2.783765078,-0.277178317,17,202
2020/6/14,11:28:15,22.902294,120.2726682,20.866,47,-45,-148,-276,8,-934,-73.22470856,-49.35625076,-20.88772011,-0.324336767,2.780914545,-0.090837017,17,202
2020/6/14,11:28:17,22.9021997,120.2727128,20.936,-209,260,-194,-214,18,-1051,-84.65065002,-44.487957,-20.93695641,-0.207835078,2.626514435,-0.066132277,17,202
2020/6/14,11:28:20,22.902117,120.2727614,20.174,19,29,45,-306,0,-1000,-93.86071014,-39.50974274,-20.17440796,-0.255417168,2.539671898,-0.036954019,17,202
2020/6/14,11:28:22,22.9020281,120.2728219,20.21,89,-58,128,-187,-5,-918,-103.7579193,-33.3050766,-20.21070099,-0.222521231,2.555207253,-0.014943588,17,202
2020/6/14,11:28:25,22.9020008,120.2728406,20.286,-152,134,30,-175,22,-1027,-106.7957153,-31.38741684,-20.28684616,-0.198436081,2.51127553,-0.064506993,17,202
2020/6/14,11:28:27,22.9018504,120.2729359,19.794,-34,-59,-53,-253,0,-892,-120.6100388,-23.48154449,-19.95472908,-0.153743416,2.543140173,-0.037190218,17,202
2020/6/14,11:28:30,22.9018504,120.2729359,19.794,-213,25,-1089,-80,1,-988,-120.6100388,-23.48154449,-19.95472908,-0.085973404,1.757041454,-0.090362757,17,202
2020/6/14,11:28:32,22.901817,120.2730446,20.189,190,-79,12,61,-117,-848,-127.2489929,-10.46473217,-20.18995285,-0.205177754,0.814901829,0.043351803,17,202
2020/6/14,11:28:35,22.9018723,120.273116,20.153,71,2,39,-106,-177,-969,-121.0996323,-3.141034365,-20.15379715,-0.096648797,0.791031539,0.122530423,17,202
2020/6/14,11:28:37,22.9019073,120.2731588,19.936,-28,-34,-41,-47,-125,-1049,-117.2075272,1.258984566,-19.93687057,-0.118366532,0.759143412,0.080323435,17,202
2020/6/14,11:28:40,22.9019932,120.2732568,22.041,31,76,-37,-90,-165,-1024,-107.6429825,11.30443859,-22.04154968,0.028192785,0.707998872,0.158027545,17,202
2020/6/14,11:28:42,22.9020123,120.2732771,27.073,-61,-66,24,3,-171,-992,-105.5098038,13.38283253,-27.07305717,-0.040816769,0.792820454,0.180053189,17,202
2020/6/14,11:28:45,22.9020217,120.2732797,29.765,32,-138,-281,65,-96,-930,-104.4706192,13.65795231,-29.76506996,-0.031492375,0.817763805,0.085240416,17,202
2020/6/14,11:28:47,22.9020617,120.2732771,30.152,-127,-49,38,-77,-56,-970,-100.019249,13.38659096,-30.15219307,-0.10510876,0.745577633,0.006288745,17,202
2020/6/14,11:28:50,22.9021351,120.2732692,30.122,-43,-4,-20,-33,-51,-976,-91.840271,12.57742023,-30.12282944,-0.088563949,0.754618227,0.062822826,17,202
2020/6/14,11:28:52,22.9022509,120.2732528,30.064,112,76,17,-28,-142,-1017,-84.55638123,11.74720192,-30.07750893,-0.075627789,0.758530378,0.055458598,17,202
2020/6/14,11:28:55,22.9023129,120.2732453,30.114,-43,-29,-14,-12,-22,-979,-73.26714325,10.27348995,-30.09908295,0.001426008,0.810784698,0.056505799,17,202
2020/6/14,11:28:57,22.9024362,120.2732248,30.067,30,40,-46,33,-120,-974,-59.43138123,8.199038506,-30.07110023,-0.033608608,0.775554836,0.072516516,17,202
2020/6/14,11:29:00,22.9025565,120.2732102,29.939,-13,13,-63,36,-85,-968,-44.93399429,6.531885147,-29.939785,0.001123739,0.796909451,0.060819674,17,202
2020/6/14,11:29:02,22.9026615,120.2731956,29.826,-87,-88,1,-28,-57,-964,-33.24689484,5.027505398,-29.82650757,-0.033737935,0.776575983,0.042407814,17,202
2020/6/14,11:29:05,22.9027061,120.2731899,29.909,60,-31,-29,11,-76,-1009,-21.2647934,3.280337811,-29.95207405,0.013056276,0.777454138,0.034992076,17,202
2020/6/14,11:29:07,22.9028768,120.2731631,30.016,-137,117,-184,-108,-111,-1059,-9.276881218,1.697607279,-30.01612663,-0.00971991,0.780225933,0.118356824,17,202
2020/6/14,11:29:10,22.9029104,120.2731604,30.008,122,111,24,-73,-61,-1062,-2.795131207,0.900608897,-30.017519,0.008539153,0.811354518,0.047823228,17,202
2020/6/14,11:48:11,22.9029865,120.2731112,20.029,-118,-111,-1300,51,87,-991,2.396301746,-4.410806656,-20.02986526,-0.004139796,0.483903766,-0.023308918,18,205
2020/6/14,11:48:14,22.9030385,120.2730677,19.981,-6,27,3,-27,80,-997,8.185752869,-8.879482269,-19.98194885,-0.052533966,-0.812378764,-0.060831558,18,205
2020/6/14,11:48:16,22.9031042,120.2729943,20.135,-70,79,-441,-85,68,-1025,15.50509262,-16.4049778,-20.13568115,-0.077363111,-1.186257601,-0.236326829,18,205
2020/6/14,11:48:19,22.9031206,120.2728916,20.048,192,-576,-16,-171,50,-817,17.32142639,-26.93274498,-20.04824257,-0.187532276,-1.645807028,-0.162637413,18,205
2020/6/14,11:48:21,22.9031121,120.2727856,20.088,10,96,-356,-259,70,-1023,16.35320663,-37.8811264,-20.08462715,-0.178845584,-1.857899308,-0.232041135,18,205
2020/6/14,11:48:24,22.9030576,120.2727134,20.177,127,42,35,-348,41,-1004,10.31561852,-45.2053299,-20.17708397,-0.291570932,-2.469460011,-0.056567367,18,205
2020/6/14,11:48:26,22.9029692,120.272649,20.567,124,-38,35,-171,9,-1042,0.471187592,-51.81291962,-20.56757545,-0.206946447,-2.521321297,-0.000671306,18,205
2020/6/14,11:48:29,22.9028688,120.2726154,20.273,-12,71,0,-133,-8,-958,-10.7130661,-55.25737,-20.27334595,-0.216461033,-3.059211254,-0.041382756,18,205
2020/6/14,11:48:31,22.9027822,120.2726201,20.183,88,-314,40,-230,-24,-939,-20.35972214,-54.77534485,-20.183815,-0.178447589,3.139922142,0.011458789,18,205
2020/6/14,11:48:34,22.9026814,120.2726324,19.734,15,63,-38,-309,-24,-969,-31.57907486,-53.51623535,-19.73421478,-0.344748408,3.11739707,0.063351192,18,205
2020/6/14,11:48:36,22.9025702,120.2726445,19.779,-45,-34,90,-325,-44,-941,-43.95241928,-52.27383423,-19.77952957,-0.311360627,3.076945305,0.072002918,18,205
2020/6/14,11:48:39,22.9024592,120.2726584,19.839,94,343,-5,-228,-63,-1180,-56.30843353,-50.8476944,-19.83932304,-0.349583,3.041597843,0.126235068,18,205
2020/6/14,11:48:41,22.902339,120.2726687,20.681,181,-162,72,-269,-78,-1002,-69.69554138,-49.78656769,-20.6818943,-0.251189023,3.056634665,0.011672124,18,205
2020/6/14,11:48:44,22.9022346,120.2726873,20.286,-62,38,1,-316,-1,-949,-81.3168869,-47.87827301,-20.2863102,-0.320488662,3.103712797,0.095155872,18,205
2020/6/14,11:48:46,22.9021338,120.2726983,20.061,86,-91,-42,-354,-84,-906,-92.52931213,-46.75125885,-20.06172371,-0.296907574,3.043779373,0.06549529,18,205
2020/6/14,11:48:49,22.9020168,120.2727116,19.979,-225,135,-196,-316,-22,-998,-105.5549469,-45.390625,-19.97963142,-0.302061498,2.936923027,-0.079473242,18,205
2020/6/14,11:48:51,22.9019101,120.2727602,19.92,-14,-64,-98,-264,-160,-1034,-117.4411545,-40.41008759,-19.9204483,-0.251836538,2.57320261,0.125000894,18,205
2020/6/14,11:48:54,22.9018315,120.2728287,20.038,-38,-117,-207,-155,-183,-858,-126.18647,-33.3786087,-20.0389328,-0.188137457,2.163584709,0.067687809,18,205
2020/6/14,11:48:56,22.9017891,120.2729368,20.283,-53,-20,-123,-50,-72,-916,-130.907959,-22.29788399,-20.28360748,-0.056934495,1.728135586,0.071566798,18,205
2020/6/14,11:48:59,22.9017769,120.2730445,20.404,109,221,-281,-16,-73,-1051,-132.2684631,-11.25492477,-20.40425301,-0.078290947,1.187895775,-0.091760479,18,205
2020/6/14,11:49:01,22.9018264,120.2731248,20.058,-57,-42,-44,-4,14,-1036,-126.7574005,-3.02363205,-20.05868721,-0.081663504,0.801150143,-0.021065339,18,205
2020/6/14,11:49:04,22.9019116,120.2732097,19.964,-250,-46,-88,67,31,-1040,-117.2682495,5.682097435,-19.96482658,0.075939938,0.670419395,-0.033822406,18,205
2020/6/14,11:49:06,22.9019679,120.2732541,22.328,-95,169,39,93,-11,-979,-111.0062561,10.23887253,-22.32834625,0.095794521,0.654911339,0.079370648,18,205
2020/6/14,11:49:09,22.9019786,120.2732687,27.362,93,-80,111,127,-90,-913,-109.8117981,11.73635387,-27.36225128,0.083849959,0.725460231,0.038444724,18,205
2020/6/14,11:49:11,22.901985,120.2732734,30.058,125,43,-11,85,-122,-949,-109.093956,12.22153854,-30.05896378,0.007194614,0.697294712,-0.058865216,18,205
2020/6/14,11:49:14,22.9020395,120.2732683,30.08,-107,112,20,95,56,-933,-103.036293,11.69310284,-30.0800724,-0.008249274,0.692445219,-0.038269874,18,205
2020/6/14,11:49:16,22.9021287,120.2732621,30.065,3,-92,64,87,35,-1039,-93.10570526,11.06039047,-30.06585121,0.074637294,0.669793844,-0.104101352,18,205
2020/6/14,11:49:19,22.9022259,120.2732449,30.155,45,-85,24,98,-12,-996,-82.28128052,9.295651436,-30.15593338,0.082529306,0.680953979,-0.003833749,18,205
2020/6/14,11:49:21,22.9023322,120.2732305,29.825,-6,-127,77,64,81,-996,-70.44364929,7.817286491,-29.82584953,0.049954891,0.618801951,-0.088170364,18,205
2020/6/14,11:49:24,22.9024328,120.2732216,30.074,-58,59,130,118,4,-988,-59.25106049,6.904946327,-30.07490158,0.080756254,0.700258374,-0.109607741,18,205
2020/6/14,11:49:26,22.9025528,120.2732063,30.094,21,13,10,159,66,-991,-45.89652252,5.337265968,-30.09493446,0.116759464,0.704383492,-0.04060103,18,205
2020/6/14,11:49:29,22.9026574,120.2731928,30.09,7,25,-51,120,25,-944,-34.15020752,3.938961029,-30.089077,0.102533638,0.698596478,-0.042509392,18,205
2020/6/14,11:49:31,22.9027708,120.2731811,30.312,19,145,-74,168,25,-965,-21.62564278,2.748178482,-30.31277084,0.11971502,0.736740708,-0.058461752,18,205
2020/6/14,11:49:34,22.9028732,120.2731666,30.129,31,30,2,143,45,-1012,-10.22130013,1.264267921,-30.12991524,0.131457746,0.715807974,0.016629271,18,205
2020/6/14,11:49:36,22.9029484,120.2731551,29.993,40,-19,-48,174,-13,-935,-1.847545624,0.082511902,-29.99337006,0.169381618,0.705093265,0.097617067,18,205
2020/6/14,11:54:34,22.9025518,120.2732075,20.203,-91,212,-42,54,92,-959,2.143608093,-1.115177155,-20.15068817,0.012400536,-0.313309044,-0.024105407,23,213
2020/6/14,11:54:36,22.9025942,120.2731895,20.317,-98,50,-11,79,79,-964,7.47580719,-3.250188828,-20.31728172,0.046480417,-0.357994795,-0.044364363,23,213
2020/6/14,11:54:39,22.9026377,120.2731714,20.019,-25,28,-16,136,170,-970,12.31959152,-5.102799416,-20.01962471,0.073007278,-0.366737723,-0.10513816,23,213
2020/6/14,11:54:41,22.9026779,120.2731529,20.121,-18,52,-446,67,83,-987,16.79572678,-6.997085571,-20.1217823,0.015461318,-0.638994634,-0.183155283,23,213
2020/6/14,11:54:44,22.9027163,120.2731099,20.184,-78,23,34,70,155,-967,21.07029724,-11.4066925,-20.1844368,0.011419395,-0.828525782,-0.145990714,23,213
2020/6/14,11:54:46,22.9027497,120.273067,20.02,-13,55,39,14,189,-1012,24.78026962,-15.80739403,-20.02083588,0.017334294,-0.857944906,-0.157222599,23,213
2020/6/14,11:54:49,22.9027803,120.2730202,19.983,163,53,-528,-13,142,-1025,28.18886757,-20.6061306,-19.98317719,-0.036732703,-1.280088663,-0.23321332,23,213
2020/6/14,11:54:51,22.9027847,120.2729716,20.121,193,-56,27,-123,119,-984,28.6815567,-25.59471321,-20.12199402,-0.099363662,-1.433532953,-0.127054065,23,213
2020/6/14,11:54:54,22.9027855,120.2729155,20.303,-323,-78,-363,-86,62,-989,28.7678299,-31.34052467,-20.30300903,-0.102059484,-1.499264956,-0.17783469,23,213
2020/6/14,11:54:56,22.9027727,120.272865,19.82,113,-145,-226,-267,123,-988,27.34946251,-36.52313232,-19.82065392,-0.207140669,-2.246644735,-0.162559718,23,213
2020/6/14,11:54:59,22.9027493,120.2728263,20.179,8,30,-117,-173,169,-940,24.73908615,-40.49200439,-20.17967606,-0.191055477,-2.230055332,-0.12491753,23,213
2020/6/14,11:55:01,22.9027207,120.2727819,20.336,94,0,-419,-177,104,-973,21.56095123,-45.03829956,-20.33656502,-0.189393237,-2.325886726,-0.148096129,23,213
2020/6/14,11:55:04,22.9026854,120.272751,20.642,4,11,-57,-179,54,-982,17.629673,-48.21331787,-20.64273453,-0.196672067,-2.626345873,-0.055182677,23,213
2020/6/14,11:55:06,22.9026476,120.2727227,20.328,79,214,103,-70,-82,-997,13.42015076,-51.10764313,-20.32898712,-0.10334719,-2.693504095,-0.045477685,23,213
2020/6/14,11:55:09,22.9026121,120.2726969,20.129,-101,-6,-30,-128,85,-963,9.46937561,-53.75656128,-20.12911987,-0.112773031,-2.676272392,-0.052564614,23,213
2020/6/14,11:55:11,22.9025757,120.2726823,20.365,20,-79,-21,-191,-16,-959,5.417373657,-55.25737,-20.36589813,-0.168354958,-2.93766284,0.004770019,23,213
2020/6/14,11:55:14,22.9025364,120.2726772,20.298,51,226,-17,-109,-21,-994,1.036937714,-55.77350616,-20.29845428,-0.184672281,-3.004174232,0.023282658,23,213
2020/6/14,11:55:16,22.9024971,120.2726701,20.071,139,-3,83,-145,5,-1010,-3.783157349,-56.49772644,-20.0263443,-0.159433514,3.084476709,0.025089372,23,213
2020/6/14,11:55:19,22.9024552,120.2726683,19.887,-106,2,-11,-159,28,-1045,-7.999305725,-56.69017029,-19.88797379,-0.122187346,-3.137063742,0.018935161,23,213
2020/6/14,11:55:21,22.9024162,120.2726666,20.092,-360,-511,-663,-50,-34,-1052,-12.34371948,-56.86749268,-20.09288788,-0.091414139,2.946987152,-0.055444825,23,213
2020/6/14,11:55:24,22.9023837,120.2726871,19.584,191,104,52,-109,-153,-945,-15.96221924,-54.75924683,-19.58458138,-0.115280323,2.629889011,0.106374107,23,213
2020/6/14,11:55:26,22.9023532,120.2727104,19.949,-82,47,-16,-133,-109,-985,-19.38143539,-52.35326385,-19.95181656,-0.14648819,2.587375402,0.126062065,23,213
2020/6/14,12:09:55,22.9023105,120.2732438,20.146,-239,-83,40,-265,-9,-935,-27.70275497,1.660114288,-20.14689827,-0.255455792,3.06518054,0.012086913,23,213
2020/6/14,12:09:57,22.9022166,120.2732508,19.892,-52,65,60,-76,45,-834,-38.15402603,2.372412682,-19.89245033,-0.184721634,3.11880374,-0.010613983,23,213
2020/6/14,12:10:00,22.9021051,120.2732608,20.221,-11,-49,-33,-189,104,-945,-50.56936264,3.396907806,-20.22191811,-0.156285137,-3.101710558,0.072956063,23,213
2020/6/14,12:10:02,22.9020383,120.2732307,19.823,19,157,392,-259,180,-1112,-58.00095749,0.312940598,-19.82361794,-0.20554398,-2.364109516,0.073719621,23,213
2020/6/14,12:10:05,22.9020252,120.2731745,19.801,46,37,116,-195,190,-1001,-59.46554184,-5.446789742,-19.80104446,-0.279312491,-1.835599065,-0.175683975,23,213
2020/6/14,12:10:07,22.9020031,120.2730518,20.295,-102,97,0,-182,76,-934,-61.9233284,-18.02998352,-20.29504967,-0.201150626,-1.747293591,-0.133453786,23,213
2020/6/14,12:10:10,22.9019841,120.2729203,20.489,-99,146,-14,-123,200,-967,-64.03845215,-31.51406097,-20.48912621,-0.144011691,-1.688157439,-0.211205229,23,213
2020/6/14,12:10:12,22.9019744,120.2728392,20.438,76,239,98,-295,186,-1044,-65.12059021,-39.83304596,-20.43807602,-0.248989746,-1.654017448,-0.202849403,23,213
2020/6/14,12:10:15,22.9019618,120.2727327,20.62,51,192,279,-130,173,-918,-66.51791382,-50.75881958,-20.62066269,-0.061714374,-1.478637338,-0.159156546,23,213
2020/6/14,12:10:17,22.9019642,120.2727196,21.084,32,-214,-10,-40,176,-920,-66.24612427,-52.09938812,-21.08451653,-0.057273567,-1.365884304,-0.0506327,23,213
2020/6/14,12:10:20,22.902013,120.2727621,20.473,141,451,-269,157,-12,-1019,-60.82418442,-47.74362564,-20.47339439,0.060295224,0.780009091,0.055583514,23,213
2020/6/14,12:10:22,22.9020749,120.2728276,19.844,298,28,-42,45,-54,-1073,-53.92442703,-41.01725388,-19.8443985,0.026701216,0.810674608,-0.012203704,23,213
2020/6/14,12:10:25,22.9021419,120.2728928,19.789,79,-68,-136,55,-11,-1034,-46.47022629,-34.34038162,-19.78959274,0.025788184,0.778357804,0.060696147,23,213
2020/6/14,12:10:27,22.9022174,120.2729726,19.923,-28,50,46,79,-17,-961,-38.0708046,-26.14889908,-19.92308235,0.156557277,0.689620614,-0.026888002,23,213
2020/6/14,12:10:30,22.902269,120.2730065,19.949,-41,-215,-229,125,118,-1005,-32.32425308,-22.68106842,-19.94962692,0.055791713,-0.276096314,-0.270357281,23,213
2020/6/14,12:10:32,22.9023032,120.2729685,20.18,-87,123,53,21,205,-965,-28.5103035,-26.57606506,-20.1809597,-0.147687659,-1.023335457,-0.172689751,23,213
2020/6/14,12:10:35,22.9023542,120.2728885,20.227,89,-65,109,-50,174,-964,-22.83971024,-34.77445984,-20.22767448,-0.103638031,-1.033673882,-0.226668671,23,213
2020/6/14,12:10:37,22.9023997,120.2728102,19.994,11,-2,7,-155,238,-986,-17.77626419,-42.80278778,-19.99465561,-0.183727279,-0.987541556,-0.232495353,23,213
2020/6/14,12:10:40,22.9024628,120.2727123,19.995,219,37,344,-58,256,-967,-10.75195313,-52.84748459,-19.99515152,-0.063789114,-0.831595063,-0.149755508,23,213
2020/6/14,12:10:42,22.9025367,120.2726596,20.331,-69,249,72,-2,36,-962,-2.522525787,-58.24708557,-20.33198547,-0.012993374,-0.291841924,-0.01516329,23,213
2020/6/14,12:10:45,22.9026383,120.2726375,20.079,23,-4,-107,41,141,-1060,8.791204453,-60.51383209,-20.07901955,-0.03700868,-0.0825646,-0.062857583,23,213
2020/6/14,12:10:47,22.9027556,120.2726276,19.935,200,-77,60,31,39,-969,21.84646988,-61.53147888,-19.93573761,0.042501435,-0.211749047,-0.134097904,23,213
2020/6/14,12:10:50,22.90286,120.2726094,19.722,255,152,102,77,38,-1029,33.46501923,-63.39980316,-19.72248077,0.046882018,-0.071114533,-0.082414724,23,213
2020/6/14,12:10:52,22.9029552,120.2726001,19.919,63,56,613,-25,10,-994,44.07774734,-64.34883881,-19.91905594,0.142207146,0.330107689,0.149095416,23,213
2020/6/14,12:10:55,22.9029801,120.272638,19.971,-55,-269,81,-44,-42,-922,46.84484863,-60.4650116,-19.97124672,-0.083343901,1.444245338,0.153943837,23,213
2020/6/14,12:10:57,22.9029871,120.2727317,20.124,-11,172,47,46,-178,-1026,47.62836456,-50.85596085,-20.12497139,-0.061580639,1.429448843,0.130892262,23,213
2020/6/14,12:11:00,22.9029985,120.2728519,19.906,97,3,23,-68,-178,-978,48.89430237,-38.53059387,-19.90628433,-0.02568676,1.484529972,0.158715174,23,213
2020/6/14,12:11:02,22.9030073,120.2729654,20.003,53,-67,0,-33,-194,-986,49.88196564,-26.88942337,-20.0036087,-0.059574969,1.48055625,0.156784251,23,213
2020/6/14,12:11:05,22.9030145,120.273076,20.058,-66,128,-105,16,-132,-1085,50.68276596,-15.54977512,-20.05864906,0.086393081,1.500196576,0.128257006,23,213
2020/6/14,12:11:07,22.9030207,120.2731442,23.262,-218,189,63,-65,-71,-1098,51.37235641,-8.557120323,-23.26205635,0.079534158,1.499514341,0.116107091,23,213
2020/6/14,12:11:10,22.9030236,120.273152,28.271,107,52,49,51,-211,-871,51.69158173,-7.758311272,-28.27170753,-0.039361063,1.514859676,0.17117548,23,213
2020/6/14,12:11:12,22.9030055,120.2731577,30.02,104,48,39,99,-286,-871,50.10708618,-7.232153893,-29.95702553,0.049564898,1.543905258,0.296658903,23,213
2020/6/14,12:11:15,22.9029508,120.2731652,30.117,0,-39,-4,53,-286,-1022,43.58318329,-6.40790081,-30.11791801,0.051367261,1.575507879,0.307619691,23,213
2020/6/14,12:11:17,22.9028608,120.2731789,30.007,-51,-59,4,60,-297,-1079,33.55584335,-5.002263069,-30.00794983,0.041994005,1.531966209,0.334347963,23,213
2020/6/14,12:11:20,22.9027619,120.2731977,30.088,54,-11,16,139,-325,-937,22.55180359,-3.067148209,-30.08822441,0.07555756,1.527271152,0.333346814,23,213
2020/6/14,12:11:22,22.9026639,120.2732113,30.162,-49,-44,-39,43,-305,-990,11.63994408,-1.674215317,-30.1626873,0.022380564,1.482212067,0.279827207,23,213
2020/6/14,12:11:25,22.9025737,120.2732252,30.272,-179,141,-136,45,-171,-1079,1.59992218,-0.251473427,-30.27249908,0.01103876,1.471796155,-0.013281547,23,213
2020/6/14,12:13:51,22.9025965,120.27321,20.337,-34,-96,227,-48,172,-1001,4.487037659,-1.969016075,-20.33735085,-0.03448014,-0.85400182,-0.210123152,23,213
2020/6/14,12:13:53,22.9026355,120.2731782,20.341,85,-111,80,67,226,-945,8.832513809,-5.237810135,-20.34127998,0.010990111,-0.570766449,-0.191281691,23,213
2020/6/14,12:13:56,22.9026633,120.273158,20.039,-279,-59,132,-43,234,-944,11.93003464,-7.308641434,-20.03962135,-0.016179375,-0.434168428,-0.078432404,23,213
2020/6/14,12:13:58,22.9027043,120.273135,19.907,134,88,-5,59,95,-981,16.48718452,-9.662931442,-19.90761948,0.054758303,-0.437620223,-0.125627056,23,213
2020/6/14,12:14:01,22.902744,120.2731099,20.025,-188,202,49,138,50,-925,20.91526604,-12.23971367,-20.02574921,0.025906969,-0.403068513,-0.025092352,23,213
2020/6/14,12:14:03,22.9027765,120.2730942,20.298,-27,-15,-145,48,58,-1016,24.53389931,-13.84697533,-20.29888153,0.026521981,-0.566940486,-0.063116975,23,213
2020/6/14,12:14:06,22.9028162,120.273068,20.11,140,87,254,41,31,-998,28.95383453,-16.53010368,-20.11062622,0.039238632,-0.461362094,-0.069027193,23,213
2020/6/14,12:14:08,22.9028524,120.2730452,19.889,87,389,-99,32,162,-1016,32.97648621,-18.87643242,-19.88939476,0.04255446,-0.466323078,-0.020965815,23,213
2020/6/14,12:14:11,22.9028853,120.2730278,20.189,184,-159,-231,8,49,-1049,36.64417267,-20.6536541,-20.18949318,-0.073499896,-0.566700995,-0.034454688,23,213
2020/6/14,12:14:13,22.9029216,120.2730059,20.16,98,90,-22,80,233,-994,40.69521713,-22.89908981,-20.16056633,-0.073241085,-0.555741668,-0.059159551,23,213
2020/6/14,12:14:16,22.9029682,120.272977,19.841,-23,40,-71,69,151,-994,45.88130188,-25.86794281,-19.84167862,0.071095116,-0.589875698,-0.120547377,23,213
2020/6/14,12:14:18,22.902991,120.2729584,20.021,-233,188,29,95,76,-976,48.41898346,-27.77171326,-20.02161789,0.180675,0.099393368,0.094823979,23,213
2020/6/14,12:14:21,22.9029682,120.2729591,20.159,159,-45,1059,-96,-161,-1005,45.88132477,-27.70538712,-20.15914917,-0.226913929,2.618964195,0.143150106,23,213
2020/6/14,12:14:23,22.9029195,120.2729678,20.234,25,151,8,-155,41,-1053,40.45518875,-26.81289673,-20.23448563,-0.18302995,-2.981402874,0.028568521,23,213
2020/6/14,12:14:26,22.9028676,120.2729715,20.462,6,23,82,-110,4,-924,34.67481613,-26.42618179,-20.46264267,-0.160897493,-2.936368942,0.034444477,23,213
2020/6/14,12:14:28,22.90282,120.2729727,20.267,178,92,728,-233,41,-994,29.36733627,-26.30567551,-20.26722145,-0.155422792,-2.805343628,0.108592786,23,213
2020/6/14,12:14:31,22.9028027,120.2729439,19.654,-232,49,-139,-142,102,-972,27.44308853,-29.26190186,-19.65414047,-0.147155151,-1.7992208,-0.146555886,23,213
2020/6/14,12:14:33,22.9027928,120.2729001,19.998,55,25,44,-116,164,-964,26.34750748,-33.75178909,-19.99835587,-0.134533048,-1.705638051,-0.142565653,23,213
2020/6/14,12:14:36,22.9027835,120.2728515,20.285,-139,-13,-25,-123,220,-953,25.30774689,-38.73833847,-20.28544235,-0.129471928,-1.66893363,-0.142149568,23,213
2020/6/14,12:14:38,22.9027765,120.2728034,20.353,-125,-35,-25,-68,148,-912,24.52457047,-43.66499329,-20.35335922,-0.11892911,-1.704427719,-0.168925107,23,213
2020/6/14,12:14:41,22.9027672,120.2727567,20.458,9,150,77,-57,46,-984,23.48985672,-48.46058655,-20.4588604,-0.044158064,-1.644698858,-0.105702646,23,213
2020/6/14,12:14:43,22.9027432,120.2727368,20.674,12,199,-128,-131,-39,-997,20.82114983,-50.49415207,-20.6741333,-0.27694422,-3.120774508,-0.000570739,23,213
2020/6/14,12:14:46,22.9026948,120.2727392,20.456,199,294,186,-105,-116,-1022,15.43703842,-50.25440216,-20.45640182,-0.168390408,3.010109425,0.065854266,23,213
2020/6/14,12:14:48,22.9026481,120.2727444,19.978,-26,72,51,-169,-11,-1059,10.23965073,-49.71658707,-19.97830391,-0.12120612,3.055678606,0.038698371,23,213
2020/6/14,12:14:51,22.9026053,120.2727497,19.696,61,-156,-3,-182,-131,-986,5.469585419,-49.17526627,-19.69681549,-0.189914957,3.076617479,0.04660105,23,213
2020/6/14,12:14:53,22.9025728,120.2727454,20.167,-145,148,909,-58,80,-1002,1.851528168,-49.61782837,-20.16751099,-0.180743307,-1.868584037,-0.030302588,23,213
2020/6/14,12:14:56,22.9025667,120.2727023,19.926,56,30,57,-41,129,-970,1.178291321,-54.03807831,-19.92601204,-0.113351956,-1.776837945,-0.134589359,23,213
2020/6/14,12:14:58,22.9025574,120.2726489,20.178,230,-62,-77,-94,63,-985,0.134304047,-59.50598907,-20.17863464,-0.074746922,-1.609916806,-0.133250222,23,213
2020/6/14,12:15:01,22.9025525,120.2726066,20.297,-163,156,-614,-59,101,-974,-0.409103394,-63.84741211,-20.2976265,0.040450227,-1.862759709,-0.208855346,23,213
2020/6/14,12:15:03,22.9025194,120.2726006,20.439,106,-243,-180,-87,49,-907,-4.136871338,-64.45615387,-20.44199944,-0.133779213,2.957585096,-0.011597187,23,213
2020/6/14,12:15:06,22.9024761,120.2726085,20.35,145,-27,75,-102,-8,-974,-8.915794373,-63.65680695,-20.35021782,-0.186513945,2.944346666,0.057475675,23,213
2020/6/14,12:15:08,22.9024342,120.2726173,19.973,11,-71,-70,-148,-75,-945,-13.57825089,-62.74669647,-19.97308731,-0.203476384,3.007781744,0.016326107,23,213
2020/6/14,12:15:11,22.9023878,120.272625,19.927,-30,-5,3,-192,0,-973,-18.74385834,-61.95832825,-19.92716599,-0.185089111,2.994277477,0.037424169,23,213
2020/6/14,12:15:13,22.9023413,120.2726334,19.644,30,18,215,-144,-21,-996,-23.91425323,-61.09560394,-19.64496803,-0.124167629,2.895652056,0.076562598,23,213
2020/6/14,12:15:16,22.9022912,120.272642,19.844,-24,-40,18,-159,-19,-962,-29.48838806,-60.2167511,-19.84492683,-0.195157334,2.995489597,0.051403418,23,213
2020/6/14,12:15:18,22.902244,120.2726501,20.086,66,-38,38,-142,-38,-917,-34.74552917,-59.38744354,-20.08602142,-0.18454203,2.985630512,0.062825426,23,213
2020/6/14,12:15:21,22.9021897,120.2726605,20.01,157,-30,54,-157,-91,-988,-40.22525787,-58.44814301,-20.04536057,-0.163493559,3.009357214,0.087012038,23,213
2020/6/14,12:15:23,22.9021434,120.2726672,19.923,78,180,81,-204,-30,-1079,-45.9855423,-57.63304901,-19.92711449,-0.161745787,2.936841488,0.096034817,23,213
2020/6/14,12:15:26,22.9020906,120.2726749,19.988,-52,-83,181,-159,-15,-1017,-51.82514191,-56.84700775,-19.98813248,-0.086474523,2.904450893,0.066632815,23,213
2020/6/14,12:15:28,22.9020456,120.2726864,20.18,-38,97,-511,-85,-54,-1044,-56.83669281,-55.66915131,-20.18019867,-0.121211976,2.245421171,-0.038198091,23,213
2020/6/14,12:15:31,22.9020132,120.2727282,19.714,21,101,197,-58,-107,-1014,-60.44476318,-51.37613297,-19.71433258,-0.095842332,2.066167355,0.109204449,23,213
2020/6/14,12:15:33,22.9019813,120.2727713,19.812,20,178,65,-29,-16,-993,-63.99341583,-46.95705795,-19.81278992,-0.048861068,1.961134553,0.060948685,23,213
2020/6/14,12:15:36,22.9019586,120.2728094,19.966,-257,153,-113,-75,-39,-990,-66.51515961,-43.05038834,-19.96650505,-0.159765124,2.200691462,0.06226049,23,213
2020/6/14,12:15:38,22.9019259,120.272855,20.087,-26,122,-72,-60,-42,-1017,-70.15906525,-38.37738419,-20.08704758,-0.073478423,2.088374615,0.07037098,23,213
2020/6/14,12:15:41,22.9018948,120.2728977,20.021,147,-147,106,-90,-44,-975,-73.61791229,-33.99731827,-20.02161217,-0.080847964,1.986732244,0.035923935,23,213
2020/6/14,12:15:43,22.9018657,120.2729488,19.86,-144,61,-7,-6,-44,-1005,-76.8588028,-28.75394058,-19.86038589,-0.033231869,2.179294825,0.126516938,23,213
2020/6/14,12:15:46,22.9018365,120.2729888,19.995,15,45,2,-99,-72,-986,-80.11090088,-24.65225983,-19.99573708,-0.076342881,2.112562656,0.087099425,23,213
2020/6/14,12:15:48,22.901839,120.2730295,20.129,84,43,-106,67,-104,-1063,-79.83400726,-20.48000145,-20.12995148,0.031395618,0.519029796,-0.018043105,23,213
2020/6/14,12:15:51,22.901875,120.2730629,19.883,166,-74,27,73,-64,-1040,-75.82875061,-17.05298805,-19.88376617,0.058820635,0.615981519,0.016011018,23,213
2020/6/14,12:15:53,22.9018991,120.2730865,19.787,-53,118,-82,50,-16,-931,-73.14380646,-14.63575554,-19.78723907,0.00247637,0.722058415,0.040010646,23,213
2020/6/14,12:15:56,22.9019263,120.273122,19.862,125,-49,-40,29,6,-1031,-70.11937714,-10.99438477,-19.86258698,0.031085227,0.499725401,-0.077359378,23,213
2020/6/14,12:15:58,22.9019584,120.273153,20.002,99,-5,-44,33,-6,-1003,-66.54239655,-7.819181442,-20.00296974,-0.00012913,0.556763053,-0.006073914,23,213
2020/6/14,12:16:01,22.901989,120.2731862,20.02,-128,34,58,20,-46,-958,-63.13625336,-4.413812637,-20.02062988,0.004738986,0.623989284,-0.046736598,23,213
2020/6/14,12:16:03,22.9020267,120.273225,20.223,-84,-243,47,7,77,-991,-58.93713379,-0.430756569,-20.22331619,0.025950111,0.622665524,-0.058730822,23,213
2020/6/14,12:16:06,22.9020598,120.2732587,20.262,-82,4,-2,85,44,-1101,-55.25531769,3.022413731,-20.26215935,0.194938466,0.741810262,-0.079373144,23,213
2020/6/14,12:16:08,22.9020683,120.2732615,23.428,74,-41,-46,61,-114,-1027,-54.30847168,3.310804367,-23.42826462,0.070106201,0.66211015,0.067412332,23,213
2020/6/14,12:16:11,22.9020666,120.2732649,27.915,-52,159,122,128,-80,-844,-54.4995575,3.660159588,-27.91514397,0.061470143,0.726558387,0.058936402,23,213
2020/6/14,12:16:13,22.9020759,120.2732722,29.674,-163,-68,-26,157,36,-1000,-53.46199036,4.401852131,-29.67431641,0.108704425,0.702576339,-0.089253925,23,213
2020/6/14,12:16:16,22.9021264,120.2732685,30.177,69,92,-33,88,-28,-968,-47.83507538,4.02616024,-30.177248,0.058360256,0.751223087,-0.118050627,23,213
2020/6/14,12:16:18,22.9022149,120.2732609,29.813,-11,30,49,153,53,-988,-37.98413086,3.24653101,-29.81383514,0.082717076,0.679047942,-0.092806667,23,213
2020/6/14,12:16:21,22.9023158,120.2732488,29.948,-54,-10,12,141,58,-1021,-27.85075378,2.113791466,-29.9734745,0.058587492,0.64716661,-0.070031293,23,213
2020/6/14,12:16:23,22.9024113,120.273239,29.944,65,54,125,1,33,-993,-16.12438583,1.004644394,-29.9448185,0.02236167,0.708031595,-0.045504797,23,213
2020/6/14,12:16:26,22.902513,120.2732305,29.903,52,7,3,58,-39,-1003,-4.805007935,0.128397942,-29.90364838,0.128497347,0.697669327,0.056479681,23,213
2020/6/14,12:16:28,22.9025522,120.2732262,29.939,-97,108,111,87,-18,-973,-0.43637085,-0.314429283,-29.93944168,0.135235354,0.665721297,0.124883205,23,213
