date,time,lat,lon,alt,x_gyro,y_gyro,z_gyro,x_acc,y_acc,z_acc,north,east,down,pitch,yaw,roll,wind_speed,wind_direction
2020/6/15,17:33:08,22.9021756,120.2733492,0.039,0,0,0,-10,31,-999,0.009083331,0.076605797,-0.039420128,-0.025919277,-0.518206,-0.023496132,17,280
2020/6/15,17:33:11,22.9021759,120.2733413,0.898,-177,48,-635,-121,46,-1032,0.036134183,-0.730374932,-0.898714066,-0.110242292,-0.594403207,-0.084481381,17,280
2020/6/15,17:33:14,22.9021885,120.2732694,5.646,-117,-30,-12,-149,62,-969,1.442246199,-8.105372429,-5.646229267,-0.216600806,-1.500108361,0.004885712,17,280
2020/6/15,17:33:17,22.9022043,120.273152,11.579,34,-28,7,-163,-1,-974,3.199021101,-20.14932632,-11.57905769,-0.168793529,-1.484359026,-0.019032452,17,280
2020/6/15,17:33:20,22.9022157,120.2730426,17.239,-51,38,-2,-92,29,-971,4.474694252,-31.36315918,-17.2393322,-0.16435346,-1.436346054,-0.003565255,17,280
2020/6/15,17:33:23,22.9022083,120.2729298,20.263,46,7,-45,-22,-19,-922,3.650472879,-42.93158722,-20.26304817,-0.15300642,-1.900837541,-0.015223834,17,280
2020/6/15,17:33:26,22.9021663,120.272819,20.402,20,-159,-9,-110,-23,-985,-1.041857958,-54.29256058,-20.40240669,-0.177726701,-2.03908968,-0.002538808,17,280
2020/6/15,17:33:29,22.9021184,120.2727177,20.123,62,61,102,-153,-1,-951,-6.373285294,-64.67829895,-20.12316704,-0.006203094,-2.005095005,0.028346606,17,280
2020/6/15,17:33:32,22.9021207,120.2726964,19.771,18,63,1124,-29,74,-911,-6.114429474,-66.85868835,-19.77122116,-0.090575576,-1.59378016,0.129718333,17,280
2020/6/15,17:33:35,22.9022093,120.2726941,19.879,-128,-33,-2,-79,96,-955,2.691835642,-66.98419952,-19.84093666,-0.132266134,-0.064335398,-0.089315914,17,280
2020/6/15,17:33:38,22.9023062,120.272687,20.183,89,36,591,-105,139,-965,14.54180336,-67.82583618,-20.18372536,0.010716313,0.357378691,0.077388726,17,280
2020/6/15,17:33:41,22.9023242,120.2727386,20.139,-35,-62,13,-31,27,-985,16.54963875,-62.5403862,-20.13918495,-0.096322358,1.466042399,-0.019788723,17,280
2020/6/15,17:33:44,22.9023231,120.2728501,20.168,35,89,-74,-51,85,-974,16.42320061,-51.09806061,-20.1688118,-0.068985909,1.485377312,-0.076310314,17,280
2020/6/15,17:33:47,22.9023267,120.2729928,20.182,51,16,-23,-33,25,-1011,16.82154465,-36.46762848,-20.18265152,-0.046017878,1.522986054,-0.066241279,17,280
2020/6/15,17:33:50,22.9023321,120.2731274,20.295,60,10,107,-59,37,-990,17.42170525,-22.67217255,-20.29501724,-0.076008841,1.518344402,-0.009906367,17,280
2020/6/15,17:33:53,22.9023353,120.2732686,20.755,-36,23,-25,-12,36,-1111,17.78614235,-8.184282303,-20.75587463,0.050678432,1.562293887,0.026363514,17,280
2020/6/15,17:33:56,22.9023367,120.2733196,25.755,0,-65,-23,-8,-18,-1001,17.93359184,-2.963297367,-25.75598145,0.070053548,1.541821957,0.007948242,17,280
2020/6/15,17:33:59,22.9023264,120.273321,29.747,108,1,11,43,-143,-1012,16.79023743,-2.815804005,-29.74728775,0.027870402,1.530478239,0.085094482,17,280
2020/6/15,17:34:02,22.9022596,120.2733316,30.119,-101,8,-39,87,-42,-1001,9.285834312,-1.711819291,-30.12091255,0.040933616,1.595592976,0.09028586,17,280
2020/6/15,17:34:05,22.9021754,120.2733515,30.201,199,31,118,59,-86,-1087,-0.021962345,0.316303372,-30.20198441,0.132952362,1.50639987,-0.179978713,17,280
2020/6/15,17:44:07,22.9030086,120.2730245,5.874,15,-79,-36,-187,-29,-980,-1.068333626,-11.38360023,-5.874392986,-0.176068068,-1.763129592,-0.006426719,17,280
2020/6/15,17:44:10,22.9029888,120.2729073,11.282,20,0,42,-127,-32,-981,-3.27107954,-23.40086365,-11.28277016,-0.159116745,-1.668432951,0.037904534,17,280
2020/6/15,17:44:13,22.9029778,120.2727851,16.639,102,29,-4,-186,18,-1008,-4.492391586,-35.9379921,-16.63901901,-0.153457597,-1.658252597,-0.010430184,17,280
2020/6/15,17:44:16,22.9029663,120.2726863,20.12,-14,57,-2,-56,18,-953,-5.772420406,-46.06830978,-20.12093925,0.029496539,-1.622321725,-0.007188647,17,280
2020/6/15,17:44:19,22.9029448,120.2726667,19.818,-72,11,76,-57,80,-976,-8.159763336,-48.0759697,-19.81821251,-0.00232809,-1.674769998,-0.0827251,17,280
2020/6/15,17:44:22,22.9028747,120.2726916,20.013,-70,6,-46,-93,40,-961,-15.98080444,-45.52698135,-20.01361847,-0.096760258,2.88593626,0.042537577,17,280
2020/6/15,17:44:25,22.902775,120.2727217,20.198,-64,266,-87,-106,-32,-1030,-27.07723808,-42.43449783,-20.19864845,-0.061255652,2.898174047,0.039700534,17,280
2020/6/15,17:44:28,22.9027022,120.2727917,20.144,40,130,-332,-27,-51,-1008,-35.177742,-35.25608826,-20.14478874,-0.008280994,1.694738388,-0.048048235,17,280
2020/6/15,17:44:31,22.9026985,120.2729031,19.87,20,-24,100,-4,-8,-961,-35.58964157,-23.83444977,-19.87060738,-0.00163704,1.527027488,0.001317089,17,280
2020/6/15,17:44:34,22.9027085,120.2730277,20.097,46,115,165,13,48,-999,-34.48338699,-11.05601311,-20.09702873,-0.027769744,1.518951297,-0.004080533,17,280
2020/6/15,17:44:37,22.9027135,120.2731335,21.958,121,46,11,9,-11,-1096,-33.92928314,-0.213323593,-21.95889091,0.103305303,1.47186172,-0.038727615,17,280
2020/6/15,17:44:40,22.9027204,120.273162,28.305,-131,-1,38,96,67,-880,-33.15166855,2.711256027,-28.30550957,0.107763037,1.504929423,-0.045591857,17,280
2020/6/15,17:44:43,22.9027436,120.2731622,30.166,-67,-14,27,153,80,-942,-30.57842255,2.730470657,-30.16612625,0.128517777,1.517463565,-0.124162219,17,280
2020/6/15,17:44:46,22.9028257,120.2731544,30.227,-124,11,2,121,181,-927,-21.43068504,1.932115555,-30.22756195,0.108803272,1.497124553,-0.131147459,17,280
2020/6/15,17:44:49,22.9029449,120.2731411,29.984,-9,10,-39,148,128,-900,-8.149290085,0.564317703,-29.98421288,0.105302669,1.469922423,-0.026043676,17,280
2020/6/15,17:44:52,22.9030106,120.273131,30.215,-91,-72,65,20,53,-970,-0.843496323,-0.464996338,-30.21550179,0.028498795,1.443769693,0.059899878,17,280
2020/6/15,17:47:17,22.9030171,120.2731301,19.686,120,-39,-1186,41,23,-931,0.029201508,-0.552497864,-19.68604851,0.122828886,0.829152167,-0.106810056,17,280
2020/6/15,17:47:20,22.9030137,120.2730875,20.407,110,-228,105,-87,-40,-899,-0.354344368,-4.921138763,-20.4075985,-0.152442202,-1.696353078,0.00239517,17,280
2020/6/15,17:47:23,22.9030083,120.2730257,20.31,150,-15,33,-131,-79,-988,-0.953534126,-11.25214767,-20.31082535,-0.135540336,-1.824589968,0.044792753,17,280
2020/6/15,17:47:26,22.9030011,120.2729696,19.998,3,0,37,-121,4,-1006,-1.751745224,-17.00772095,-19.99847221,-0.15438433,-1.816364646,0.003804389,17,280
2020/6/15,17:47:29,22.9029911,120.2729073,19.89,-35,-23,-102,-149,2,-1007,-2.867647171,-23.39189529,-19.89048004,-0.134880662,-1.673389196,0.021797832,17,280
2020/6/15,17:47:32,22.902985,120.2728503,19.977,-10,-6,84,-143,-14,-1043,-3.545274258,-29.24236298,-19.97755241,-0.104751326,-1.771791935,-0.00520793,17,280
2020/6/15,17:47:35,22.9029767,120.2727862,20.066,-39,-154,-130,-55,-59,-974,-4.474358082,-35.81178284,-20.06612396,-0.091482043,-1.720896244,-0.011777149,17,280
2020/6/15,17:47:38,22.9029698,120.2727293,20.022,56,65,107,-43,30,-975,-5.23629427,-41.65177917,-20.02294159,-0.07336086,-1.710510731,0.013303826,17,280
2020/6/15,17:47:41,22.9029602,120.2726691,20.049,141,10,22,-158,-80,-1036,-6.305241108,-47.81808853,-20.04937553,-0.003585219,-1.587616086,0.039200179,17,280
2020/6/15,17:47:44,22.9029378,120.2726726,19.729,109,205,346,47,-129,-1048,-8.795426369,-47.45876694,-19.72951126,-0.075150415,2.499500513,0.060674571,17,280
2020/6/15,17:47:47,22.9028946,120.272703,19.917,80,39,0,125,-62,-974,-13.615592,-44.34870911,-19.91724014,0.003418565,2.669548512,0.072304375,17,280
2020/6/15,17:47:50,22.9028486,120.2727318,20.081,25,26,27,16,-90,-1021,-18.73952103,-41.38764191,-20.08151054,0.000148378,2.642940998,0.050507374,17,280
2020/6/15,17:47:53,22.9028036,120.2727615,20.128,-10,66,-40,-21,-125,-1062,-23.74643326,-38.34112167,-20.12833214,0.01695453,2.62187624,0.068155415,17,280
2020/6/15,17:47:56,22.902754,120.2727902,20.135,-3,28,304,-10,-107,-1015,-29.26751709,-35.40792465,-20.13529205,-0.003813434,2.830484152,0.117845863,17,280
2020/6/15,17:47:59,22.9027071,120.2727942,20.115,75,50,-58,-16,-93,-1013,-34.49619293,-34.99233246,-20.11557007,-0.043303959,3.040591478,0.066041566,17,280
2020/6/15,17:48:02,22.902655,120.2727954,19.913,83,-40,44,-61,-29,-963,-40.2872963,-34.86568451,-19.91363144,-0.04351747,3.03358984,0.054711029,17,280
2020/6/15,17:48:05,22.9025972,120.2727996,20.106,108,53,30,-77,-43,-1002,-46.72517395,-34.44238663,-20.1063385,-0.044743657,-3.134682894,0.069179378,17,280
2020/6/15,17:48:08,22.9025702,120.2728206,20.037,-37,21,-123,43,-14,-1080,-49.7360611,-32.28522491,-20.03716087,-0.052563019,1.421977997,-0.033796947,17,280
2020/6/15,17:48:11,22.9025746,120.2728857,19.906,-36,-26,130,54,81,-931,-49.23793793,-25.61170959,-19.90672493,0.035820443,1.441143036,0.009316516,17,280
2020/6/15,17:48:14,22.9025785,120.2729366,20.026,-32,54,-74,13,-68,-1012,-48.80857468,-20.35223389,-20.02705574,0.005572001,1.526662469,-0.017278507,17,280
2020/6/15,17:48:17,22.9025784,120.2729983,20.255,30,47,-70,42,102,-947,-48.82247543,-14.06627274,-20.25577164,0.042259399,1.422691822,-0.06774728,17,280
2020/6/15,17:48:20,22.9025828,120.2730525,19.966,-143,33,-3,52,87,-1027,-48.33174896,-8.501848221,-19.96677017,0.010172958,1.406326056,-0.047985736,17,280
2020/6/15,17:48:23,22.9025871,120.2731106,19.968,134,42,57,48,-23,-1078,-47.85255432,-2.543193817,-19.968853,0.02418283,1.474538803,-0.060211357,17,280
2020/6/15,17:48:26,22.902592,120.2731602,21.156,141,47,123,49,-15,-1128,-47.30767822,2.533876419,-21.15690804,0.104257494,1.434169054,-0.022850905,17,280
2020/6/15,17:48:29,22.9025901,120.2731622,26.86,64,-28,-39,91,22,-923,-47.52004242,2.737883568,-26.9032917,0.087702587,1.482728124,-0.029260024,17,280
2020/6/15,17:48:32,22.902603,120.2731618,29.917,-16,-27,-10,91,46,-1008,-46.08393478,2.698257446,-29.9178257,0.100477964,1.531797886,-0.13123402,17,280
2020/6/15,17:48:35,22.9026821,120.2731583,29.907,-15,196,91,113,105,-906,-37.19451141,2.335371017,-29.90934372,0.108027607,1.450858355,-0.160952091,17,280
2020/6/15,17:48:38,22.9027889,120.2731515,29.928,25,-69,-21,176,112,-1025,-25.38953781,1.645187378,-29.92811203,0.121705815,1.451197267,-0.1575495,17,280
2020/6/15,17:48:41,22.9029076,120.2731412,30.009,11,0,-25,111,226,-901,-12.16988373,0.591173172,-30.00920486,0.081573084,1.397252917,-0.138393342,17,280
2020/6/15,17:54:12,22.9030479,120.2731223,-0.038,2,-1,0,5,-14,-999,0.085421562,-0.042915344,0.038820267,-0.011557345,-1.222417831,0.028613389,22,290
2020/6/15,17:54:15,22.9030467,120.2731226,-0.122,13,0,6,16,-12,-996,-0.045913696,-0.020023346,0.122703254,-0.010948595,-1.222898483,0.028150044,22,290
2020/6/15,17:54:18,22.9030239,120.2731182,1.042,41,22,-1207,14,-53,-1057,-2.590992928,-0.4688797,-1.042948246,-0.061422467,-1.961081386,-0.068839625,22,290
2020/6/15,17:54:21,22.9029313,120.273099,6.829,-89,-38,76,-48,42,-996,-12.89512444,-2.432842255,-6.829510689,-0.11795333,-3.041712999,0.037260406,22,290
2020/6/15,17:54:24,22.9028287,120.2730835,12.329,45,58,20,0,-59,-1013,-24.3318615,-4.026287079,-12.32944775,-0.061805431,-2.999467611,0.064352296,22,290
2020/6/15,17:54:27,22.9027203,120.2730637,18.045,41,14,-25,-114,-45,-1024,-36.39330673,-6.059812546,-18.04531479,-0.090774499,-2.972919464,0.064644046,22,290
2020/6/15,17:54:30,22.9026529,120.2730495,20.164,41,103,-150,9,-109,-1037,-43.89584732,-7.514291763,-20.16480637,0.05966901,-2.690390825,0.17572546,22,290
2020/6/15,17:54:33,22.9026778,120.2730034,20.288,5,-95,-72,-178,36,-1011,-41.12200928,-12.23425484,-20.28831482,-0.244552851,-1.171448469,-0.02819002,22,290
2020/6/15,17:54:36,22.9027261,120.2729012,20.17,53,-19,74,-161,7,-996,-35.74501419,-22.71329689,-20.17093277,-0.166964561,-1.090283394,-0.019042794,22,290
2020/6/15,17:54:39,22.9027868,120.2727755,20.008,62,52,-18,-166,-5,-1011,-28.9967308,-35.60723114,-20.0085907,-0.14377223,-1.034994841,-0.029578067,22,290
2020/6/15,17:54:42,22.9028452,120.2726601,20.055,-56,292,-63,-75,131,-983,-22.49362183,-47.44551086,-20.05517578,-0.063742444,-1.007010579,-0.000526947,22,290
2020/6/15,17:54:45,22.9028928,120.2725927,19.702,-33,-29,-150,-4,-18,-1043,-17.19783401,-54.35738373,-19.70235825,-0.014701864,-0.306301892,0.118301697,22,290
2020/6/15,17:54:48,22.9029394,120.2726375,19.885,-44,62,39,-88,93,-969,-11.99738503,-49.76041412,-19.88555527,-0.135595351,0.670834124,-0.033062398,22,290
2020/6/15,17:54:51,22.9030179,120.2727169,20.182,13,-14,45,-83,24,-1053,-3.253350258,-41.61469269,-20.18254089,-0.104026712,0.698676586,-0.052006882,22,290
2020/6/15,17:54:54,22.9031062,120.2728044,20.375,-4,26,30,-35,64,-1093,6.578827858,-32.639534,-20.37598801,0.033768244,0.743557811,-0.074598923,22,290
2020/6/15,17:54:57,22.9031495,120.2728396,25.727,-62,-51,0,33,105,-1023,11.39549541,-29.03221703,-25.72771835,0.074395768,0.671285927,-0.037297584,22,290
2020/6/15,17:55:00,22.9031442,120.2728505,29.742,-31,9,37,-22,73,-953,10.79904079,-27.9168911,-29.74253082,-0.016602775,0.705593765,0.025758956,22,290
2020/6/15,17:55:03,22.9031172,120.2729129,30.053,62,-17,20,31,-84,-999,7.800322533,-21.5222683,-30.05379486,-0.050231896,0.724121153,0.027508453,22,290
2020/6/15,17:55:06,22.9030768,120.2730308,30.056,19,29,-34,4,-41,-1012,3.304080009,-9.429367065,-30.05660248,-0.017093901,0.698758602,0.013589321,22,290
2020/6/15,17:55:09,22.9030514,120.2731157,30.11,17,-6,15,10,-67,-1034,0.472920418,-0.723060608,-30.11023331,0.074309319,0.692034245,-0.146630019,22,290
2020/6/15,17:55:12,22.9030475,120.273123,30.299,11,17,41,58,63,-943,0.041334152,0.025352478,-30.2995224,0.015569568,0.67285043,-0.08941935,22,290
2020/6/15,17:57:26,22.9030183,120.2731243,19.827,75,31,1068,68,-111,-957,-1.084680557,-0.113277435,-19.83646584,-0.037393935,2.162930727,0.088544898,22,290
2020/6/15,17:57:29,22.9029685,120.2731276,20.081,34,-45,13,-51,-16,-1004,-6.60502243,0.220277786,-20.08117294,-0.060826626,2.97403717,0.02274498,22,290
2020/6/15,17:57:32,22.9029181,120.2731341,20.1,8,-30,133,-71,-42,-998,-12.21758938,0.888954163,-20.10052872,-0.062755406,3.024682522,0.069024079,22,290
2020/6/15,17:57:35,22.9028688,120.2731385,19.999,24,0,5,-1,-91,-1021,-17.71963501,1.339675903,-19.99907494,-0.062430069,2.989882946,0.03005578,22,290
2020/6/15,17:57:38,22.9028137,120.2731444,20.063,-24,20,31,11,50,-961,-23.84825516,1.947122574,-20.06330681,-0.028222123,3.01843071,0.04578416,22,290
2020/6/15,17:57:41,22.9027621,120.2731499,20.01,174,69,415,52,-84,-1013,-29.58935165,2.50935173,-20.0107975,0.02698838,-3.139647961,0.125523925,22,290
2020/6/15,17:57:44,22.9027219,120.2731325,20.01,13,0,-16,-70,-95,-1009,-34.06928253,0.720636368,-20.0102005,-0.09430927,-2.740352869,0.079209447,22,290
2020/6/15,17:57:48,22.9026744,120.2731005,20.202,5,32,-29,-93,-39,-1034,-39.35918427,-2.555673599,-20.20284653,-0.048264179,-2.71438241,0.047622532,22,290
2020/6/15,17:57:51,22.9026286,120.2730706,20.068,-21,0,130,-76,-80,-999,-44.45258331,-5.626977921,-20.06827164,-0.076968379,-2.660962343,0.053612936,22,290
2020/6/15,17:57:54,22.9025836,120.2730406,20.173,-9,17,0,-74,-12,-995,-49.46707916,-8.703125,-20.17344475,-0.088712081,-2.63095665,0.023666184,22,290
2020/6/15,17:57:57,22.9025373,120.2730097,19.897,131,36,-171,-18,-102,-1016,-54.62239075,-11.8657074,-19.89711761,-0.059141051,-2.661669731,0.024599586,22,290
2020/6/15,17:58:00,22.9025253,120.2729739,20.068,8,37,12,-151,42,-970,-55.94895172,-15.54475594,-20.06882286,-0.156226605,-1.432768583,-0.015407742,22,290
2020/6/15,17:58:03,22.9025396,120.2729189,20.205,-3,21,-66,-64,16,-995,-54.35910416,-21.18167686,-20.20544052,-0.13451378,-1.277742386,-0.017962772,22,290
2020/6/15,17:58:06,22.90256,120.2728566,20.089,36,28,10,-86,20,-977,-52.08972168,-27.57037544,-20.08902931,-0.120207965,-1.340488434,-0.072256856,22,290
2020/6/15,17:58:09,22.9025796,120.2727938,19.878,42,-40,58,-152,65,-969,-49.90688705,-34.01186371,-19.87852859,-0.154519618,-1.311064243,-0.05074681,22,290
2020/6/15,17:58:12,22.9025971,120.2727398,20.093,9,22,-74,-171,69,-994,-47.95765686,-39.54460907,-20.09397316,-0.14743191,-1.291538239,-0.035381135,22,290
2020/6/15,17:58:15,22.9026171,120.2726822,20.047,81,2,383,-110,45,-950,-45.73335266,-45.45058441,-20.04798698,-0.019627158,-1.272793174,-0.001719295,22,290
2020/6/15,17:58:18,22.9026481,120.2726844,19.765,0,16,-4,-94,122,-1015,-42.28796387,-45.23166656,-19.76523018,-0.07592161,0.236796886,-0.097230144,22,290
2020/6/15,17:58:21,22.9027007,120.2726993,19.89,122,-12,90,-42,-29,-1009,-36.42675781,-43.69425964,-19.8908577,-0.058195509,0.321953177,-0.071104653,22,290
2020/6/15,17:58:24,22.9027571,120.2727178,20.119,-28,12,-29,-110,133,-1010,-30.10852242,-41.78601074,-20.11762047,-0.04889524,0.357275814,-0.0717237,22,290
2020/6/15,17:58:27,22.9028102,120.2727354,20.041,154,-90,-59,-40,21,-1015,-24.20258904,-39.98626709,-20.04268074,-0.054934613,0.316358298,-0.070180677,22,290
2020/6/15,17:58:30,22.9028642,120.2727561,20.036,64,10,55,-18,51,-986,-18.23021317,-37.87775421,-20.03663826,-0.053855147,0.202804059,-0.064874679,22,290
2020/6/15,17:58:33,22.9029203,120.2727735,20.115,3,28,-41,-95,58,-973,-12.41263771,-36.20850372,-20.1089859,-0.054670434,0.302846372,-0.055536758,22,290
2020/6/15,17:58:36,22.9029691,120.2727904,20.052,56,-23,69,-6,36,-1013,-6.536915302,-34.35871887,-20.05212212,-0.060289744,0.284290075,-0.051243275,22,290
2020/6/15,17:58:39,22.9030204,120.2728096,20.011,52,63,-100,-29,53,-983,-0.82874012,-32.39256287,-20.01112366,-0.056518674,0.20926635,-0.06603872,22,290
2020/6/15,17:58:42,22.9030745,120.2728248,20.083,-53,6,-11,-13,52,-1108,5.19175148,-30.83130836,-20.08395958,0.062540144,0.300172925,-0.012779786,22,290
2020/6/15,18:01:13,22.9030346,120.2730833,20.259,-23,3,-13,-164,4,-989,2.064539909,-5.148935318,-20.25992012,-0.118405961,-1.265516877,-0.005780206,22,290
2020/6/15,18:01:16,22.9030593,120.2730224,20.137,-46,11,6,-63,-30,-1009,4.818449974,-11.39302826,-20.13780594,-0.11181619,-1.256232023,0.01236481,22,290
2020/6/15,18:01:19,22.9030811,120.2729674,20.009,122,37,22,-79,7,-1012,7.240811348,-17.03541565,-20.00977898,-0.103287093,-1.249058008,-0.015113915,22,290
2020/6/15,18:01:22,22.9031032,120.2729148,20.134,41,-92,-68,-61,-71,-922,9.700695992,-22.42823029,-20.13417435,-0.095592476,-1.248867989,-0.022952929,22,290
2020/6/15,18:01:25,22.9031143,120.2728566,19.924,36,169,-179,-71,-5,-1000,10.93407154,-28.39447021,-19.92474365,-0.166568667,-2.259562016,-0.050796453,22,290
2020/6/15,18:01:28,22.9030794,120.2728098,19.782,32,29,-38,-47,9,-975,7.053250313,-33.19663239,-19.78298187,-0.069035068,-2.37501359,0.008143375,22,290
2020/6/15,18:01:31,22.9030435,120.2727681,19.968,28,38,38,-46,-2,-996,3.052031517,-37.47710419,-19.96801376,-0.065319002,-2.319326401,0.022250187,22,290
2020/6/15,18:01:34,22.9030097,120.2727258,19.972,-5,24,-68,-25,-3,-972,-0.704333305,-41.81529236,-19.97209167,-0.042721588,-2.325993538,0.012270272,22,290
2020/6/15,18:01:37,22.9029756,120.272684,20.033,-71,0,-32,-11,-35,-988,-4.504402637,-46.10053635,-20.03339195,-0.033870086,-2.309199095,0.032561991,22,290
2020/6/15,18:01:40,22.9029437,120.2726428,20.092,3,2,-20,-76,40,-978,-8.057673454,-50.32551575,-20.09245682,-0.054584429,-2.385940075,0.014725771,22,290
2020/6/15,18:01:43,22.9028994,120.2726251,20.052,45,28,-97,4,-77,-997,-13.00131893,-52.13683319,-20.05206871,-0.065670826,2.876237631,-0.016076583,22,290
2020/6/15,18:01:46,22.9028462,120.2726408,20.015,-3,18,-8,-2,-11,-997,-18.91683578,-50.52340698,-20.01548386,-0.046081021,2.771450043,-0.009156148,22,290
2020/6/15,18:01:49,22.9027978,120.2726585,20.03,-25,23,33,3,-1,-1000,-24.30497742,-48.7178421,-20.03096581,-0.022303903,2.792780876,0.000348635,22,290
2020/6/15,18:01:52,22.9027458,120.2726755,20.029,16,45,-97,33,-43,-979,-30.09254456,-46.97110367,-20.02946663,-0.018925052,2.824294329,-0.000147784,22,290
2020/6/15,18:01:55,22.9026973,120.2726917,20.02,80,4,0,19,-58,-1013,-35.49068832,-45.30406189,-20.0206852,-0.023184478,2.833444357,0.016972113,22,290
2020/6/15,18:01:58,22.90264,120.2727116,20.092,-14,-18,38,-38,-7,-1007,-41.87401199,-43.27163315,-20.0921917,0.02131791,2.911472082,0.042401262,22,290
2020/6/15,18:02:01,22.9025918,120.272728,20.128,-30,-20,-14,22,-97,-1012,-47.23870468,-41.58141708,-20.12879753,-0.024614785,2.910953045,0.085736901,22,290
2020/6/15,18:02:04,22.9025491,120.2727398,20.003,98,39,-515,-54,-98,-990,-51.99261093,-40.37509155,-20.00341415,0.109381646,2.487223148,0.003956208,22,290
2020/6/15,18:02:07,22.9025639,120.2727636,19.956,17,48,-24,-16,66,-950,-50.34008789,-37.94022369,-19.95632935,-0.05754561,0.431528509,-0.105557583,22,290
2020/6/15,18:02:10,22.9026129,120.2727949,20.05,-36,-22,95,-36,123,-1012,-44.88941574,-34.73111343,-20.05093765,-0.051393803,0.703594506,-0.035633378,22,290
2020/6/15,18:02:13,22.902651,120.2728264,19.918,-42,83,-75,-15,74,-981,-40.65065765,-31.49145889,-19.91882324,-0.04539106,0.746859074,-0.051818781,22,290
2020/6/15,18:02:16,22.9026891,120.2728604,20.007,-80,31,-61,-33,100,-998,-36.40174866,-28.01055145,-20.00775146,-0.069547236,0.681887031,-0.077245556,22,290
2020/6/15,18:02:19,22.902736,120.2729004,20.125,18,10,-37,0,16,-1011,-31.18318939,-23.91098404,-20.12550926,-0.063471265,0.640105128,-0.077087045,22,290
2020/6/15,18:02:22,22.9027608,120.272943,20.161,-16,55,44,7,30,-1073,-28.42916107,-19.53775024,-20.16133118,-0.024283912,1.772826314,0.012836543,22,290
2020/6/15,18:02:25,22.9027462,120.2729992,19.978,-71,-9,18,8,69,-997,-30.05262375,-13.77421188,-19.97878265,-0.000555811,1.784950256,-0.021298472,22,290
2020/6/15,18:02:28,22.9027312,120.2730564,20.026,5,10,8,31,-2,-1021,-31.71613312,-7.909919739,-20.02602005,0.004833899,1.765200257,-0.034778327,22,290
2020/6/15,18:02:31,22.9027177,120.2731132,20.031,18,-14,59,20,1,-993,-33.22677612,-2.09141922,-20.03115082,-0.00179528,1.79270649,-0.030000977,22,290
2020/6/15,18:02:34,22.9027048,120.2731671,20.563,18,-31,-7,63,31,-1075,-34.65727234,3.443819046,-20.5634594,0.10937199,1.810203791,-0.023378063,22,290
2020/6/15,18:02:37,22.9027043,120.2731707,25.959,18,10,6,52,-9,-975,-34.71448135,3.807713509,-25.95978737,0.050667152,1.823214054,-0.011513689,22,290
2020/6/15,18:02:40,22.9027097,120.2731702,29.848,-27,-12,-22,40,62,-941,-34.11250305,3.762304306,-29.84864235,0.094805472,1.820768952,-0.102798171,22,290
2020/6/15,18:02:43,22.9027761,120.2731638,30.098,-114,-18,-1,107,108,-985,-26.72655106,3.106254578,-30.09805107,0.121628299,1.807265878,-0.133244649,22,290
2020/6/15,18:02:46,22.9028854,120.273151,30.078,88,-36,-27,121,42,-1017,-14.55090427,1.787054062,-30.07813072,0.103747047,1.799847841,-0.122950204,22,290
2020/6/15,18:02:49,22.9029925,120.2731352,30.174,-65,70,30,119,61,-935,-2.623767853,0.169261932,-30.17469025,0.004018052,1.882834315,0.060949937,22,290
2020/6/15,18:02:52,22.9030139,120.2731294,30.077,24,23,-14,90,18,-1032,-0.236658096,-0.428096771,-30.07726097,0.017824296,1.839822769,-0.014083651,22,290
2020/6/15,18:11:03,22.9030225,120.2731023,19.081,-119,123,-16,-31,74,-886,-0.122135162,-0.134248734,-19.08192253,-0.00716005,0.424364567,-0.110057309,22,290
2020/6/15,18:11:06,22.9030199,120.2730634,20.14,63,40,-83,-66,-24,-969,-0.405088425,-4.126106262,-20.14077377,-0.10897743,-1.754131675,0.012706311,22,290
2020/6/15,18:11:09,22.9030132,120.2730014,20.132,25,-41,-39,-133,-69,-1024,-1.149775505,-10.48049545,-20.13282776,-0.100214712,-1.781659842,0.04714096,22,290
2020/6/15,18:11:12,22.9030073,120.2729442,20.089,-31,-9,-43,-85,9,-984,-1.805681229,-16.35073471,-20.08952332,-0.116604626,-1.807909012,-0.016811214,22,290
2020/6/15,18:11:15,22.9030007,120.2728828,20.015,32,4,0,-90,-12,-991,-2.542140007,-22.65024185,-20.01563454,-0.120911263,-1.830423236,-0.037214287,22,290
2020/6/15,18:11:18,22.9029906,120.2728275,19.976,120,-63,48,-63,-30,-983,-3.671832085,-28.32208252,-19.97639084,-0.139813662,-1.680269003,0.034411892,22,290
2020/6/15,18:11:21,22.9029848,120.2727648,19.972,135,13,13,-36,-85,-1006,-4.315979004,-34.74232483,-19.97211266,-0.105092064,-1.703406334,0.017013147,22,290
2020/6/15,18:11:24,22.9029783,120.2727032,19.921,42,-21,14,-43,-79,-953,-5.033049583,-41.06307602,-19.92157555,-0.132348791,-1.708256721,0.023419399,22,290
2020/6/15,18:11:27,22.9029717,120.2726468,20.068,30,19,-1,-200,-6,-975,-5.766729355,-46.84975052,-20.06847382,-0.154526487,-1.712353826,0.024825033,22,290
2020/6/15,18:11:30,22.9029391,120.2726228,19.924,-30,19,-126,-57,-9,-990,-9.399982452,-49.31148148,-19.92404747,-0.015750865,2.982554197,0.05047287,22,290
2020/6/15,18:11:33,22.9028889,120.2726284,19.887,-18,-15,30,-38,-121,-989,-14.99534893,-48.73397446,-19.88747406,-0.023952201,2.975302219,0.108293109,22,290
2020/6/15,18:11:36,22.9028403,120.2726341,19.971,4,24,37,-26,-56,-989,-20.40863991,-48.14907455,-19.97136879,-0.043535531,2.972956896,0.07038863,22,290
2020/6/15,18:11:39,22.9027868,120.2726396,19.983,90,42,47,42,-113,-994,-26.36874962,-47.58172989,-19.98395157,-0.025695164,2.962721825,0.042288765,22,290
2020/6/15,18:11:42,22.9027354,120.2726457,20.128,56,-12,27,25,-52,-970,-32.08601379,-46.96087265,-20.12820816,-0.016233766,3.00239563,0.047192629,22,290
2020/6/15,18:11:45,22.9026818,120.2726649,19.929,16,56,-15,4,-53,-992,-38.05335236,-44.98921585,-19.92906189,0.031472251,2.565188646,0.028757539,22,290
2020/6/15,18:11:48,22.9026346,120.2727008,19.995,20,2,91,113,-56,-958,-43.30735016,-41.30640793,-19.99577713,0.019588009,2.636305332,0.091024369,22,290
2020/6/15,18:11:51,22.9025896,120.2727316,20.198,27,-22,-7,28,-79,-982,-48.31822586,-38.14939499,-20.1986351,0.00689183,2.613327742,0.084442534,22,290
2020/6/15,18:11:54,22.9025409,120.2727638,19.965,51,39,-3,78,-50,-981,-53.73453522,-34.85388947,-19.96594429,0.030757058,2.507126808,0.043072291,22,290
2020/6/15,18:11:57,22.9024997,120.2727948,20.071,37,-74,-44,18,-47,-1008,-58.35328674,-31.64652252,-20.07134438,0.00416379,2.531552076,0.069310486,22,290
2020/6/15,18:12:00,22.9024517,120.2728269,19.975,-65,24,-48,53,6,-1006,-63.67226791,-28.37619781,-19.97550583,0.022825472,2.484079599,0.031552322,22,290
2020/6/15,18:12:03,22.9024077,120.2728602,19.912,49,53,73,40,-121,-1015,-68.5641861,-24.95994568,-19.91228294,0.009825017,2.54151845,0.047559008,22,290
2020/6/15,18:12:06,22.9023611,120.2728933,20.03,-35,-18,-62,31,-5,-996,-73.75902557,-21.56986618,-20.03026772,0.023580547,2.557638645,0.05199476,22,290
2020/6/15,18:12:09,22.9023155,120.2729255,20.087,61,8,20,-38,-75,-996,-78.83126068,-18.26521301,-20.08719254,0.015675683,2.550813913,0.051912647,22,290
2020/6/15,18:12:12,22.9022685,120.272959,20.015,36,13,25,-2,-49,-1015,-84.0604248,-14.83721542,-20.01542854,0.009547148,2.562010288,0.054778006,22,290
2020/6/15,18:12:15,22.9022327,120.2729851,20.027,-8,-59,-315,115,-96,-1021,-88.04358673,-12.16141129,-20.02731133,0.144560263,2.012142181,-0.062915444,22,290
2020/6/15,18:12:18,22.9022548,120.2730015,20.309,26,19,-22,-78,178,-942,-85.58312988,-10.47540665,-20.30960274,-0.112432897,0.212906212,-0.154978916,22,290
2020/6/15,18:12:21,22.9023155,120.2730201,20.195,70,-116,19,-13,79,-1005,-78.83214569,-8.564249039,-20.19586182,-0.058384918,0.504108727,-0.026559617,22,290
2020/6/15,18:12:24,22.9023631,120.2730444,19.89,-77,50,-160,-78,141,-981,-73.52729034,-6.077596664,-19.89014626,-0.055335041,0.485339046,-0.087471008,22,290
2020/6/15,18:12:27,22.9024116,120.273068,19.888,-7,8,11,-38,75,-933,-68.13319397,-3.65401268,-19.88837433,-0.081983715,0.434083223,-0.098340899,22,290
2020/6/15,18:12:30,22.9024593,120.2730895,19.995,-51,-71,60,-111,95,-982,-62.82200241,-1.45252037,-19.99559212,-0.091807105,0.43831709,-0.058235411,22,290
2020/6/15,18:12:33,22.9025124,120.2731144,19.989,53,40,-30,-62,13,-996,-56.91454697,1.10254097,-19.98997116,-0.072356232,0.416757524,-0.065336972,22,290
2020/6/15,18:12:36,22.9025624,120.273139,20.136,119,2,53,-35,-4,-991,-51.34489441,3.629112244,-20.13670731,-0.067278944,0.370451868,-0.075386196,22,290
2020/6/15,18:12:39,22.9026139,120.273163,20.371,-96,-39,-77,-26,170,-914,-45.6141243,6.08934021,-20.3710289,-0.061550345,0.357580781,-0.134222835,22,290
2020/6/15,18:12:42,22.9026599,120.2731824,20.698,76,-102,-78,-105,84,-1091,-40.49625397,8.075064659,-20.69857216,0.051571697,0.314395517,-0.101512797,22,290
2020/6/15,18:12:45,22.902662,120.2731818,25.937,83,-16,39,57,-11,-1020,-40.25432968,8.011726379,-25.93729782,-0.030053813,0.292537153,-0.062501252,22,290
2020/6/15,18:12:48,22.9026659,120.2731839,29.675,4,72,7,9,109,-978,-39.82068634,8.231206894,-29.67508888,-0.110499099,0.304128915,-0.143559098,22,290
2020/6/15,18:12:51,22.9027266,120.2731739,30.317,67,-59,-2,-123,120,-985,-33.06224442,7.205920219,-30.31777954,-0.125898987,0.342499405,-0.186300874,22,290
2020/6/15,18:12:54,22.9028398,120.273146,30.056,-114,-103,5,-61,216,-927,-20.4625988,4.345064163,-30.05663109,-0.151484683,0.323870659,-0.142531738,22,290
2020/6/15,18:12:57,22.9029519,120.2731214,30.143,98,-198,-34,8,138,-905,-7.97306633,1.823123932,-30.1430378,-0.039307803,0.322829187,-0.119181238,22,290
2020/6/15,18:15:04,22.902729,120.2730695,20.028,17,19,176,10,-81,-986,-33.23950577,-2.995754242,-20.02843285,-0.061178494,-2.792309761,0.130727842,15,300
2020/6/15,18:15:07,22.9026807,120.273045,20.007,38,-15,-45,-63,-85,-977,-38.60782623,-5.513391495,-20.00749779,-0.081274949,-2.785830736,0.058763757,15,300
2020/6/15,18:15:10,22.9026332,120.2730219,19.95,8,5,-13,5,-128,-1021,-43.90297318,-7.877988815,-19.95051956,-0.073590443,-2.744969606,0.079943582,15,300
2020/6/15,18:15:13,22.902583,120.2729972,20.042,19,37,-25,-20,-69,-997,-49.49155807,-10.41348267,-20.0424633,-0.071700469,-2.700767994,0.085012428,15,300
2020/6/15,18:15:16,22.9025387,120.272973,20.056,136,101,366,-62,-170,-998,-54.41359329,-12.89558792,-20.05699539,0.014778031,-2.488302708,0.140237212,15,300
2020/6/15,18:15:19,22.9025469,120.272944,20.028,26,66,67,-56,-49,-1019,-53.50061417,-15.87321091,-20.02862167,-0.172868758,-1.132839441,-0.017086186,15,300
2020/6/15,18:15:22,22.9025755,120.2728914,20.26,-4,-39,2,-38,102,-996,-50.32569122,-21.26254272,-20.26044464,-0.119155943,-1.061354041,-0.025530245,15,300
2020/6/15,18:15:25,22.9026096,120.2728318,19.846,-46,18,-93,-85,72,-1070,-46.52340698,-27.37445068,-19.84689331,-0.084614225,-1.057359338,-0.061797913,15,300
2020/6/15,18:15:28,22.9026362,120.2727818,19.896,-102,41,-67,-127,76,-1027,-43.56583405,-32.50157928,-19.89663124,-0.11701066,-0.949842095,-0.037593499,15,300
2020/6/15,18:15:31,22.9026671,120.2727321,19.795,-29,-45,-25,-190,70,-991,-40.12892151,-37.59619904,-19.79528809,-0.113164306,-1.03527081,-0.036390327,15,300
2020/6/15,18:15:34,22.9026778,120.2727022,19.956,118,-29,-988,32,-154,-1009,-38.93851471,-40.66326523,-19.95674324,-0.129009604,-2.75911355,-0.015486413,15,300
2020/6/15,18:15:37,22.9026241,120.2727044,19.949,-54,51,31,-1,-57,-995,-44.91609573,-40.43406296,-19.94928551,-0.018710818,2.952613115,0.061298065,15,300
2020/6/15,18:15:40,22.9025773,120.2727118,19.946,-11,-7,87,48,21,-988,-50.11848068,-39.67950439,-19.9462719,-0.027777392,3.068270445,0.070720628,15,300
2020/6/15,18:15:43,22.902528,120.2727165,20.116,-23,-21,34,7,-33,-964,-55.60784149,-39.1963501,-20.11644173,-0.05513145,3.085046291,0.055180524,15,300
2020/6/15,18:15:46,22.902473,120.2727201,20.094,-78,-14,-31,32,-21,-989,-61.72872162,-38.82914352,-20.09467888,-0.035057928,3.043731451,0.04068676,15,300
2020/6/15,18:15:49,22.9024228,120.2727255,20.005,-51,-5,49,-84,27,-988,-67.32382965,-38.27110672,-20.00538445,-0.060901262,3.052328825,0.054816019,15,300
2020/6/15,18:15:52,22.9023713,120.272734,19.992,-26,-95,-1181,26,11,-1018,-73.05018616,-37.40316391,-19.99213219,0.056571789,2.48151207,-0.096663907,15,300
2020/6/15,18:15:55,22.9023671,120.272788,19.953,48,-76,-59,25,42,-1000,-73.51819611,-31.8638916,-19.95311165,-0.019851562,1.356112361,-0.061750066,15,300
2020/6/15,18:15:58,22.9023738,120.2728434,19.995,-43,0,8,5,93,-983,-72.77489471,-26.14609528,-19.99611473,-0.003010358,1.558889031,-0.002699612,15,300
2020/6/15,18:16:01,22.9023748,120.2729018,20.056,42,5,-13,-1,13,-1023,-72.66379547,-20.19419479,-20.05623436,-0.012751177,1.52635479,-0.03393789,15,300
2020/6/15,18:16:04,22.9023755,120.2729619,20.097,-3,-1,-174,11,95,-984,-72.58344269,-14.03455353,-20.09704971,0.003692877,1.469284654,-0.041951641,15,300
2020/6/15,18:16:07,22.9023792,120.2730199,20.06,78,-40,-39,7,7,-994,-72.17243195,-8.090351105,-20.06063461,0.018744841,1.483087897,-0.017310388,15,300
2020/6/15,18:16:10,22.9023811,120.273081,20.044,118,13,-201,12,46,-1009,-71.96297455,-1.819366455,-20.04412842,-0.005560822,1.460291386,-0.041184865,15,300
2020/6/15,18:16:13,22.9023837,120.2731379,20.063,-15,19,121,7,-52,-1015,-71.67134094,4.014570236,-20.06359673,-0.010140924,1.459933281,-0.02007718,15,300
2020/6/15,18:16:16,22.9023859,120.2731976,20.162,3,71,-1,95,35,-1106,-71.42946625,10.13886833,-20.1629715,0.121443376,1.459296107,-0.032363635,15,300
2020/6/15,18:16:19,22.9023886,120.2732075,24.492,35,-44,-13,81,50,-1000,-71.12446594,11.1536293,-24.49237251,0.031546913,1.481415749,-0.001175971,15,300
2020/6/15,18:16:22,22.9023866,120.2732087,29.498,40,17,-25,40,0,-938,-71.34770203,11.27278614,-29.49896431,0.057687163,1.467770338,-0.143049777,15,300
2020/6/15,18:16:25,22.9024375,120.2732028,30.131,116,19,-32,18,83,-1009,-65.67849731,10.67443085,-30.13187408,0.054860264,1.380748034,-0.189445287,15,300
2020/6/15,18:16:28,22.9025369,120.2731869,30.112,25,-5,64,82,87,-951,-54.61858749,9.041142464,-30.11270905,0.062889643,1.381109953,-0.15370962,15,300
2020/6/15,18:16:31,22.9026622,120.2731604,30.034,27,34,-30,61,79,-1009,-40.67356491,6.323450089,-30.0341835,0.037231829,1.411462665,-0.110092916,15,300
2020/6/15,18:16:34,22.9027879,120.2731366,30.102,104,23,-23,66,84,-951,-26.67640877,3.876226425,-30.10207176,0.018989913,1.439298749,-0.138149023,15,300
2020/6/15,18:22:19,22.9030177,120.2731195,-0.007,5,-4,5,50,24,-992,0.116189003,0.09837532,0.007140398,0.023545321,-1.572545886,-0.008397986,15,300
2020/6/15,18:22:22,22.9030179,120.2731224,0.026,-132,-161,-11,24,40,-1036,0.139867783,0.391817093,-0.026751161,-0.005860955,-1.572886109,-0.01492666,15,300
2020/6/15,18:22:25,22.9029827,120.2731213,2.328,60,34,-722,-22,49,-1026,-3.782237053,0.278770447,-2.328738451,-0.120881416,3.054885149,-0.017556883,15,300
2020/6/15,18:22:28,22.9028826,120.2731331,7.811,44,77,3,-142,-8,-983,-14.93517399,1.493883133,-7.811902046,-0.080186665,2.913220882,0.017270241,15,300
2020/6/15,18:22:31,22.9027625,120.2731567,13.677,37,60,90,-11,-24,-1041,-28.29959297,3.912642479,-13.67742348,-0.060036041,2.999265671,0.045276739,15,300
2020/6/15,18:22:34,22.9026564,120.2731742,18.753,-17,262,41,-68,54,-869,-40.11625671,5.708248138,-18.75388527,-0.008660342,3.044691086,0.059231408,15,300
2020/6/15,18:22:37,22.9025884,120.2731395,20.201,-75,-83,87,-163,-46,-988,-47.71163177,2.090147018,-20.20537758,-0.176372781,-2.20558548,0.084151424,15,300
2020/6/15,18:22:40,22.9025336,120.2730333,20.445,-25,17,-15,-110,1,-939,-53.78369141,-8.743680954,-20.44566917,-0.167285487,-2.047056198,0.060161982,15,300
2020/6/15,18:22:43,22.902472,120.2729124,20.28,-49,119,-4,-113,-49,-1002,-60.64447784,-21.13737488,-20.28074074,-0.161615968,-2.022644281,0.060017936,15,300
2020/6/15,18:22:46,22.9024107,120.2727836,19.983,-2,-17,24,-259,18,-1013,-67.46120453,-34.34819031,-19.98374557,-0.159190804,-1.992673635,0.035931244,15,300
2020/6/15,18:22:49,22.9023637,120.2726833,19.83,100,-4,267,-109,-89,-1020,-72.69141388,-44.63127899,-19.83041763,-0.011547527,-1.860014558,0.111190744,15,300
2020/6/15,18:22:52,22.9023834,120.2726638,19.887,-111,18,943,-76,11,-988,-70.50714874,-46.62911987,-19.88727951,-0.232043564,-0.199705362,-0.080776781,15,300
2020/6/15,18:22:55,22.9024787,120.2726508,19.988,-47,-36,-38,-177,101,-991,-59.89615631,-47.96952057,-19.988451,-0.167671949,-0.170036927,-0.093820035,15,300
2020/6/15,18:22:58,22.9025943,120.2726281,20.321,-118,95,52,-88,111,-1011,-47.02765656,-50.29280853,-20.3215847,-0.127022386,-0.10794495,-0.059687037,15,300
2020/6/15,18:23:01,22.9027235,120.272615,20.013,66,147,-5,-133,85,-1081,-32.64240646,-51.63783264,-20.01371193,-0.071564794,-0.112432212,-0.095158502,15,300
2020/6/15,18:23:04,22.9027909,120.2726029,24.428,15,-78,45,-97,140,-1020,-25.14319992,-52.87882233,-24.42813873,-0.01702611,-0.074882455,-0.004502796,15,300
2020/6/15,18:23:07,22.9027947,120.2726087,29.408,48,-11,-39,-115,66,-935,-24.71666336,-52.27924347,-29.40839195,-0.120791391,-0.102285862,0.046084106,15,300
2020/6/15,18:23:10,22.9028167,120.2726629,30.21,-8,41,3,-59,-37,-1022,-22.26921844,-46.72288513,-30.21052551,-0.135464966,-0.081143036,0.082887813,15,300
2020/6/15,18:23:13,22.9028659,120.2727748,30.104,16,26,10,-89,-20,-972,-16.7911396,-35.24980927,-30.10499191,-0.133089811,-0.088231713,0.021963509,15,300
2020/6/15,18:23:16,22.9029169,120.2728872,30.095,22,-50,-33,-146,17,-987,-11.10729885,-23.72169495,-30.09514046,-0.143143475,-0.091110818,0.012820966,15,300
2020/6/15,18:23:19,22.9029708,120.2730056,29.966,-161,-25,-27,-100,-1,-1017,-5.103261948,-11.57805824,-29.96634674,-0.097543739,-0.087071501,-0.007386091,15,300
2020/6/15,18:23:22,22.9030132,120.2731031,29.867,-127,-3,0,-36,82,-1001,-0.389424324,-1.581094742,-29.86756516,-0.035577692,-0.10629566,-0.111893289,15,300
2020/6/15,18:23:25,22.9030169,120.2731173,29.887,30,27,-2,-43,64,-987,0.025929451,-0.131435394,-29.88780022,-0.072353251,-0.10579849,-0.030813914,15,300
2020/6/15,18:23:28,22.9030153,120.2731185,29.749,59,55,0,-18,109,-863,-0.148737907,0.002027512,-29.86958313,-0.080445543,-0.105209969,-0.047661502,15,300
2020/6/15,18:23:31,22.9030162,120.2731192,25.598,19,2,-32,-96,42,-987,-0.047588348,0.063081741,-25.59877586,-0.070314139,-0.111310445,-0.052646473,15,300
2020/6/15,18:23:34,22.903017,120.2731182,20.931,24,-47,33,-54,117,-1004,0.038434982,-0.040630341,-20.93115997,-0.058435801,-0.113005087,-0.022820741,15,300
2020/6/15,18:23:37,22.9030154,120.2731171,16.383,49,-36,-149,16,9,-992,-0.095212936,-0.080360413,-16.81228447,-0.055723976,-0.085106105,-0.012999053,15,300
2020/6/15,18:23:40,22.9030185,120.2731205,12.125,113,66,72,-30,57,-1015,0.204611778,0.200086594,-12.12597275,-0.04175958,-0.095748097,-0.07862445,15,300
2020/6/15,18:23:43,22.9030169,120.2731172,9.273,-112,48,-20,-60,51,-1002,0.030703545,-0.135097504,-9.273897171,-0.043663971,-0.114946455,-0.031509109,15,300
2020/6/15,18:23:46,22.9030162,120.2731187,7.706,-43,-4,0,-82,32,-1024,-0.051862717,0.012895584,-7.706899166,-0.044468783,-0.102277234,-0.035905778,15,300
2020/6/15,18:23:49,22.9030162,120.2731191,6.333,60,-33,15,-76,26,-975,-0.053342819,0.052595139,-6.33308506,-0.055482868,-0.110491522,-0.00660523,15,300
2020/6/15,18:23:52,22.9030169,120.2731189,4.577,-48,34,37,-52,92,-1012,0.031089783,0.039686203,-4.577375889,-0.056654092,-0.107850403,-0.019001208,15,300
2020/6/15,18:23:55,22.9030168,120.2731189,3.124,-133,-13,-46,-70,114,-1021,0.021767616,0.036300659,-3.124342918,-0.03356497,-0.089807607,-0.020641405,15,300
2020/6/15,18:23:58,22.903016,120.2731176,1.669,16,18,-19,8,9,-992,-0.075805664,-0.093500137,-1.669557214,-0.064929366,-0.102876283,0.010444332,15,300
2020/6/15,18:24:01,22.9030163,120.2731184,0.172,-63,20,-19,4,-31,-980,-0.037794113,-0.014167786,-0.17258954,-0.058583487,-0.119490996,-0.004452038,15,300
2020/6/15,18:24:04,22.9030149,120.2731188,0.036,3,2,11,-20,0,-999,-0.194590569,0.023178101,-0.036520004,-0.036447775,-0.112961031,0.003948002,15,300
