date,time,lat,lon,alt,x_gyro,y_gyro,z_gyro,x_acc,y_acc,z_acc,north,east,down,pitch,yaw,roll,wind_speed,wind_direction
2020/6/19,15:25:42,22.9028012,120.2731372,-0.057,5,-2,-1,-22,23,-1002,-0.119585037,-0.088169098,0.057561491,-0.04424195,2.917105436,0.000752911,22,290
2020/6/19,15:25:45,22.9028002,120.2731349,0.005,4,-38,-11,-31,9,-1007,-0.224095345,-0.318735123,-0.005247859,-0.044822134,2.920331001,0.000169022,22,290
2020/6/19,15:25:48,22.902759,120.2731231,2.819,-6,41,-4,96,-80,-996,-4.811959267,-1.5362854,-2.819539309,-0.040903799,-2.498389482,0.087943941,22,290
2020/6/19,15:25:51,22.9026947,120.2730793,8.813,-148,20,-110,-68,3,-1002,-11.97557926,-6.025056839,-8.813559532,-0.105685696,-2.615824699,0.048976149,22,290
2020/6/19,15:25:54,22.902619,120.2730315,14.632,30,-38,-42,-20,-3,-1001,-20.40270996,-10.93109131,-14.63286877,-0.076094255,-2.684922934,0.032474339,22,290
2020/6/19,15:25:57,22.9025438,120.2729952,19.448,5,-24,-306,-48,-69,-940,-28.77590942,-14.65150452,-19.44852448,-0.124146253,-2.859547615,-0.03213108,22,290
2020/6/19,15:26:00,22.9024409,120.272995,20.164,-10,9,5,-43,-10,-1011,-40.22354507,-14.6673584,-20.16433525,-0.104682647,-3.115193129,0.043657374,22,290
2020/6/19,15:26:03,22.9023282,120.2730027,20.223,-145,195,-50,-51,-79,-975,-52.77215195,-13.8819046,-20.22373962,-0.07819362,3.104452133,0.01347186,22,290
2020/6/19,15:26:06,22.9022511,120.2729938,19.685,-134,-48,356,-77,-3,-1041,-61.35863495,-14.78959274,-19.68575668,-0.196158499,-1.893803239,0.167028844,22,290
2020/6/19,15:26:09,22.9022488,120.272898,20.03,76,39,122,-130,31,-973,-61.60555267,-24.6144371,-20.03058815,-0.163834155,-1.663854241,0.014689635,22,290
2020/6/19,15:26:12,22.9022384,120.2727712,20.295,117,179,66,-150,2,-974,-62.77093506,-37.62010574,-20.29598618,-0.113824606,-1.58782196,0.033152815,22,290
2020/6/19,15:26:15,22.9022583,120.2726976,19.925,-35,-101,284,-131,70,-1065,-60.55427551,-45.16450119,-19.9259243,-0.231476575,-0.385031521,0.041661069,22,290
2020/6/19,15:26:18,22.9023449,120.2726824,20.054,52,63,77,-146,39,-942,-50.91436386,-46.7256813,-20.05441093,-0.195906624,-0.114120796,-0.007837142,22,290
2020/6/19,15:26:21,22.9024741,120.2726711,19.891,126,-43,17,-187,124,-925,-36.53427124,-47.88663101,-19.89122772,-0.232645616,-0.112815604,-0.107898623,22,290
2020/6/19,15:26:24,22.9026023,120.2726563,20.173,115,-151,21,-193,65,-942,-22.25462723,-49.40139389,-20.17349434,-0.152426586,-0.078575611,-0.099760361,22,290
2020/6/19,15:26:27,22.9027302,120.2726493,20.104,165,92,450,-62,65,-987,-8.022205353,-50.11843491,-20.10410309,-0.045149937,0.276752144,0.029139377,22,290
2020/6/19,15:26:30,22.9027737,120.2727107,20.156,-37,16,-22,-10,29,-1015,-3.180521011,-43.81993484,-20.15696335,-0.089037158,1.402460098,-0.004816029,22,290
2020/6/19,15:26:33,22.902783,120.2728239,20.131,11,-36,37,-22,-49,-974,-2.145647049,-32.21112061,-20.13140869,-0.119814716,1.414935946,-0.025939494,22,290
2020/6/19,15:26:36,22.9027946,120.2729652,19.938,2,37,15,-31,1,-993,-0.853860855,-17.72819519,-19.93888474,-0.049098026,1.510895967,-0.034049634,22,290
2020/6/19,15:26:39,22.9028046,120.2730861,19.808,3,80,85,-27,90,-1033,0.261058331,-5.330974579,-19.80821419,0.117849216,1.547972679,-0.041656677,22,290
2020/6/19,15:26:42,22.9028085,120.273116,17.798,-29,-6,50,12,47,-1025,0.692217827,-2.264375687,-17.79822922,0.028016184,1.640285254,0.018617162,22,290
2020/6/19,15:28:16,22.9028096,120.2731313,17.229,-84,-15,37,-33,-52,-911,0.40320158,0.291786194,-17.22998428,-0.09841869,-1.938618302,0.045300659,22,290
2020/6/19,15:28:19,22.9028027,120.2731165,20.298,-211,-262,4,-94,2,-973,-0.363316536,-1.227622986,-20.29844284,-0.214568838,-2.122564077,-0.015852388,22,290
2020/6/19,15:28:22,22.9027757,120.2730667,20.207,-17,78,170,-62,-32,-995,-3.36448431,-6.327922821,-20.20715332,-0.085944608,-2.1628232,0.045735229,22,290
2020/6/19,15:28:25,22.9027466,120.2730178,19.926,67,-44,73,-153,-77,-991,-6.609626293,-11.34549713,-19.92675781,-0.148067817,-2.027469635,0.090421647,22,290
2020/6/19,15:28:28,22.9027262,120.2729759,20.163,49,-38,-59,-137,-18,-953,-8.882169724,-15.64779663,-20.16391182,-0.18277435,-2.017940998,0.050006904,22,290
2020/6/19,15:28:32,22.9027008,120.2729226,19.973,-26,-25,11,-142,-43,-994,-11.70106697,-21.11295319,-19.97379684,-0.141767621,-2.169790745,0.031734269,22,290
2020/6/19,15:28:35,22.9026742,120.2728774,19.877,-39,34,-3,-74,-90,-962,-14.68621254,-25.778965,-19.8789978,-0.156227171,-2.04463625,0.082367823,22,290
2020/6/19,15:28:38,22.9026513,120.2728298,20.316,34,-19,-87,-88,-77,-945,-17.22084808,-30.62733078,-20.31621742,-0.146778136,-2.094018698,0.022999939,22,290
2020/6/19,15:28:41,22.902627,120.2727842,20.243,70,53,-270,-111,-6,-1046,-19.92524719,-35.30233002,-20.24333382,-0.011265996,-2.170215607,0.018856378,22,290
2020/6/19,15:28:44,22.9026128,120.2728041,20.059,96,176,186,68,-72,-1012,-21.50679588,-33.25813675,-20.05917358,-0.018874411,1.971593499,0.034601878,22,290
2020/6/19,15:28:47,22.9025894,120.2728572,19.811,-73,11,-13,54,-122,-1017,-24.10318756,-27.81967926,-19.81177521,0.017632995,2.149873972,0.071682692,22,290
2020/6/19,15:28:50,22.9025675,120.2728976,19.901,-8,29,12,30,-65,-994,-26.54546356,-23.6710701,-19.90145683,-0.001736255,2.035706282,0.01803913,22,290
2020/6/19,15:28:53,22.9025438,120.2729521,20.105,167,194,231,73,-72,-976,-29.18719482,-18.08531952,-20.10511398,0.083534382,2.029273987,0.030074555,22,290
2020/6/19,15:28:56,22.9025198,120.2729999,20.126,104,-28,-73,111,-69,-1027,-31.85100174,-13.17876816,-20.12697029,0.064273782,2.107199192,0.031435717,22,290
2020/6/19,15:28:59,22.9025035,120.2730341,19.988,-115,-191,871,-46,-124,-951,-33.66437912,-9.672134399,-19.98895073,-0.127095789,-2.700176716,0.209272757,22,290
2020/6/19,15:29:02,22.9024775,120.272998,19.955,20,2,15,-135,-95,-965,-36.5573349,-13.37372208,-19.9550209,-0.164398387,-2.390069723,0.077168822,22,290
2020/6/19,15:29:05,22.9024428,120.2729535,20.263,77,85,62,-183,5,-996,-40.42178345,-17.94147873,-20.26322746,-0.153132975,-2.258962393,0.063323915,22,290
2020/6/19,15:29:08,22.9024101,120.2729109,20.39,-39,-185,2,-137,-72,-937,-44.06561661,-22.30380249,-20.39091492,-0.146752939,-2.164398193,0.003496534,22,290
2020/6/19,15:29:11,22.9023751,120.2728586,19.924,-101,-52,-93,-124,-32,-984,-47.96238327,-27.66939545,-19.92491722,-0.115826227,-2.234404087,0.01265898,22,290
2020/6/19,15:29:14,22.9023472,120.2728178,20.13,-176,156,-64,-121,-2,-1006,-51.06285858,-31.85071564,-20.13032341,-0.093863629,-2.30795002,0.01597308,22,290
2020/6/19,15:29:17,22.9023217,120.2728261,19.82,105,-52,-512,80,83,-984,-53.90925598,-31.00899506,-19.82070923,-0.090839095,1.543437004,-0.059528429,22,290
2020/6/19,15:29:20,22.9023112,120.2728802,19.711,-50,-25,106,28,-8,-1002,-55.072258,-25.45605087,-19.71128845,0.021050453,1.974862933,0.023755286,22,290
2020/6/19,15:29:23,22.9022975,120.2729283,20.037,-54,-26,-24,46,-15,-1003,-56.60325623,-20.52453995,-20.03733444,0.041273989,2.116848946,0.049117178,22,290
2020/6/19,15:29:26,22.9022765,120.2729728,20.162,-20,-66,-44,33,10,-977,-58.93266296,-15.9582901,-20.16273308,0.017699894,1.802878261,-0.054562364,22,290
2020/6/19,15:29:29,22.90226,120.2730299,20.192,34,-101,76,73,22,-995,-60.7690506,-10.11069489,-20.19254875,0.037428048,1.935078382,-0.038805731,22,290
2020/6/19,15:29:32,22.9022439,120.2730815,20.031,-7,98,-11,61,60,-989,-62.56736755,-4.81281662,-20.03140831,0.051921137,1.947703838,-0.037887447,22,290
2020/6/19,15:29:35,22.9022275,120.273134,19.908,-104,-52,-80,22,84,-974,-64.39027405,0.566835403,-19.90806389,0.047402933,1.962183237,-0.046559539,22,290
2020/6/19,15:29:38,22.9022121,120.2731889,19.865,32,229,-12,76,-44,-990,-66.1077652,6.197351456,-19.86591148,0.048979878,2.084505558,0.024379387,22,290
2020/6/19,15:29:41,22.9022239,120.273207,20.317,-54,-253,1026,-51,-74,-927,-64.79375458,8.049892426,-20.31779099,-0.011183009,-2.361403465,0.192970112,22,290
2020/6/19,15:29:44,22.9022781,120.2731978,19.688,107,-74,255,-67,107,-1038,-58.75974274,7.107446671,-19.68894577,-0.158521086,-0.226773456,-0.122954242,22,290
2020/6/19,15:29:47,22.9023294,120.273182,20.052,-47,-119,-25,-92,111,-1034,-53.0443306,5.496023178,-20.05248833,-0.075241469,0.106957145,-0.097099885,22,290
2020/6/19,15:29:50,22.9023875,120.2731777,19.46,-55,-76,-26,-97,171,-955,-46.58155823,5.046920776,-19.46046066,-0.125512287,-0.016230773,-0.141457513,22,290
2020/6/19,15:29:53,22.9024447,120.2731713,19.501,-4,-5,12,-108,114,-979,-40.21628571,4.389997482,-19.50199699,-0.099242605,-0.115248263,-0.145073518,22,290
2020/6/19,15:29:56,22.9025018,120.2731628,19.46,-35,30,-16,-82,156,-980,-33.86102295,3.527355194,-19.4603405,-0.095487691,-0.116425186,-0.16349639,22,290
2020/6/19,15:29:59,22.9025584,120.2731549,19.251,-78,142,55,-85,178,-1026,-27.56074142,2.715888977,-19.25150108,-0.153129861,-0.115061454,-0.145201653,22,290
2020/6/19,15:30:02,22.9026169,120.2731471,19.344,106,-85,-75,-82,187,-1028,-21.03926849,1.91677475,-19.34440041,-0.082018614,-0.115581706,-0.148675993,22,290
2020/6/19,15:30:05,22.9026753,120.2731386,18.923,66,-30,-73,-51,147,-1019,-14.54058456,1.036195755,-18.92345428,-0.087646015,-0.126605511,-0.132974803,22,290
2020/6/19,15:30:08,22.9027383,120.2731293,18.864,-50,-31,54,-87,179,-991,-7.533455372,0.09170723,-18.86429787,-0.074809432,-0.104154721,-0.127470404,22,290
2020/6/19,15:30:11,22.9027923,120.2731215,18.952,-46,326,40,-77,135,-1027,-1.514000416,-0.713665009,-18.95250511,0.085447952,-0.097201414,-0.080055401,22,290
2020/6/19,15:30:14,22.9028021,120.2731178,16.067,-149,119,-49,-47,170,-996,-0.423412323,-1.087501526,-16.06779861,-0.070181906,-0.124519065,-0.06836202,22,290
2020/6/19,15:31:59,22.9028171,120.2731515,15.807,84,-132,18,-117,0,-962,0.099497318,-0.085603714,-15.80765247,-0.171462923,-1.812049866,0.019802267,22,290
2020/6/19,15:32:02,22.9028046,120.2731518,19.855,3,119,-696,-1,-126,-1003,-1.302410603,-0.053945541,-19.85593224,-0.134454891,3.123682022,0.106421366,22,290
2020/6/19,15:32:05,22.9027527,120.273153,20.237,72,13,40,-17,-141,-976,-7.078099251,0.064121246,-20.23786354,-0.029086916,2.950143576,0.140373126,22,290
2020/6/19,15:32:08,22.9027047,120.2731582,19.928,-10,45,53,-1,-154,-1016,-12.41864109,0.602853775,-19.92827034,-0.027485363,3.014032364,0.129986182,22,290
2020/6/19,15:32:11,22.9026534,120.2731639,20.024,10,-34,15,-31,-148,-988,-18.13024521,1.181272507,-20.02421761,-0.027271384,3.094120026,0.13946031,22,290
2020/6/19,15:32:14,22.9026041,120.2731658,20.038,26,14,27,1,-79,-1003,-23.6133728,1.379198074,-20.03818512,-0.024635267,3.017372847,0.101920225,22,290
2020/6/19,15:32:17,22.9025538,120.2731712,20.057,57,-113,-102,-14,-132,-980,-29.21965027,1.928352356,-20.05734444,-0.016942067,3.101379395,0.104516864,22,290
2020/6/19,15:32:20,22.9025049,120.2731736,20.166,-39,-16,-148,-4,-77,-972,-34.65602493,2.183994293,-20.16625595,0.004173135,3.032272577,0.098321356,22,290
2020/6/19,15:32:23,22.9024527,120.2731776,19.932,85,37,105,43,-138,-980,-39.92162323,2.519668579,-19.92864227,-0.03552492,3.01224637,0.087894782,22,290
2020/6/19,15:32:26,22.9023992,120.2731819,20.033,54,-88,44,-21,-22,-981,-46.42866135,3.033849716,-20.03302383,-0.037688062,3.026446581,0.072647162,22,290
2020/6/19,15:32:29,22.9023507,120.2731864,20.171,-48,84,-69,71,-122,-993,-51.826828,3.490903854,-20.17112732,-0.031096976,3.068952799,0.099347427,22,290
2020/6/19,15:32:32,22.9022966,120.2731897,20.203,-133,84,-39,28,-42,-997,-57.84674835,3.833194733,-20.20374107,0.003675899,3.05747962,0.106743112,22,290
2020/6/19,15:32:35,22.9022535,120.2731936,19.925,100,121,62,16,-36,-1010,-62.64344025,4.234424591,-19.92584419,0.056626827,-3.112355709,0.097366132,22,290
2020/6/19,15:32:38,22.9022695,120.2731749,19.972,15,-18,-205,-127,103,-975,-60.85926056,2.315353394,-19.97297478,-0.150699049,-1.143182993,-0.106517896,22,290
2020/6/19,15:32:41,22.9023023,120.2731243,19.914,119,10,162,-73,82,-993,-57.2137146,-2.879816055,-19.91483116,-0.104538091,-0.804839134,-0.054654401,22,290
2020/6/19,15:32:44,22.9023409,120.2730746,20.093,-82,-116,33,-77,155,-908,-52.91431808,-7.977331161,-20.09348679,-0.106529362,-0.673292577,-0.081479616,22,290
2020/6/19,15:32:47,22.9023784,120.273031,20.187,-137,-58,-26,-108,161,-1003,-48.73979568,-12.441576,-20.18776131,-0.108725004,-0.754723728,-0.063457802,22,290
2020/6/19,15:32:50,22.9024165,120.2729877,20.13,61,33,-76,-97,28,-1009,-44.49720383,-16.88642693,-20.13010406,-0.124307029,-0.810493708,-0.085533999,22,290
2020/6/19,15:32:53,22.9024621,120.2729365,20.103,19,-123,19,-92,6,-927,-39.42418289,-22.13672829,-20.10304642,-0.094393201,-0.913072348,-0.079462335,22,290
2020/6/19,15:32:56,22.902499,120.2728897,20.215,-118,-55,130,-117,112,-1000,-35.31779099,-26.93126869,-20.21561813,-0.127224296,-0.844536543,-0.080784619,22,290
2020/6/19,15:32:59,22.9025338,120.2728789,20.294,-125,110,-122,59,68,-970,-31.44061279,-28.04339027,-20.29463196,0.011713739,0.63214314,-0.048167009,22,290
2020/6/19,15:33:02,22.9025721,120.2729144,19.988,-24,84,27,32,27,-975,-27.1791687,-24.39990425,-19.98841667,0.027777374,0.604434967,-0.08393316,22,290
2020/6/19,15:33:05,22.9026165,120.2729502,20.026,-82,-21,142,-14,56,-992,-22.23897552,-20.73014641,-20.02642059,-0.004994628,0.764437973,-0.024220228,22,290
2020/6/19,15:33:08,22.9026587,120.2729874,20.026,-115,-93,-163,-20,-22,-1027,-17.541996,-16.91488075,-20.02622032,0.012363954,0.717333376,-0.010191637,22,290
2020/6/19,15:33:11,22.9026946,120.2730236,20.002,-287,48,34,-50,45,-1003,-13.53868389,-13.2015667,-20.00226593,-0.038330577,0.596590519,-0.048372835,22,290
2020/6/19,15:33:14,22.9027367,120.2730623,20.435,-103,2,95,34,125,-953,-8.851947784,-9.231956482,-20.43570137,-0.005073409,0.556445062,-0.128069654,22,290
2020/6/19,15:33:17,22.9027832,120.273098,19.96,50,25,10,31,32,-1007,-3.681409836,-5.574424744,-19.96059227,0.033869844,0.725580215,-0.07363034,22,290
2020/6/19,15:33:20,22.9028049,120.273117,20.05,-11,114,108,59,96,-958,-1.260907173,-3.622615814,-20.05099297,0.068705097,0.810193419,-0.075666219,22,290
2020/6/19,15:33:23,22.9028054,120.2731178,20.125,-1,-77,-60,148,89,-1029,-1.208362103,-3.541067123,-20.12581444,0.080812231,0.817263007,-0.079315603,22,290
2020/6/19,15:42:24,22.9028268,120.2731369,6.622,-75,28,-109,5,-59,-1011,0.415987968,0.198379517,-6.622068405,0.014535401,3.073966265,0.067612156,22,290
2020/6/19,15:42:27,22.9028257,120.2731378,13.539,-8,71,66,47,-56,-990,0.295441628,0.296974182,-13.53989601,0.006705049,3.063285589,0.077639729,22,290
2020/6/19,15:42:30,22.9028216,120.2731389,19.378,-37,-60,25,68,-99,-917,-0.161467552,0.40574646,-19.37852859,0.006045477,3.124512911,0.144886419,22,290
2020/6/19,15:42:33,22.9027767,120.2731427,20.192,-19,-13,5,-16,-54,-1016,-5.162751198,0.793510437,-20.19223022,-0.075409256,3.110178947,0.11566332,22,290
2020/6/19,15:42:36,22.9026812,120.2731517,20.207,-28,46,131,-37,-92,-1012,-15.78933239,1.713241577,-20.2071743,-0.088602379,3.030112743,0.111696377,22,290
2020/6/19,15:42:39,22.9025564,120.2731638,20.051,-94,59,-19,-102,25,-976,-29.67884445,2.959350586,-20.05171967,-0.114607975,3.064795017,0.062987469,22,290
2020/6/19,15:42:42,22.9024302,120.2731763,20.04,64,-11,287,-27,-62,-959,-43.72659683,4.238422394,-20.04014397,-0.042250764,-2.951429129,0.233697936,22,290
2020/6/19,15:42:45,22.9023238,120.2731186,19.959,79,25,19,-102,-193,-955,-55.5811615,-1.678836823,-19.95982742,-0.190015361,-2.452807188,0.197817743,22,290
2020/6/19,15:42:48,22.9022343,120.2730267,20.37,-51,43,150,-115,0,-983,-65.53807831,-11.09801102,-20.37009811,-0.109715886,-2.247016907,0.141411677,22,290
2020/6/19,15:42:51,22.9022016,120.2729293,20.234,-43,13,174,-199,8,-981,-69.18235016,-21.0873642,-20.23407173,-0.288817972,-1.251634836,0.070747346,22,290
2020/6/19,15:42:54,22.9022561,120.2728139,20.155,-152,-73,-9,-255,48,-983,-63.11217499,-32.92272949,-20.15512276,-0.276133329,-1.058659554,-0.043022823,22,290
2020/6/19,15:42:57,22.9023387,120.2727354,19.92,-65,-130,156,-151,70,-1006,-53.92107391,-40.97520447,-19.92020226,-0.251043826,-0.310149163,-0.005944418,22,290
2020/6/19,15:43:00,22.9024548,120.2727073,20.105,-128,35,49,-114,116,-970,-40.99646378,-43.85657501,-20.10576248,-0.157766685,-0.067889415,-0.088207282,22,290
2020/6/19,15:43:03,22.9025859,120.2726945,20.022,29,-18,4,-163,158,-967,-26.39936066,-45.1665802,-20.02256203,-0.196175441,-0.054413427,-0.15869239,22,290
2020/6/19,15:43:06,22.9027136,120.2726797,20.515,287,-239,5,-170,100,-951,-12.18659115,-46.67868042,-20.51500893,-0.086058646,-0.104521461,-0.108927771,22,290
2020/6/19,15:43:09,22.9027729,120.2726744,20.821,58,67,-34,-16,110,-972,-5.585259438,-47.22220612,-20.82195854,0.064865358,0.274588794,-0.010606197,22,290
2020/6/19,15:43:12,22.9027434,120.2727136,20.166,-49,-21,997,47,-7,-1016,-8.86809063,-43.20870209,-20.16629791,-0.05404336,2.252241373,0.012649624,22,290
2020/6/19,15:43:15,22.9026727,120.2727954,19.872,-55,-62,183,-54,50,-1014,-16.73823547,-34.82358551,-19.87250137,-0.033937685,2.241718292,0.011921023,22,290
2020/6/19,15:43:18,22.9025981,120.272891,19.961,-31,37,10,-26,37,-999,-25.04377747,-25.01687241,-19.9610424,0.083616853,2.237374783,-0.010646104,22,290
2020/6/19,15:43:21,22.9025896,120.2729523,20.142,49,-212,-1389,-6,133,-957,-25.99046707,-18.72499466,-20.14213753,0.078018174,1.177366614,-0.184971556,22,290
2020/6/19,15:43:24,22.9026531,120.2730003,20.09,46,25,0,-33,111,-969,-18.92039108,-13.80590439,-20.09038925,-0.134595633,0.66171211,-0.084376022,22,290
2020/6/19,15:43:27,22.902744,120.2730676,19.98,33,-117,105,-7,143,-972,-8.800549507,-6.907211304,-19.9806118,-0.006443446,0.694347143,-0.015858747,22,290
2020/6/19,15:43:30,22.9028012,120.2731132,19.321,117,-89,31,-4,43,-951,-2.43335247,-2.234714508,-19.32186127,0.059118174,0.77868861,-0.016198486,22,290
2020/6/19,15:43:33,22.9028046,120.2731199,15.193,-146,-150,-32,20,105,-1002,-2.049247742,-1.539093018,-15.1930294,0.051694326,0.8052665,-0.054756641,22,290
2020/6/19,15:45:33,22.9028244,120.2731289,11.046,-75,140,46,-20,-50,-1014,0.274112701,-0.32592392,-11.04638481,0.007245522,-1.918814421,0.046689104,22,290
2020/6/19,15:45:36,22.9028245,120.2731332,17.966,-8,-19,26,-15,-52,-891,0.279456139,0.119510651,-17.96696854,-0.099086158,-1.909496903,0.049945079,22,290
2020/6/19,15:45:39,22.9028233,120.27311,20.066,3,80,16,-74,-92,-981,0.147068024,-2.259552002,-20.06617928,-0.186308041,-1.769451499,0.063424535,22,290
2020/6/19,15:45:42,22.9028156,120.2730528,20.211,-26,-93,6,-141,65,-969,-0.710938454,-8.125301361,-20.21129799,-0.135339022,-1.707861423,0.047636352,22,290
2020/6/19,15:45:45,22.9028039,120.2729867,20.151,-77,46,-100,-26,-98,-1012,-2.011968613,-14.90359497,-20.15176392,-0.076215878,-1.631452322,0.068137974,22,290
2020/6/19,15:45:48,22.9027977,120.2729271,19.897,53,41,79,-57,-29,-977,-2.702487946,-21.01782227,-19.89703941,-0.076188788,-1.678518057,0.094753653,22,290
2020/6/19,15:45:51,22.9027871,120.2728854,19.957,13,20,-1021,49,-30,-1016,-3.880954742,-25.29213715,-19.95780754,-0.094070762,3.007500648,-0.042267777,22,290
2020/6/19,15:45:54,22.9027374,120.2728937,19.862,57,40,56,-4,-67,-998,-9.407835007,-24.43879318,-19.8629303,-0.026365753,2.984025002,0.050293427,22,290
2020/6/19,15:45:57,22.902689,120.2729041,19.986,51,8,30,30,-86,-992,-14.7970295,-23.37903214,-19.98653793,-0.027681846,3.077793121,0.072338574,22,290
2020/6/19,15:46:00,22.9026499,120.2729044,20.177,-114,13,680,-70,-10,-1013,-19.15354156,-23.34401321,-20.17718506,-0.153356448,-2.096466541,0.138308078,22,290
2020/6/19,15:46:03,22.9026419,120.2728563,20.173,-18,-36,113,-61,-48,-957,-20.0459137,-28.27151108,-20.17348671,-0.114983551,-1.782338977,0.042936478,22,290
2020/6/19,15:46:07,22.9026313,120.2727976,20.119,57,-31,123,-115,-49,-985,-21.21875,-34.2915802,-20.1194973,-0.108801574,-1.670826077,0.076983012,22,290
2020/6/19,15:46:10,22.9026235,120.2727346,20.086,-161,202,-269,-71,-56,-1001,-22.08766937,-40.75429535,-20.08642769,0.015175736,-1.770744801,-0.027798433,22,290
2020/6/19,15:46:13,22.9025846,120.2727199,19.757,-10,-22,-160,12,-8,-1028,-26.42107773,-42.26506042,-19.75742149,-0.02782077,2.881181479,-0.000791959,22,290
2020/6/19,15:46:16,22.9025268,120.2727281,19.907,36,-10,121,19,0,-988,-32.85213852,-41.42340851,-19.90725708,-0.001684639,3.028142929,0.049038943,22,290
2020/6/19,15:46:19,22.9024841,120.2727342,20.083,36,-6,-24,74,-79,-958,-37.60691071,-40.79467773,-20.0832119,-0.00601955,-3.121148109,0.056194033,22,290
2020/6/19,15:46:22,22.9024301,120.2727381,20.28,46,341,-110,-23,-88,-1048,-43.61686325,-40.39356995,-20.28009796,0.032224651,-3.112097263,0.092312679,22,290
2020/6/19,15:46:25,22.9024063,120.2727643,19.859,-31,13,58,-63,153,-1045,-46.26633072,-37.71327972,-19.8595562,-0.0881752,1.144864798,-0.159760356,22,290
2020/6/19,15:46:28,22.9024178,120.2728278,20.039,-49,-48,92,-9,148,-984,-44.99021912,-31.20159149,-20.03974152,0.030241992,1.481473327,-0.076704346,22,290
2020/6/19,15:46:31,22.9024223,120.2728806,19.911,6,-82,-59,38,127,-1018,-44.49356461,-25.78831482,-19.9116497,0.048704274,1.530066133,-0.084174924,22,290
2020/6/19,15:46:34,22.9024231,120.2729327,20.12,-34,52,55,83,170,-962,-44.40089417,-20.44420624,-20.12049103,0.024621185,1.390023232,-0.117978849,22,290
2020/6/19,15:46:37,22.9024304,120.272992,19.99,0,-9,-44,134,88,-983,-43.59016418,-14.35735703,-19.99030113,0.082422696,1.573932648,-0.043049455,22,290
2020/6/19,15:46:40,22.9024323,120.2730452,20.06,192,-23,-77,86,7,-985,-43.37284851,-8.910003662,-20.06066322,0.044790745,1.528556228,-0.057621259,22,290
2020/6/19,15:46:43,22.9024366,120.273101,20.053,-74,12,-17,39,35,-1002,-42.89705658,-3.186130524,-20.05324745,0.065013349,1.516317725,-0.01657936,22,290
2020/6/19,15:46:46,22.9024404,120.2731503,19.936,47,-76,-1184,-30,75,-1021,-42.47142792,1.873458862,-19.93645096,0.033648867,0.653695822,-0.205192044,22,290
2020/6/19,15:46:49,22.9024841,120.2731538,20.126,93,-52,6,-42,96,-998,-37.61287308,2.226135254,-20.12681007,-0.065702155,-0.130896062,-0.051249702,22,290
2020/6/19,15:46:52,22.9025402,120.2731485,19.737,0,-22,-41,-149,113,-986,-31.36895752,1.691352844,-19.73715591,-0.123717934,-0.136208147,-0.103868872,22,290
2020/6/19,15:46:55,22.9025937,120.2731395,19.796,24,17,105,-73,69,-990,-25.40966034,0.765136719,-19.7963295,-0.105535418,-0.016339084,-0.045878999,22,290
2020/6/19,15:46:58,22.9026513,120.2731353,19.723,-134,56,-94,-86,39,-1003,-19.48983765,0.342212677,-19.7255249,-0.087799177,-0.025923483,-0.077910714,22,290
2020/6/19,15:47:01,22.9027023,120.2731307,19.61,-20,29,-96,-56,73,-989,-13.3180542,-0.143035889,-19.61011124,-0.076256126,-0.081764109,-0.062072571,22,290
2020/6/19,15:47:04,22.9027574,120.2731257,19.619,-137,125,-1,-49,13,-980,-7.189167023,-0.656169891,-19.61901665,-0.107180588,-0.101894282,-0.02438603,22,290
2020/6/19,15:47:07,22.9028043,120.2731193,18.959,361,-194,182,-65,86,-958,-1.968641281,-1.308807373,-18.95975113,0.083684251,-0.055002492,0.01773235,22,290
2020/6/19,15:48:34,22.9028325,120.2731374,17.597,-94,-15,-47,-26,-18,-935,0.220306396,0.304317474,-17.59710884,-0.028268605,-1.578744769,0.020258261,24,290
2020/6/19,15:48:37,22.9028294,120.2731209,19.945,-52,120,132,-66,28,-987,-0.126375198,-1.388912201,-19.94517517,-0.120212987,-1.718496442,0.036293581,24,290
2020/6/19,15:48:40,22.9028224,120.2730594,20.169,130,49,-41,-74,-2,-1003,-0.909093857,-7.691356659,-20.16901207,-0.100211024,-1.78034544,-0.00999301,24,290
2020/6/19,15:48:43,22.9028141,120.2730042,20.228,37,-150,-224,-109,18,-1036,-1.829982758,-13.35485077,-20.22852516,-0.1220221,-1.801814437,-0.041549988,24,290
2020/6/19,15:48:46,22.9028042,120.2729382,19.684,-4,-28,12,-96,-20,-989,-2.937065125,-20.12380981,-19.6843586,-0.091455974,-1.716445446,0.026065025,24,290
2020/6/19,15:48:49,22.9027974,120.2728792,20.073,81,-12,-1,-28,5,-995,-3.689374924,-26.17631912,-20.07353592,-0.073405109,-1.781055808,-0.000884173,24,290
2020/6/19,15:48:52,22.9027885,120.2728239,20.14,-50,42,28,-134,-9,-1036,-4.682849884,-31.84814072,-20.14047241,-0.100766227,-1.700034261,0.02982213,24,290
2020/6/19,15:48:55,22.9027706,120.2728084,19.754,-31,23,94,-38,12,-1008,-6.675697327,-33.4368782,-19.7547245,-0.105886534,2.412442446,0.013636441,24,290
2020/6/19,15:48:58,22.9027288,120.2728385,19.962,-18,-16,-159,19,-5,-973,-11.3238678,-30.35074234,-19.96276855,-0.049879093,2.578335762,0.024232578,24,290
2020/6/19,15:49:01,22.9026846,120.2728686,19.991,-32,-17,-9,3,22,-990,-16.25061035,-27.25613022,-19.99198914,-0.029069811,2.531801701,0.007900059,24,290
2020/6/19,15:49:04,22.9026379,120.2729,20.005,-108,49,225,-63,15,-1006,-21.44556999,-24.03937149,-20.0059185,-0.069533288,-2.863445282,0.138463691,24,290
2020/6/19,15:49:07,22.902594,120.2728859,20.198,-128,-90,-88,-56,-42,-1013,-25.89208031,-25.35123444,-20.21519089,-0.110409945,-2.858947992,0.039534878,24,290
2020/6/19,15:49:10,22.9025415,120.2728691,20.032,82,34,143,-87,-9,-953,-32.17772675,-27.2093811,-20.03292465,-0.0428119,-2.811056376,0.092755087,24,290
2020/6/19,15:49:13,22.9025171,120.2728769,19.937,70,100,-963,96,-19,-1041,-34.89845276,-26.41152573,-19.93739319,-0.034185942,1.432740927,-0.097621053,24,290
2020/6/19,15:49:16,22.9025236,120.272938,19.813,48,-29,175,47,48,-1016,-34.16963196,-20.14040375,-19.81334686,0.030522283,1.479938745,-0.048256703,24,290
2020/6/19,15:49:19,22.9025285,120.2729915,20.009,46,-45,13,85,0,-995,-33.62850952,-14.65425873,-20.00955963,0.051219583,1.626346946,-0.032213725,24,290
2020/6/19,15:49:22,22.9025288,120.2730221,20.012,99,-132,-1035,-20,156,-975,-33.58690643,-11.5180397,-20.01209641,-0.057708196,0.536451221,-0.125698805,24,290
2020/6/19,15:49:25,22.9025659,120.2730406,20.102,-59,-184,-26,-77,163,-916,-29.4606266,-9.619709015,-20.10255241,-0.087054454,0.170323595,-0.160157755,24,290
2020/6/19,15:49:28,22.9026186,120.2730546,20.385,-78,98,-42,-70,143,-1075,-23.59876823,-8.185310364,-20.38584328,-0.040462904,0.282097459,-0.058968466,24,290
2020/6/19,15:49:31,22.9026708,120.2730694,19.536,51,33,-61,0,32,-998,-17.7838707,-6.674995422,-19.53647614,-0.054993596,0.497315168,-0.035246115,24,290
2020/6/19,15:49:34,22.9027171,120.2730896,19.411,-73,27,-5,-48,92,-991,-12.62834167,-4.60326004,-19.41183472,-0.084288441,0.327494949,-0.051017914,24,290
2020/6/19,15:49:37,22.90277,120.2731106,19.66,29,36,-22,-55,76,-968,-6.736249924,-2.441875458,-19.66017723,-0.046785098,0.230802804,-0.102642089,24,290
2020/6/19,15:49:40,22.9028027,120.2731195,18.844,-66,-18,-28,4,83,-881,-3.100540161,-1.528038025,-18.84458923,0.013175039,0.231481165,-0.101922952,24,290
2020/6/19,15:59:19,22.9028242,120.2731318,18.317,18,-77,11,75,-39,-855,-0.049495459,0.037988663,-18.31783676,0.081703976,2.653668642,0.073316798,24,290
2020/6/19,15:59:22,22.9027957,120.2731242,20.112,-33,49,-90,-8,-83,-1012,-3.227291346,-0.740711212,-20.11254311,-0.053718198,-3.084195137,0.067603998,24,290
2020/6/19,15:59:25,22.9027375,120.273115,20.063,-9,43,133,7,-37,-990,-9.108392715,-1.639514923,-20.07213593,-0.016650822,-3.10363555,0.049177755,24,290
2020/6/19,15:59:28,22.9026831,120.2731113,19.974,111,-8,176,33,-42,-993,-15.75557518,-2.066085815,-19.9746418,-0.041767981,-2.890458822,0.08066532,24,290
2020/6/19,15:59:31,22.9026351,120.2731012,20.115,24,10,-65,-42,-10,-999,-21.1057148,-3.105688095,-20.11598778,-0.056353334,-2.954236031,0.029134158,24,290
2020/6/19,15:59:34,22.9025836,120.2730944,20.187,66,167,49,18,-86,-1005,-26.83165359,-3.798254013,-20.18765831,-0.077177875,-2.909726858,0.106241196,24,290
2020/6/19,15:59:37,22.9025252,120.2730819,20.09,150,61,6,-25,-18,-994,-33.33462524,-5.085039139,-20.09015465,-0.096394278,-3.013693333,0.052182481,24,290
2020/6/19,15:59:40,22.9024668,120.2730723,19.936,-57,35,-24,4,-43,-1011,-39.8333168,-6.070211411,-19.93651199,-0.032424275,-2.988641739,0.031869013,24,290
2020/6/19,15:59:43,22.9024118,120.2730671,20.234,260,228,1016,-42,-70,-996,-45.96149826,-6.599327087,-20.23399925,0.03794156,-2.528138638,0.243463069,24,290
2020/6/19,15:59:46,22.9024172,120.2730378,20.399,-23,13,12,-158,98,-967,-45.36092377,-9.601213455,-20.39971352,-0.201161534,-1.348976851,-0.039122511,24,290
2020/6/19,15:59:49,22.9024347,120.2729744,20.27,5,-63,109,-124,60,-983,-43.40555573,-16.10754204,-20.27011681,-0.149266779,-1.033571243,0.007095131,24,290
2020/6/19,15:59:52,22.9024561,120.2729149,19.805,28,-16,71,-116,49,-981,-41.02878189,-22.20668602,-19.80579376,-0.132003963,-0.910341918,0.002316627,24,290
2020/6/19,15:59:55,22.9024774,120.2728588,20.248,-2,-148,-57,-155,66,-943,-38.64990616,-27.95601463,-20.24806023,-0.154183224,-0.846636295,0.012905397,24,290
2020/6/19,15:59:58,22.9025036,120.2728079,20.23,87,10,-14,-56,-49,-942,-35.74054337,-33.18055725,-20.23018837,-0.104453489,-1.102789521,-0.041371576,24,290
2020/6/19,16:00:01,22.9025267,120.2727475,20.184,-33,-36,2,-105,100,-970,-33.16851807,-39.36974335,-20.18451881,-0.076230749,-1.059512854,-0.00761059,24,290
2020/6/19,16:00:04,22.9025432,120.2727127,19.914,-92,2,832,-39,105,-1018,-31.33063316,-42.94407654,-19.91486931,-0.186070591,0.477426201,0.039930645,24,290
2020/6/19,16:00:07,22.9025751,120.2727471,19.962,57,-65,90,-70,88,-988,-27.78194809,-39.4119873,-19.96298218,-0.024673916,0.611155212,-0.048629224,24,290
2020/6/19,16:00:10,22.9026122,120.2727772,20.059,-32,-33,24,-42,74,-966,-23.64710045,-36.325737,-20.05904007,-0.074765325,0.866698384,-0.022330388,24,290
2020/6/19,16:00:13,22.9026452,120.2728161,20.176,-27,-2,-60,-57,45,-1001,-19.97776985,-32.33332825,-20.17643929,-0.07158678,0.781710148,-0.067073718,24,290
2020/6/19,16:00:16,22.9026803,120.2728525,20.324,20,-68,11,-34,57,-988,-16.04830742,-28.58514977,-20.32263565,-0.059902839,0.727335334,-0.091319166,24,290
2020/6/19,16:00:19,22.9027141,120.2728867,20.442,139,-64,284,-73,80,-999,-12.30559254,-25.09438515,-20.44226837,-0.060488708,0.78785634,-0.063152261,24,290
2020/6/19,16:00:22,22.9027374,120.2729396,19.98,109,-109,88,-64,157,-1016,-9.707590103,-19.6687336,-19.98039055,-0.018606164,1.05775702,-0.119406767,24,290
2020/6/19,16:00:25,22.9027554,120.2729882,20.022,10,-50,72,-3,166,-943,-7.703660011,-14.69191551,-20.02285576,0.001429485,1.080831647,-0.114736117,24,290
2020/6/19,16:00:28,22.9027747,120.2730375,19.989,-44,13,-26,-2,131,-1009,-5.561833382,-9.634206772,-19.98912621,0.009203481,1.121516824,-0.074004523,24,290
2020/6/19,16:00:31,22.9027913,120.2730879,20.159,0,-100,103,7,80,-961,-3.711383104,-4.464929581,-20.15942574,-0.000577632,1.082216024,-0.074966826,24,290
2020/6/19,16:00:34,22.9028045,120.2731215,19.197,-37,-135,-56,16,96,-924,-2.24384284,-1.021213531,-19.17568779,0.047375917,1.081480742,-0.059764396,24,290
2020/6/19,16:02:05,22.9028093,120.2731331,17.506,-21,-15,26,12,-99,-863,-0.055953503,0.032737732,-17.50667763,0.004770931,-2.492952585,0.114783265,24,290
2020/6/19,16:02:08,22.902809,120.273116,19.922,78,0,64,-59,-122,-999,-0.10003233,-1.719923019,-19.92244911,-0.203155369,-1.813546181,0.091097727,24,290
2020/6/19,16:02:11,22.902803,120.2730537,20.158,53,20,150,-101,-27,-1034,-0.758749008,-8.105930328,-20.1582737,-0.083608888,-1.795070648,0.046911694,24,290
2020/6/19,16:02:14,22.9027937,120.2729933,20.144,-23,-26,-4,-118,19,-1018,-1.800570965,-14.30044937,-20.14496994,-0.114237227,-1.614094138,0.014318428,24,290
2020/6/19,16:02:17,22.9027879,120.2729347,19.983,40,-57,-112,-64,0,-992,-2.439466476,-20.31124115,-19.98375511,-0.09601035,-1.583224654,0.029220972,24,290
2020/6/19,16:02:20,22.9027847,120.2728744,19.836,-89,-68,61,-108,9,-978,-2.804645538,-26.49258423,-19.83669281,-0.079446062,-1.752598524,0.010067876,24,290
2020/6/19,16:02:23,22.9027779,120.2728176,19.965,79,-9,19,-30,-67,-988,-3.558023453,-32.31983948,-19.9653511,-0.075736552,-1.702360034,0.006628559,24,290
2020/6/19,16:02:26,22.9027707,120.2727581,19.972,-23,140,78,-60,5,-1010,-4.357935905,-38.42261505,-19.97250748,0.058651127,-1.576357007,0.054948591,24,290
2020/6/19,16:02:29,22.9027577,120.2727666,19.754,113,-5,-996,-18,-41,-1012,-5.800496101,-37.54757309,-19.75402069,-0.053623792,3.102439642,-0.050514877,24,290
2020/6/19,16:02:32,22.9027295,120.272818,19.978,50,-15,62,65,-39,-971,-8.960206032,-32.2465744,-19.97833443,0.020639524,2.187541962,0.045675732,24,290
2020/6/19,16:02:35,22.9027014,120.2728613,20.042,-48,-75,-11,45,-3,-1005,-12.067523,-27.83304977,-20.04261017,0.014519261,2.163944244,0.014567839,24,290
2020/6/19,16:02:38,22.9026673,120.2729102,20.052,43,-12,-56,51,-35,-971,-15.86802578,-22.82246399,-20.05221939,0.014749665,2.060797215,0.002360212,24,290
2020/6/19,16:02:41,22.9026367,120.2729585,20.047,9,128,185,38,26,-987,-19.27186584,-17.87126541,-20.04738045,0.126997054,2.067144394,-0.013528503,24,290
2020/6/19,16:02:44,22.9026235,120.2729566,20.134,55,140,-26,-62,-107,-993,-20.74879837,-18.06096649,-20.13459587,-0.191190377,-2.222873211,0.090466,24,290
2020/6/19,16:02:47,22.9025867,120.272905,19.94,-22,29,0,-85,-77,-998,-24.83584595,-23.35003662,-19.94003677,-0.070504457,-2.338240623,0.108949102,24,290
2020/6/19,16:02:50,22.902547,120.272858,19.964,-47,31,43,-81,-56,-984,-29.25645447,-28.1782341,-19.96474075,-0.125094011,-2.153831244,0.114781022,24,290
2020/6/19,16:02:53,22.9025128,120.2728086,20.215,-168,-131,28,-62,-77,-992,-33.06263351,-33.24338531,-20.21505737,-0.099599041,-2.242903471,0.04398784,24,290
2020/6/19,16:02:56,22.9024966,120.2727964,19.907,43,-59,-1112,0,-44,-1004,-34.87229919,-34.49443054,-19.90721512,0.030819576,-2.977805376,-0.029796999,24,290
2020/6/19,16:02:59,22.9024981,120.2728493,19.89,13,-33,63,28,44,-1008,-34.70008469,-29.06298447,-19.89057159,0.016539529,1.384899974,-0.059415203,24,290
2020/6/19,16:03:02,22.9025043,120.2729054,20.017,-20,-44,-13,6,66,-988,-34.01077652,-23.31821442,-20.01759338,0.006212691,1.586787581,-0.047267769,24,290
2020/6/19,16:03:05,22.9025029,120.2729618,20.052,-60,-17,-99,-15,72,-987,-34.17029953,-17.52570724,-20.05241203,-0.014682596,1.428972006,-0.061424378,24,290
2020/6/19,16:03:08,22.9025044,120.2730179,19.995,53,-2,-29,13,49,-1008,-34.00303268,-11.77602005,-19.99570084,-0.030500652,1.434497237,-0.055131335,24,290
2020/6/19,16:03:11,22.9025056,120.2730776,20.124,-17,-42,0,-87,78,-1023,-33.86901855,-5.657403946,-20.12423706,-0.055272412,1.423551321,-0.061902497,24,290
2020/6/19,16:03:14,22.9025089,120.2731388,20.057,-71,150,-831,-46,12,-1009,-33.49597549,0.622119904,-20.05758095,0.063510381,1.12594831,-0.161572888,24,290
2020/6/19,16:03:17,22.902547,120.273149,20.154,-35,19,-71,-125,52,-974,-29.26220322,1.662986755,-20.15460014,-0.104532696,-0.251241416,-0.059342701,24,290
2020/6/19,16:03:20,22.9026012,120.2731412,19.978,21,14,85,-101,62,-1033,-23.22192001,0.869440079,-19.97841072,-0.110741012,-0.147723079,-0.041925691,24,290
2020/6/19,16:03:23,22.9026491,120.2731357,19.73,-21,36,125,-59,66,-988,-17.89567184,0.299009323,-19.73064232,-0.127193108,-0.082674086,-0.051697083,24,290
2020/6/19,16:03:26,22.9027006,120.2731308,19.798,-99,-25,46,-147,112,-976,-12.16296482,-0.199541092,-19.79804802,-0.137437403,-0.13814415,-0.044010155,24,290
2020/6/19,16:03:29,22.9027591,120.2731281,19.59,-39,-210,-54,-104,65,-879,-5.651071548,-0.472980499,-19.59044266,-0.116401635,-0.229742289,-0.105934262,24,290
2020/6/19,16:03:32,22.9028035,120.2731197,19.358,131,-17,-6,-70,76,-913,-0.710590363,-1.341604233,-19.35802078,0.018111452,-0.291347712,-0.019446548,24,290
2020/6/19,16:13:18,22.9028194,120.2731402,0.018,12,-3,-1,-27,30,-995,-0.022562504,0.075958252,-0.018979788,-0.051132049,-1.713066697,-0.011539514,24,290
2020/6/19,16:13:21,22.902816,120.2731421,0.16,1243,-61,655,-17,-169,-1078,-0.409139633,0.275125504,-0.160458088,-0.029018216,-1.83649683,-0.430443764,24,290
2020/6/19,16:13:24,22.9027478,120.2731489,3.544,-64,-44,345,-26,-24,-998,-8.000872612,0.966957092,-3.544774532,-0.068926059,2.970098972,0.051370807,24,290
2020/6/19,16:13:27,22.9026515,120.2731554,8.429,-35,-28,-23,13,-40,-989,-18.71907616,1.632129669,-8.429720879,-0.078526028,3.02789402,0.044476923,24,290
2020/6/19,16:13:30,22.9025358,120.2731709,13.6,72,-34,43,-77,-87,-963,-31.60088158,3.223731995,-13.60086918,-0.0512909,3.076202869,0.137646809,24,290
2020/6/19,16:13:33,22.90242,120.2731814,18.468,12,283,55,-39,-50,-936,-44.49135208,4.296926498,-18.46816063,-0.048648201,3.11137414,0.108340435,24,290
2020/6/19,16:13:36,22.9023554,120.27316,20.131,-138,-94,255,-93,-18,-926,-51.67747879,2.109466553,-20.13190842,-0.238572538,-1.795970917,0.129184902,24,290
2020/6/19,16:13:39,22.9023526,120.2730616,20.454,-37,114,70,-132,-14,-979,-51.99572754,-7.980855942,-20.45422935,-0.233753562,-1.605992794,0.03456955,24,290
2020/6/19,16:13:42,22.9023501,120.272952,20.197,46,-89,631,-176,57,-1044,-52.27358627,-19.22436333,-20.19776726,-0.07521686,-1.227754831,0.137957111,24,290
2020/6/19,16:13:45,22.9024003,120.2729348,19.647,4,12,25,-100,94,-996,-46.68669891,-20.98917198,-19.64710999,-0.229054987,-0.025022369,-0.135006368,24,290
2020/6/19,16:13:48,22.9025065,120.2729368,20.066,-57,84,-78,-172,202,-962,-34.85622787,-20.7806797,-20.06687927,-0.142907038,0.023101721,-0.143937096,24,290
2020/6/19,16:13:51,22.9025664,120.2729131,20.368,3,-79,41,-136,153,-970,-28.40206146,-22.50670433,-20.33054352,-0.068209499,-0.403421223,-0.153153807,24,290
2020/6/19,16:13:54,22.9025572,120.2728522,20.632,-96,-53,121,-111,3,-970,-29.21424675,-29.45328712,-20.63271523,-0.22684665,-1.608056426,0.079791129,24,290
2020/6/19,16:13:57,22.9025511,120.2727579,20.583,81,58,612,-125,-2,-998,-29.897295,-39.12163544,-20.58312035,-0.035044849,-1.292707682,0.154636368,24,290
2020/6/19,16:14:00,22.9025931,120.2727453,19.714,83,-33,42,-122,86,-991,-25.22275162,-40.42077637,-19.71408463,-0.205678388,-0.099025831,-0.093669794,24,290
2020/6/19,16:14:03,22.9026928,120.272745,20.049,44,79,394,-82,102,-988,-14.12109566,-40.44898987,-20.04993057,0.00576289,0.138831124,-0.043027014,24,290
2020/6/19,16:14:06,22.9027127,120.2727886,20.282,25,53,9,63,29,-999,-11.90036488,-35.97413635,-20.28219986,-0.053319983,1.511896133,-0.038754802,24,290
2020/6/19,16:14:09,22.9027078,120.2728821,19.935,-28,68,-370,-12,42,-998,-12.45381165,-26.38717079,-19.93523788,0.059105694,1.237918615,-0.174135894,24,290
2020/6/19,16:14:12,22.9027619,120.2729312,20.038,14,30,-61,-105,123,-990,-6.429298401,-21.35282707,-20.03823853,-0.179788977,0.035604104,-0.15523456,24,290
2020/6/19,16:14:15,22.9028154,120.2729503,20.386,-82,-164,278,-19,117,-986,-0.473846197,-19.3972683,-20.38611221,7.21e-05,0.399293184,0.029225897,24,290
2020/6/19,16:14:18,22.9028035,120.2730258,19.745,-59,32,-125,32,42,-982,-1.803238153,-11.65146446,-19.74518013,-0.040504444,1.574324369,-0.048120238,24,290
2020/6/19,16:14:21,22.9028015,120.273114,19.795,-32,93,26,43,130,-978,-2.025471449,-2.61300087,-19.79580116,0.24222061,1.250887394,-0.163216546,24,290
2020/6/19,16:14:24,22.902808,120.2731176,16.666,-56,31,-5,73,94,-977,-1.292092085,-2.238685608,-16.66664505,0.041506119,1.297759652,-0.037567846,24,290
2020/6/19,16:14:27,22.9028027,120.2731188,12.111,56,94,13,74,69,-1000,-1.882232904,-2.121341705,-12.1111002,0.064940147,1.349354744,-0.052176349,24,290
2020/6/19,16:14:30,22.9028028,120.2731203,9.173,40,3,15,127,81,-965,-1.877285242,-1.963006973,-9.173452377,0.064152613,1.311158776,-0.064742081,24,290
2020/6/19,16:14:33,22.9028042,120.2731191,7.494,-56,7,45,41,80,-995,-1.720591307,-2.090852737,-7.494527817,0.034070149,1.326486588,-0.034023199,24,290
2020/6/19,16:14:36,22.9028016,120.2731195,6.182,119,-55,-89,72,40,-967,-2.007437468,-2.050397873,-6.182113171,-0.012061261,1.277133346,-0.100293398,24,290
2020/6/19,16:14:39,22.9028047,120.2731202,4.66,9,75,4,30,96,-1003,-1.668306112,-1.976028442,-4.660852432,-0.00035625,1.299545765,-0.044962868,24,290
2020/6/19,16:14:42,22.9028035,120.2731192,3.064,53,129,37,-38,120,-1024,-1.79755044,-2.078344345,-3.064726353,-0.017148837,1.298888683,-0.082248032,24,290
2020/6/19,16:14:45,22.9028052,120.2731212,1.579,28,-98,80,33,63,-978,-1.609257936,-1.873048782,-1.579615831,0.030710641,1.296085119,-0.026107665,24,290
2020/6/19,16:15:47,22.9027791,120.2731111,20.034,67,79,-10,-16,-23,-1007,-4.544092178,-5.276163101,-20.03481102,-0.082648359,-2.522447586,0.059195448,24,290
2020/6/19,16:15:50,22.9027411,120.2730709,20.029,-60,-4,-36,-29,-11,-974,-8.777194977,-9.394412994,-20.0294075,-0.067302033,-2.340711117,0.049229309,24,290
2020/6/19,16:15:53,22.902703,120.2730289,20.098,-26,-10,-60,-22,-49,-978,-13.01506042,-13.70975494,-20.09894943,-0.086957842,-2.289405346,0.049048632,24,290
2020/6/19,16:15:56,22.9026704,120.272988,19.976,-60,-109,1153,-62,1,-996,-16.65009499,-17.90370178,-19.97698212,-0.043642811,-1.362471461,0.16772458,24,290
2020/6/19,16:15:59,22.9027033,120.2729615,20.021,20,43,62,-90,41,-979,-12.98287582,-20.6159668,-20.02122688,-0.094945394,-0.746933281,-0.026702419,24,290
2020/6/19,16:16:02,22.9027436,120.2729257,20.108,-38,-76,62,-122,97,-988,-8.493812561,-24.28796387,-20.10840607,-0.107505709,-0.564627826,-0.020878501,24,290
2020/6/19,16:16:05,22.9027895,120.2728919,20.077,-163,157,-94,-51,58,-952,-3.388893604,-27.75600052,-20.07714272,-0.079606228,-0.639992714,-0.066040441,24,290
2020/6/19,16:16:08,22.9028003,120.2728354,20.219,33,-26,-82,-88,32,-1008,-2.190894127,-33.55024719,-20.21936035,-0.094929643,-1.623690009,0.004242671,24,290
2020/6/19,16:16:11,22.9027981,120.272777,19.896,88,36,13,-45,5,-983,-2.432209015,-39.53089905,-19.89605904,-0.099961549,-1.739149451,-0.013690335,24,290
2020/6/19,16:16:14,22.9027906,120.272719,19.882,-100,265,-101,-82,-19,-1002,-3.271732807,-45.47940445,-19.88262558,-0.035890259,-1.603107691,0.005251068,24,290
2020/6/19,16:16:17,22.9027591,120.2727081,19.866,54,54,-49,0,-68,-994,-6.770656109,-46.59745407,-19.8668499,-0.08472205,2.977438211,0.016370831,24,290
2020/6/19,16:16:20,22.9027025,120.2727173,19.908,34,63,97,-27,-36,-999,-13.06963158,-45.65758896,-19.90836334,-0.007232843,2.930448055,0.045866944,24,290
2020/6/19,16:16:23,22.9026526,120.2727263,20.068,-52,-59,16,-35,-3,-1008,-18.6309948,-44.7336998,-20.06871605,-0.037068643,2.93510294,0.009657895,24,290
2020/6/19,16:16:26,22.9026071,120.2727358,20.036,-5,13,55,-51,-7,-1007,-23.6984272,-43.76046371,-20.03682327,-0.051722728,2.959337473,0.03268924,24,290
2020/6/19,16:16:29,22.9025489,120.2727469,20.008,-2,-15,-65,-32,-49,-997,-30.17708206,-42.62109756,-20.00868034,-0.023108555,2.969400644,0.035738673,24,290
2020/6/19,16:16:32,22.9024954,120.2727599,20.148,-312,211,-1113,11,24,-982,-36.13310242,-41.29336166,-20.14846611,-0.083889052,1.544933319,-0.165593386,24,290
2020/6/19,16:16:35,22.902496,120.2728169,20.069,-27,-22,56,-75,102,-1010,-36.06277466,-35.44008255,-20.06937218,-0.065686241,1.468069553,-0.053845797,24,290
2020/6/19,16:16:38,22.9024995,120.2728795,20.191,50,-109,120,45,80,-971,-35.66963196,-29.02853012,-20.19104576,-0.041300073,1.521918654,-0.072296746,24,290
2020/6/19,16:16:41,22.9025004,120.2729423,19.822,22,7,-23,103,104,-943,-35.57244873,-22.58247375,-19.8224678,0.033683568,1.38774848,-0.118307523,24,290
2020/6/19,16:16:44,22.9025021,120.2730031,19.86,-47,13,49,52,166,-981,-35.38198471,-16.3504982,-19.8602562,0.057007886,1.358944058,-0.138640702,24,290
2020/6/19,16:16:47,22.9025034,120.2730608,19.853,79,-71,-84,77,152,-1055,-35.23818588,-10.43835068,-19.85397911,0.068063952,1.358443499,-0.149168089,24,290
2020/6/19,16:16:50,22.9025056,120.2731216,20.057,68,9,37,81,142,-982,-34.99117279,-4.202777863,-20.05721283,0.06747476,1.371753573,-0.14899309,24,290
2020/6/19,16:16:53,22.9025231,120.2731492,19.981,313,25,-73,-134,179,-985,-33.04793549,-1.363986969,-19.98138428,-0.197002307,0.052018154,-0.193250388,24,290
2020/6/19,16:16:56,22.9025808,120.2731461,19.881,-62,-24,-144,-125,179,-963,-26.61687469,-1.688243866,-19.88181877,-0.132950634,-0.090729333,-0.157309562,24,290
2020/6/19,16:16:59,22.9026337,120.2731376,19.945,23,24,75,-100,113,-984,-20.73213959,-2.555246353,-19.94528389,-0.122346886,0.029543202,-0.089256458,24,290
2020/6/19,16:17:02,22.9026845,120.2731331,19.71,-80,-47,0,-150,201,-977,-15.51231384,-3.01366806,-19.73777008,-0.146232292,-0.01609274,-0.105864458,24,290
2020/6/19,16:17:05,22.9027304,120.2731286,19.839,-74,7,30,-165,157,-995,-9.968200684,-3.482879639,-19.83930588,-0.156016856,-0.102798738,-0.084197454,24,290
2020/6/19,16:17:08,22.9027902,120.2731244,19.598,-45,142,-25,-155,107,-975,-3.31499052,-3.915765762,-19.59863663,-0.100665331,-0.230114728,-0.121301509,24,290
2020/6/19,16:19:25,22.902804,120.2731202,17.915,112,74,76,-45,-32,-891,-0.007506847,0.466680527,-17.91524887,-0.047188748,-1.935426474,0.019359779,24,290
2020/6/19,16:19:28,22.9028023,120.2730939,20.157,87,-111,-60,-49,-54,-988,-0.189414501,-2.228290558,-20.15711594,-0.095707528,-1.596763372,0.035887539,24,290
2020/6/19,16:19:31,22.9027999,120.2730353,20.219,67,15,78,-34,-8,-998,-0.466964245,-8.244218826,-20.21942139,-0.077321887,-1.630077004,0.019489018,24,290
2020/6/19,16:19:34,22.9027937,120.2729756,19.84,75,-4,145,-50,12,-964,-1.1540308,-14.3561306,-19.84025574,-0.084541246,-1.46861279,0.090081058,24,290
2020/6/19,16:19:37,22.9027956,120.2729207,19.936,-86,-46,-132,-79,-21,-1002,-0.938211918,-19.99509239,-19.93658638,-0.104387872,-1.650218725,-0.014817375,24,290
2020/6/19,16:19:40,22.9027908,120.2728666,19.904,-44,-47,30,-59,-38,-974,-1.472671032,-25.53825569,-19.90459251,-0.077792503,-1.522642493,0.032830346,24,290
2020/6/19,16:19:43,22.9027893,120.2728081,20.007,-187,-54,-140,-121,-6,-989,-1.643885612,-31.53549767,-20.00732613,-0.121767811,-1.578325391,0.040240545,24,290
2020/6/19,16:19:46,22.9027873,120.2727606,20.06,37,-75,-1303,-70,-98,-976,-1.865278721,-36.40483856,-20.06096077,0.034153603,-1.895892501,0.010422313,24,290
2020/6/19,16:19:49,22.9027542,120.27278,20.031,0,-17,98,77,65,-975,-5.552992821,-34.41696167,-20.03154945,0.020222645,2.216948271,-0.014311924,24,290
2020/6/19,16:19:52,22.9027175,120.2728179,19.988,-54,-38,-8,26,35,-975,-9.631921768,-30.53045845,-19.9881649,0.006845236,2.59756422,0.013357826,24,290
2020/6/19,16:19:55,22.9026821,120.2728463,20.051,5,-18,-82,-24,29,-1024,-13.57527733,-27.61497307,-20.05169487,-0.009991137,2.59861064,0.026307818,24,290
2020/6/19,16:19:59,22.9026395,120.2728784,20.008,5,-1,0,-9,-21,-1007,-18.31752396,-24.32880974,-20.00879669,-0.012948014,2.512902021,0.013251258,24,290
2020/6/19,16:20:02,22.9026147,120.2729247,20.142,161,74,-290,0,42,-1003,-21.07567406,-19.58127785,-20.14291,-0.057600416,1.509174347,-0.036042374,24,290
2020/6/19,16:20:05,22.9026199,120.2729941,20.058,58,78,-13,-3,34,-1008,-20.49580956,-12.46222496,-20.05886459,-0.011220289,1.48868525,-0.026180398,24,290
2020/6/19,16:20:08,22.9026468,120.2730426,20.124,-94,148,-273,-9,173,-919,-17.49949646,-7.488634109,-20.12418938,-0.066019639,0.437761664,-0.110874534,24,290
2020/6/19,16:20:11,22.902695,120.273066,20.032,56,49,-93,-44,104,-1004,-12.13469696,-5.086788177,-20.03201675,-0.050377287,0.403315097,-0.089120671,24,290
2020/6/19,16:20:14,22.9027428,120.2730884,19.814,30,-62,163,-24,89,-1016,-6.821084976,-2.799304962,-19.81472969,-0.06370645,0.490052849,-0.072599031,24,290
2020/6/19,16:20:17,22.9027859,120.2731103,19.838,68,115,-4,3,4,-1013,-2.021436691,-0.548545837,-19.8387146,-0.03246766,0.468077153,-0.05992182,24,290
2020/6/19,16:20:20,22.902804,120.2731179,17.33,-233,380,-78,50,75,-1084,-0.007749557,0.228700638,-17.33048439,0.030620206,0.351326019,-0.081056461,24,290
2020/6/19,16:21:42,22.902817,120.2731118,20.285,13,8,24,-126,52,-994,0.054111242,-5.579427719,-20.28523636,-0.096706212,-1.757062674,0.006973555,24,290
2020/6/19,16:21:45,22.902808,120.2730484,20.125,71,-93,69,-98,-14,-973,-0.946657896,-12.0868187,-20.12540436,-0.099545322,-1.545811415,0.047135517,24,290
2020/6/19,16:21:48,22.9028049,120.2729901,19.835,-42,37,28,-105,-41,-1008,-1.297941923,-18.06678391,-19.83547211,-0.111306988,-1.624088526,0.035803005,24,290
2020/6/19,16:21:51,22.9028024,120.2729393,20.064,145,110,-6,-91,-24,-1041,-1.572805166,-23.2700882,-20.06427765,-0.119019434,-1.682425141,0.007636494,24,290
2020/6/19,16:21:54,22.9027983,120.272879,20.111,112,-109,145,-126,-11,-971,-2.0370543,-29.45887756,-20.11104965,-0.142991677,-1.695933104,0.009354317,24,290
2020/6/19,16:21:57,22.9027909,120.2728213,20.004,270,226,163,-114,22,-1009,-2.859727144,-35.37729263,-20.00498199,-0.164006442,-1.532990456,0.026391514,24,290
2020/6/19,16:22:00,22.9027899,120.2727622,19.926,138,-367,-1001,-46,-61,-1006,-2.969064474,-41.4277916,-19.92617035,0.018977683,-1.946169496,-0.053014442,24,290
2020/6/19,16:22:03,22.9027553,120.2727824,19.726,21,-14,-2,41,-62,-1011,-6.814660072,-39.3584137,-19.72637558,0.042306665,2.454544306,0.066359848,24,290
2020/6/19,16:22:06,22.9027175,120.2728151,19.871,31,4,35,34,-113,-973,-11.02209473,-36.00823212,-19.87199783,0.009801762,2.524708986,0.076431639,24,290
2020/6/19,16:22:09,22.9026776,120.2728474,20.081,-39,0,-22,38,-21,-980,-15.46268845,-32.70080566,-20.08141327,0.01663914,2.518664837,0.06762597,24,290
2020/6/19,16:22:12,22.9026319,120.272883,20.086,34,-59,-51,90,-125,-972,-20.55102348,-29.04978943,-20.08650208,0.032848187,2.461547613,0.048732147,24,290
2020/6/19,16:22:15,22.9026143,120.2729394,20.054,101,16,-26,99,9,-1005,-22.51799393,-23.26405334,-20.05413818,0.024208356,1.313919425,-0.099946626,24,290
2020/6/19,16:22:18,22.9026208,120.2729984,20.149,-37,9,55,25,90,-983,-21.78617287,-17.21551132,-20.14985657,0.052749693,1.451243997,-0.050606642,24,290
2020/6/19,16:22:21,22.9026444,120.2730405,20.144,12,19,-53,-8,140,-961,-19.16130638,-12.89215851,-20.14440536,-0.061388694,0.441291064,-0.150197461,24,290
2020/6/19,16:22:24,22.902696,120.2730666,20.227,115,-205,0,-54,143,-978,-13.41738319,-10.22292709,-20.22735214,-0.036878012,0.406446487,-0.112844378,24,290
2020/6/19,16:22:27,22.9027454,120.2730893,19.922,-165,116,5,-82,135,-973,-7.923083305,-7.888237,-19.92224503,-0.040372994,0.480749071,-0.093209565,24,290
2020/6/19,16:22:30,22.9027893,120.2731121,19.697,61,142,20,-43,115,-1019,-3.031084299,-5.553220749,-19.69774628,-0.004092033,0.477786779,-0.066511638,24,290
2020/6/19,16:22:33,22.9028029,120.2731188,16.79,92,-68,94,34,22,-951,-1.523698568,-4.866773605,-16.79047775,-0.040182739,0.350865394,-0.085656829,24,290
