date,time,lat,lon,alt,x_gyro,y_gyro,z_gyro,x_acc,y_acc,z_acc,north,east,down,pitch,yaw,roll,wind_speed,wind_direction
2020/6/16,11:20:09,22.9028183,120.2731667,20.761,-195,141,54,18,105,-970,-0.916278839,0.442863464,-20.76120567,-0.060314078,-1.831718802,-0.110093415,20,270
2020/6/16,11:20:12,22.9027503,120.2731768,21.107,-29,68,-112,-145,-35,-1027,-8.485707283,1.484865189,-21.10728073,-0.179851338,3.017137527,0.013227158,20,270
2020/6/16,11:20:15,22.9026396,120.2731964,20.383,-43,-13,-16,-168,-100,-1021,-20.81067276,3.492481232,-20.38305092,-0.121940866,2.980287552,0.101159565,20,270
2020/6/16,11:20:18,22.9025238,120.2732227,20.023,22,-73,50,-148,-143,-1017,-33.70506287,6.19303894,-20.023983,-0.152821139,3.023594856,0.162181437,20,270
2020/6/16,11:20:21,22.9024049,120.2732404,20.337,132,147,25,-99,-40,-972,-46.94165039,8.006710052,-20.33794975,-0.058898643,3.137252569,0.148595452,20,270
2020/6/16,11:20:24,22.9023422,120.2732078,20.165,2,64,134,-187,21,-974,-53.91650391,4.657260895,-20.1657505,-0.320125759,-1.922869563,0.060881846,20,270
2020/6/16,11:20:27,22.9023236,120.2730982,20.227,48,-42,-11,-233,-10,-950,-55.99200439,-6.577007294,-20.22788239,-0.286270976,-1.750219107,-0.063154362,20,270
2020/6/16,11:20:30,22.902301,120.2729644,20.157,-13,159,-6,-248,14,-1087,-58.50598907,-20.29364967,-20.15711212,-0.264449418,-1.666078091,-0.038327351,20,270
2020/6/16,11:20:33,22.9022865,120.272826,20.173,28,-8,27,-285,64,-983,-60.1217041,-34.4875946,-20.17344093,-0.292908758,-1.664250612,-0.04967837,20,270
2020/6/16,11:20:36,22.9022867,120.2727182,20.259,76,-77,736,-105,67,-1030,-60.09863281,-45.54658508,-20.25962257,-0.122772485,-0.746451497,0.080176845,20,270
2020/6/16,11:20:39,22.9023593,120.2726916,20.328,94,44,36,-46,114,-1065,-52.01181793,-48.27119446,-20.32804489,-0.127689481,-0.158617929,-0.123972096,20,270
2020/6/16,11:20:42,22.9024747,120.272673,20.265,12,69,9,-85,108,-987,-39.16876984,-50.17735291,-20.26592827,-0.099702775,-0.081998996,-0.124904834,20,270
2020/6/16,11:20:45,22.902609,120.2726542,20.318,0,-5,3,-26,140,-925,-24.21240997,-52.10624695,-20.31864548,-0.085622944,-0.053753607,-0.115553752,20,270
2020/6/16,11:20:48,22.9027375,120.2726419,20.302,63,29,241,-20,149,-957,-9.914978981,-53.3684845,-20.30257988,0.029126931,0.138339654,-0.000605092,20,270
2020/6/16,11:20:51,22.9027854,120.2726899,20.053,-13,-11,59,6,-17,-1010,-4.572854042,-48.38878632,-20.05259323,-0.04974455,1.338912487,0.065098174,20,270
2020/6/16,11:20:54,22.9027974,120.2728005,19.933,-61,6,28,84,4,-979,-3.239848137,-37.10106659,-19.93389893,-0.038670059,1.392607808,0.039147951,20,270
2020/6/16,11:20:57,22.9028106,120.2729355,19.89,-9,25,33,-33,-23,-995,-1.773665428,-23.2634716,-19.89086342,-0.017218193,1.385035753,0.007797081,20,270
2020/6/16,11:21:00,22.9028319,120.2730777,19.861,-9,53,42,31,8,-997,0.595399857,-8.676702499,-19.86191177,0.008091671,1.440839648,0.038351558,20,270
2020/6/16,11:21:03,22.9028405,120.2731703,19.872,-29,152,4,41,83,-984,1.553774834,0.810886383,-19.87260628,0.183065012,1.417796612,0.005025106,20,270
2020/6/16,11:22:49,22.902838,120.2731723,19.832,-50,168,-75,-148,56,-1004,0.861270905,-2.077953339,-19.83272552,-0.238780707,-1.773831487,-0.019074623,20,270
2020/6/16,11:22:52,22.9028324,120.27311,20.352,-74,10,31,-121,-7,-1010,0.234913826,-8.462343216,-20.35238838,-0.144329593,-1.774933934,-0.019314323,20,270
2020/6/16,11:22:55,22.9028232,120.2730431,20.126,-104,80,144,-133,48,-1017,-0.780341148,-15.32354927,-20.12631035,-0.142806366,-1.677103281,-0.004984612,20,270
2020/6/16,11:22:58,22.9028186,120.2729799,19.691,-80,-109,17,-89,16,-961,-1.291928291,-21.80690575,-19.69155884,-0.175529003,-1.648586512,-0.067627452,20,270
2020/6/16,11:23:01,22.9028135,120.2729166,20.106,-18,410,1,-151,89,-985,-1.868425369,-28.29229164,-20.10624504,-0.134003773,-1.714981079,-0.076242693,20,270
2020/6/16,11:23:04,22.9027835,120.2729005,20.43,-26,-64,20,-65,-74,-1027,-5.20031929,-29.95248222,-20.4305191,-0.104763091,3.027318478,0.133796975,20,270
2020/6/16,11:23:07,22.9027299,120.2729028,20.116,-13,-31,-82,-9,-97,-1002,-11.16633034,-29.7119236,-20.11670494,-0.05998306,2.891250372,0.106825076,20,270
2020/6/16,11:23:10,22.9026849,120.272909,20.183,3,29,20,-23,-99,-978,-16.18035126,-29.07150841,-20.18324089,-0.066866353,2.935071707,0.125215963,20,270
2020/6/16,11:23:13,22.9026461,120.2729128,20.156,109,-95,14,-51,-105,-984,-20.49534035,-28.68507195,-20.15635109,-0.070625663,2.919636726,0.076119259,20,270
2020/6/16,11:23:16,22.9026025,120.272912,20.267,-49,10,116,-83,-31,-989,-25.35525322,-28.77253532,-20.26746941,-0.117103249,-2.769657612,0.110716134,20,270
2020/6/16,11:23:19,22.9025641,120.2728819,20.349,107,-33,42,-65,-64,-983,-29.63174248,-31.85911751,-20.3494873,-0.134988308,-2.633776188,0.055185854,20,270
2020/6/16,11:23:22,22.9025225,120.2728477,20.342,122,-17,69,-80,-66,-941,-34.25292969,-35.36211395,-20.34250832,-0.1361534,-2.556082964,0.057543062,20,270
2020/6/16,11:23:25,22.9024836,120.2728166,20.08,23,31,1,-177,-68,-1000,-38.59153748,-38.54850006,-20.08034325,-0.138750196,-2.486685038,0.10314665,20,270
2020/6/16,11:23:28,22.902443,120.2727778,20.057,-4,-73,117,-111,-109,-1009,-43.11054993,-42.52700806,-20.05755806,-0.125845,-2.623936892,0.119929962,20,270
2020/6/16,11:23:31,22.902403,120.272744,19.983,-10,144,-61,-164,-97,-979,-47.5557785,-45.99308777,-19.98327065,-0.116811231,-2.604687452,0.082254991,20,270
2020/6/16,11:23:34,22.9023875,120.2727426,20.205,-76,-89,-1050,64,-33,-1012,-49.28807068,-46.14247131,-20.20585632,-0.000551799,1.605721116,0.015519591,20,270
2020/6/16,11:23:37,22.9023923,120.2727898,20.098,-26,-79,74,40,12,-1012,-48.75519562,-41.29869843,-20.09802818,0.056760296,1.560424328,0.029670145,20,270
2020/6/16,11:23:40,22.9023953,120.2728276,20.085,-148,-27,-79,31,19,-1007,-48.41687012,-37.39788818,-20.08462715,0.012928309,1.63384223,0.029353406,20,270
2020/6/16,11:23:43,22.9023989,120.2728753,20.162,43,-45,36,54,-81,-997,-48.01683044,-32.52990723,-20.16251373,0.022313636,1.661325097,0.048184197,20,270
2020/6/16,11:23:46,22.9023993,120.2729218,20.25,-56,-111,142,4,75,-979,-47.97077179,-27.75963783,-20.2501049,0.03361427,1.626972675,-0.004302057,20,270
2020/6/16,11:23:49,22.9024019,120.2729706,19.976,-40,-39,126,49,65,-998,-47.6857605,-22.75678444,-19.97657013,0.008124096,1.597350478,0.026432462,20,270
2020/6/16,11:23:52,22.9024062,120.2730158,20.055,-95,-13,-68,48,-61,-1036,-47.20693207,-18.1262722,-20.05535316,-0.023987915,1.6771065,0.052275639,20,270
2020/6/16,11:23:55,22.9024072,120.273064,20.05,1,-70,-25,-23,12,-989,-47.09429932,-13.1811657,-20.05069923,-0.004796539,1.632989407,0.027343702,20,270
2020/6/16,11:23:58,22.902409,120.2731121,20.008,16,18,-101,-72,48,-986,-46.89154053,-8.24747467,-20.00844765,-0.023222717,1.668710947,0.03268031,20,270
2020/6/16,11:24:01,22.902415,120.2731633,20.034,14,-134,90,-21,-95,-1014,-46.23065186,-3.001010895,-20.03440475,-0.013232082,1.735471368,0.073396094,20,270
2020/6/16,11:24:04,22.9024137,120.2732107,20.052,-345,191,-1289,80,-44,-992,-46.36728668,1.864871979,-20.05280876,0.152610302,1.457252264,0.00350931,20,270
2020/6/16,11:24:07,22.9024552,120.2732179,20.361,0,38,7,-115,4,-1006,-41.75527191,2.600252151,-20.36136055,-0.027118679,-0.209148705,-0.146370202,20,270
2020/6/16,11:24:10,22.9025151,120.2732057,19.627,99,-56,38,61,4,-1005,-35.07704163,1.346647263,-19.62705231,-0.044932697,0.172085777,-0.067560814,20,270
2020/6/16,11:24:13,22.9025784,120.2732004,19.551,-27,69,-2,36,0,-1005,-28.03278923,0.806907654,-19.5513382,-0.001413857,0.198892385,-0.044629708,20,270
2020/6/16,11:24:16,22.9026336,120.2731987,20.05,-198,41,-73,-100,66,-1006,-21.88623619,0.632575989,-20.05029678,-0.069645628,0.071561553,-0.094534993,20,270
2020/6/16,11:24:19,22.9026961,120.2731933,19.641,2,37,-137,14,140,-993,-14.93000984,0.072259903,-19.64136124,-0.048583642,0.118195586,-0.106750287,20,270
2020/6/16,11:26:23,22.9028212,120.2731639,19.903,-6,135,1,-59,4,-971,-0.612027168,-0.990182877,-19.90396118,-0.178400472,-2.002035618,0.021140318,20,270
2020/6/16,11:26:26,22.9028001,120.2731136,20.276,99,-40,163,-45,-22,-963,-2.95227623,-6.151355743,-20.27627563,-0.103684045,-2.027816296,0.01705325,20,270
2020/6/16,11:26:29,22.9027756,120.2730577,20.101,73,43,1,-34,-31,-1035,-5.437454224,-11.3886776,-20.19743538,-0.132013172,-2.056604147,-0.038695034,20,270
2020/6/16,11:26:33,22.9027539,120.2730071,19.728,-107,-33,20,-73,63,-971,-8.098241806,-17.07086372,-19.72854996,-0.11528559,-2.027591705,-0.059184726,20,270
2020/6/16,11:26:36,22.9027308,120.2729591,20.123,34,-147,35,-92,80,-979,-10.66699791,-21.99024391,-20.123106,-0.133324713,-1.942618489,-0.011971994,20,270
2020/6/16,11:26:39,22.9027082,120.272905,20.06,-16,38,124,-40,42,-977,-13.18065643,-27.53674507,-20.06048965,-0.08625108,-1.95486033,0.004067533,20,270
2020/6/16,11:26:42,22.902686,120.2728527,20.267,-82,255,68,-52,44,-992,-15.6531868,-32.89710999,-20.26753426,-0.076768875,-2.016507626,-0.00615025,20,270
2020/6/16,11:26:45,22.9026582,120.2728499,19.986,76,-28,-225,-36,-86,-1008,-18.75186539,-33.18716431,-19.98604584,-0.135406017,2.767551422,0.080485716,20,270
2020/6/16,11:26:48,22.902611,120.2728735,20.017,93,-33,25,-9,-124,-992,-24.01074982,-30.7713871,-20.01716042,-0.052360531,2.626005888,0.100532934,20,270
2020/6/16,11:26:51,22.9025696,120.2728993,20.164,-84,-58,19,-51,-53,-960,-28.6111908,-28.11832237,-20.16472054,-0.086988412,2.733025789,0.118103854,20,270
2020/6/16,11:26:54,22.9025262,120.2729236,20.08,-64,76,-1,-54,-93,-1026,-33.45127869,-25.63244438,-20.08057785,-0.061416406,2.716119289,0.123652674,20,270
2020/6/16,11:26:57,22.9024814,120.2729483,20.265,19,-55,172,-56,-89,-1005,-38.42807007,-23.09559441,-20.26542664,-0.068423346,2.7308321,0.107368439,20,270
2020/6/16,11:27:00,22.9024418,120.2729713,20.341,-226,151,-826,-116,-7,-1052,-42.84109497,-20.73515892,-20.34171867,-0.014094661,2.6573174,-0.002742011,20,270
2020/6/16,11:27:03,22.9024539,120.2730186,19.928,90,5,55,64,-33,-1017,-41.48926544,-15.88972282,-19.92807961,0.02383434,0.963135779,-0.009235089,20,270
2020/6/16,11:27:06,22.9024836,120.2730668,19.958,-4,-21,13,55,-34,-1021,-38.19036484,-10.94538307,-19.95869827,0.012300961,1.122029424,0.022247341,20,270
2020/6/16,11:27:09,22.9025073,120.2731091,20.066,39,-50,47,-16,-8,-972,-35.54446411,-6.605243683,-20.06691933,-0.011507449,1.194290876,0.019747555,20,270
2020/6/16,11:27:12,22.9025306,120.2731549,20.083,35,-30,9,-27,-22,-1007,-32.96044159,-1.912460327,-20.08313179,-0.017339164,1.225338578,0.009819434,20,270
2020/6/16,11:27:15,22.9025548,120.2732035,20.176,-184,236,-80,18,-55,-974,-30.26002121,3.075269699,-20.17657471,0.00944444,1.253945351,-0.002583639,20,270
2020/6/16,11:27:18,22.902602,120.2732159,20.043,256,-294,-100,-43,84,-1019,-25.00720596,4.337896347,-20.04381371,-0.05778113,-0.236650258,-0.062062312,20,270
2020/6/16,11:27:21,22.9026689,120.2732046,19.956,65,38,-26,-34,20,-1019,-17.55946732,3.184925079,-19.95619392,-0.009608772,-0.110757582,-0.059850592,20,270
2020/6/16,11:27:24,22.9027276,120.2731956,19.758,100,44,-37,24,55,-1027,-11.02697754,2.260917664,-19.75870895,-0.02430265,-0.020777168,-0.029641666,20,270
2020/6/16,11:27:27,22.9027862,120.2731891,19.653,-91,20,-1,51,35,-972,-4.505313873,1.590942383,-19.6533947,-0.015054307,-0.026308678,-0.070899785,20,270
2020/6/16,11:27:30,22.9028374,120.2731838,19.868,-198,-18,-49,13,131,-921,1.197886467,1.046524048,-19.86863899,0.223561153,-0.062479958,-0.081519745,20,270
2020/6/16,11:33:29,22.9028163,120.2731632,19.482,-123,-4,34,-64,54,-965,-1.242897034,-0.424571037,-19.48290634,-0.140687943,-1.947758079,0.044857416,20,270
2020/6/16,11:33:32,22.9028184,120.2730997,20.348,-36,-72,14,-115,71,-987,-1.007686615,-6.935335159,-20.34808159,-0.204971433,-1.562143683,-0.013912042,20,270
2020/6/16,11:33:35,22.9028181,120.2729888,20.162,-241,214,8,-108,50,-1109,-1.035480499,-18.30482292,-20.16205025,-0.071517624,-1.539230227,-0.012834874,20,270
2020/6/16,11:33:38,22.9027976,120.2729306,19.898,6,-16,-51,-73,82,-1029,-3.324550629,-24.27943611,-19.89805222,-0.005851056,-1.626722693,0.016011722,20,270
2020/6/16,11:33:41,22.9027571,120.2729336,19.8,6,-2,-1178,45,-23,-963,-7.826506615,-23.97152519,-19.80003738,-0.11247319,-2.415931702,-0.060389969,20,270
2020/6/16,11:33:44,22.9026823,120.2729254,19.979,-205,-87,549,-28,-58,-1022,-16.16230392,-24.8135128,-19.97929382,-0.18821761,-1.955780506,0.145218864,20,270
2020/6/16,11:33:47,22.9026615,120.2728467,20.406,-95,-18,-104,-97,59,-967,-18.47094345,-32.87895966,-20.40652847,-0.162645087,-1.870432496,0.027712379,20,270
2020/6/16,11:33:50,22.9026314,120.2727392,20.367,83,-245,14,-79,50,-1037,-21.82283401,-43.89889526,-20.3673172,-0.010179609,-1.943056107,0.034230065,20,270
2020/6/16,11:33:53,22.9026127,120.2726994,20.004,14,86,-20,-58,72,-993,-23.90366364,-47.98243713,-20.00456047,-0.006763374,-1.610926628,-0.006648614,20,270
2020/6/16,11:33:56,22.9025992,120.272725,19.839,52,143,-491,39,16,-980,-25.40597534,-45.3575058,-19.83910179,0.022971783,-1.676238656,-0.095767789,20,270
2020/6/16,11:33:59,22.9025509,120.2727969,20.096,43,-47,119,-58,-31,-983,-30.79056168,-37.98364258,-20.09674072,-0.047720827,2.139917612,0.038735781,20,270
2020/6/16,11:34:02,22.9024865,120.2728927,20.111,2,37,7,9,-33,-1015,-37.9503746,-28.15941429,-20.11160851,-0.065823428,2.1789217,0.04967327,20,270
2020/6/16,11:34:05,22.9024227,120.2729918,20.213,26,32,32,-36,-57,-1018,-45.06116104,-18.00508881,-20.21354675,0.033085741,2.208084106,0.030027296,20,270
2020/6/16,11:34:08,22.9023899,120.273049,20.248,5,-65,35,72,-83,-1016,-48.70289993,-12.13924408,-20.24839401,0.116028041,2.356238842,0.058513425,20,270
2020/6/16,11:34:11,22.9024118,120.2730563,20.299,-26,-100,-1233,60,6,-995,-46.26696396,-11.38980103,-20.29924202,0.037626527,1.775834322,-0.082827069,20,270
2020/6/16,11:34:14,22.9024878,120.2730829,20.377,-2,18,17,-43,95,-985,-37.80393982,-8.657764435,-20.37794113,-0.114536241,0.218696117,-0.104887478,20,270
2020/6/16,11:34:17,22.9025983,120.2731113,19.991,31,-37,30,-46,49,-1004,-25.51301956,-5.751056671,-19.99099922,-0.068281025,0.290156066,-0.072741076,20,270
2020/6/16,11:34:20,22.9027021,120.2731373,19.71,33,-34,-33,-8,70,-955,-13.95392895,-3.079375267,-19.71023178,-0.094741672,0.331927299,-0.041567624,20,270
2020/6/16,11:35:53,22.9028294,120.2731672,19.556,-82,0,-1233,-140,-99,-971,0.035095215,-0.100824356,-19.55646515,-0.141680911,-2.108662605,-0.093969382,20,270
2020/6/16,11:35:56,22.902787,120.2731685,20.136,-19,127,-10,-24,-22,-997,-4.680794716,0.035784721,-20.13673401,-0.062732548,2.840993166,0.034552436,20,270
2020/6/16,11:35:59,22.9027315,120.2731774,20.015,17,38,82,-38,-50,-1005,-10.86360455,0.943400383,-20.01581192,-0.094374046,2.891182899,0.093209378,20,270
2020/6/16,11:36:02,22.9026762,120.2731878,19.935,45,-51,26,-92,-92,-990,-17.01317596,2.010666847,-19.9357605,-0.110514566,3.039477825,0.109225765,20,270
2020/6/16,11:36:05,22.9026201,120.2731946,20.036,-13,4,-93,-97,-106,-965,-23.25614166,2.708015442,-20.03688812,-0.12018773,3.079092264,0.099406019,20,270
2020/6/16,11:36:08,22.9025663,120.2732006,20.045,-23,54,1,-54,-139,-1017,-29.24644089,3.324525833,-20.04596138,-0.102700762,2.975586414,0.10109587,20,270
2020/6/16,11:36:11,22.9025123,120.2732084,20.114,62,14,681,-70,-104,-1015,-35.25613785,4.132411003,-20.11463165,0.048472926,3.034179688,0.093377113,20,270
2020/6/16,11:36:14,22.9025254,120.273188,20.08,58,-86,-239,-103,86,-1009,-33.78397751,2.00844574,-20.07823753,-0.146323115,-1.203968406,-0.133006737,20,270
2020/6/16,11:36:17,22.9025494,120.2731319,20.107,20,-29,1,-90,130,-976,-31.13415527,-3.716643333,-20.10704803,-0.105543494,-0.978233814,-0.122741513,20,270
2020/6/16,11:36:20,22.9025771,120.2730773,20.315,53,-3,28,-79,143,-958,-28.05031967,-9.319960594,-20.3156662,-0.106465563,-0.96673131,-0.117763005,20,270
2020/6/16,11:36:23,22.9026066,120.2730245,20.55,24,-8,-165,-68,134,-931,-25.06098557,-14.30493641,-20.53662109,-0.083631694,-1.003317952,-0.136641771,20,270
2020/6/16,11:36:26,22.9026331,120.2729756,20.304,-95,50,38,-108,147,-1022,-21.81304169,-19.74025345,-20.30444527,-0.096751258,-1.072399139,-0.108324684,20,270
2020/6/16,11:36:29,22.9026601,120.2729234,20.3,-215,66,-969,-211,106,-1010,-18.81090546,-25.09670639,-20.30062294,-0.06091236,-1.372686386,-0.21993053,20,270
2020/6/16,11:36:32,22.9026376,120.2728833,20.607,-29,41,-105,-77,60,-978,-21.31163788,-29.21154404,-20.60795975,-0.130507916,-2.464197397,-0.007346306,20,270
2020/6/16,11:36:35,22.9025986,120.272843,20.198,21,-4,38,-92,-22,-1001,-25.64809036,-33.34354401,-20.19834328,-0.141632453,-2.509139299,0.018746819,20,270
2020/6/16,11:36:38,22.9025577,120.2728044,20.025,0,-28,-9,-150,-28,-1016,-30.20635605,-37.30242538,-20.02538681,-0.142739937,-2.423988819,0.019117631,20,270
2020/6/16,11:36:41,22.9025187,120.2727655,19.94,-35,-9,-27,-177,6,-1001,-34.54703903,-41.29330826,-19.94045258,-0.139713153,-2.425172329,0.023786284,20,270
2020/6/16,11:36:44,22.9024766,120.2727215,19.879,-17,10,-13,-152,-16,-1006,-39.23970413,-45.80263901,-19.87983322,-0.139534011,-2.492005587,0.026068345,20,270
2020/6/16,11:36:47,22.9024541,120.2727009,19.73,112,-115,1357,-36,-55,-1003,-41.74422073,-47.9096489,-19.73036575,0.002525201,-2.368957043,0.131461412,20,270
2020/6/16,11:36:50,22.9025015,120.2726992,19.872,60,-10,48,-27,161,-952,-36.46776581,-48.08626556,-19.87234879,-0.037894718,-0.170535564,-0.128691867,20,270
2020/6/16,11:36:53,22.9025585,120.2726912,20.083,-33,20,14,11,108,-992,-30.11439896,-48.9115715,-20.08393478,-0.024185866,0.001370583,-0.08214657,20,270
2020/6/16,11:36:56,22.9026097,120.2726891,19.967,-14,14,-2,-14,89,-996,-24.42029953,-49.1186142,-19.96720123,-0.03425014,-0.071810573,-0.082369208,20,270
2020/6/16,11:36:59,22.9026639,120.2726887,19.908,21,1,-55,-45,136,-1027,-18.3821106,-49.16801453,-19.90803719,-0.059962623,-0.200351462,-0.097477376,20,270
2020/6/16,11:37:02,22.9027203,120.2726846,19.96,11,9,1,24,94,-983,-12.10353184,-49.58966446,-19.96027946,-0.033845309,-0.19842422,-0.08490064,20,270
2020/6/16,11:37:05,22.9027787,120.2726807,20.029,24,3,-6,-32,53,-1006,-5.602461815,-49.98345947,-20.02952003,-0.02790767,-0.218935579,-0.098788969,20,270
2020/6/16,11:37:08,22.9028036,120.2726923,19.939,6,61,-323,-35,29,-1009,-2.837296486,-48.79895782,-19.93954849,-0.057470258,1.62409091,0.037802108,20,270
2020/6/16,11:38:57,22.9028087,120.273162,20.3,337,82,-82,-77,-28,-978,-1.850129128,-2.533821106,-20.30040741,-0.161189497,-2.407537937,0.018617658,20,270
2020/6/16,11:39:00,22.9027692,120.2731122,20.159,160,26,62,5,14,-961,-6.24788475,-7.648295403,-20.15937805,-0.081123024,-2.24159193,0.041514713,20,270
2020/6/16,11:39:03,22.9027294,120.273062,19.782,-43,-6,102,-123,-99,-983,-10.68135643,-12.79483318,-19.78291702,-0.102224343,-2.21727109,0.087437652,20,270
2020/6/16,11:39:06,22.9026999,120.2730199,19.926,-100,17,-38,-46,-70,-1006,-13.96816826,-17.10743713,-19.92650604,-0.124921881,-2.278352976,0.058367677,20,270
2020/6/16,11:39:09,22.9026657,120.2729731,20.082,87,-19,107,-147,-29,-1039,-17.77249527,-21.90676117,-20.08222771,-0.111758329,-2.325143099,0.105509862,20,270
2020/6/16,11:39:12,22.9026306,120.2729246,20.188,88,-60,35,-8,-107,-972,-21.67575455,-26.88021851,-20.18816948,-0.07969825,-2.343439579,0.044323225,20,270
2020/6/16,11:39:15,22.9025965,120.2728793,20.155,29,-90,0,-42,-44,-977,-25.47818375,-31.52974701,-20.15553665,-0.103508875,-2.300944805,0.03205768,20,270
2020/6/16,11:39:18,22.9025648,120.2728362,19.998,-32,-61,46,-194,0,-1011,-28.99899673,-35.94776535,-19.9981575,-0.117893852,-2.354278088,0.031579394,20,270
2020/6/16,11:39:21,22.9025313,120.2728027,20.041,56,-43,-982,15,-90,-1048,-32.73120499,-39.37874603,-20.0413475,-0.080674306,2.81073761,-0.076920524,20,270
2020/6/16,11:39:24,22.902491,120.2728448,20.003,7,-47,4,57,-69,-992,-37.22067261,-35.05963135,-20.00369644,0.034402102,2.116418123,-0.032572404,20,270
2020/6/16,11:39:27,22.902468,120.272885,20.212,70,-248,-117,38,-88,-982,-39.77891159,-30.94739914,-20.21249962,-0.023106968,2.456463337,0.099925146,20,270
2020/6/16,11:39:30,22.9024321,120.2729226,20.063,-6,-15,-64,0,-109,-1027,-43.77937317,-27.08322906,-20.06302261,0.018695354,2.228917599,0.031185701,20,270
2020/6/16,11:39:33,22.9023945,120.2729702,19.898,179,104,53,90,-140,-979,-47.96042633,-22.21081543,-19.89879417,0.037040602,2.247415543,0.05655374,20,270
2020/6/16,11:39:36,22.9023837,120.2730174,20.04,-51,52,-233,-18,93,-992,-49.16302109,-17.36698151,-20.04094124,0.011045281,0.829890609,-0.143931717,20,270
2020/6/16,11:39:39,22.9024178,120.2730693,20.027,17,-42,73,43,59,-990,-45.37321854,-12.04255772,-20.0279789,0.030495215,0.914358616,-0.061870169,20,270
2020/6/16,11:39:42,22.9024465,120.2731172,20.047,44,4,-35,38,55,-1024,-42.17342377,-7.132382393,-20.04782677,0.0203139,0.979391992,-0.073141783,20,270
2020/6/16,11:39:45,22.9024736,120.2731651,20.119,98,26,62,41,5,-1021,-39.15414429,-2.223590851,-20.11975098,0.027388759,0.947590113,-0.082502089,20,270
2020/6/16,11:39:48,22.9025045,120.2732166,20.159,-156,191,-82,43,60,-1004,-35.71284103,3.060612679,-20.15914726,0.050136387,0.982324123,-0.095918052,20,270
2020/6/16,11:39:51,22.9025511,120.2732283,20.102,-13,63,-34,-25,131,-979,-30.53209686,4.26500988,-20.10199928,-0.074441925,-0.155691534,-0.125947461,20,270
2020/6/16,11:39:54,22.9026055,120.273221,19.993,75,31,-20,-27,30,-1020,-24.47044754,3.507855415,-19.99388504,-0.070870638,-0.1642472,-0.106216617,20,270
2020/6/16,11:39:57,22.9026647,120.2732108,20.103,21,20,-38,-71,96,-1019,-17.88015556,2.46322155,-20.10313225,-0.037654039,-0.13116318,-0.095330924,20,270
2020/6/16,11:40:00,22.902722,120.2732021,19.872,-39,88,-30,-110,41,-1020,-11.5073967,1.576516151,-19.87220192,-0.067968749,-0.106469333,-0.080462396,20,270
2020/6/16,11:40:03,22.9027798,120.2731954,19.725,36,-33,12,-16,27,-988,-5.070655823,0.88373661,-19.72570419,-0.047296509,-0.171655387,-0.093986057,20,270
2020/6/16,11:40:06,22.9028377,120.2731869,19.724,49,142,29,-60,50,-953,1.376781464,0.014992714,-19.72448349,0.126151294,-0.208619729,-0.139819235,20,270
2020/6/16,11:44:29,22.9028408,120.2731942,0.043,3,-4,2,61,4,-1005,0.003551483,0.223151207,-0.043204486,0.038772251,-1.954030633,0.004695481,20,270
2020/6/16,11:44:32,22.9028536,120.2731936,1.002,8,-115,1240,-94,-31,-1066,1.43516922,0.158330917,-1.002544045,-0.193307534,-1.278839231,0.054271795,20,270
2020/6/16,11:44:35,22.9029103,120.2731499,6.424,-129,30,42,-70,35,-1004,7.756952763,-4.325157166,-6.424319267,-0.141751334,-0.710775614,-0.042909801,20,270
2020/6/16,11:44:38,22.9029832,120.2730859,13.209,153,54,20,-78,24,-992,15.86542606,-10.88932037,-13.20919991,-0.116169244,-0.577446818,-0.032670345,20,270
2020/6/16,11:44:41,22.9030538,120.2730338,19.087,-97,7,-373,-127,98,-916,23.72209167,-16.22860336,-19.08775902,-0.015460532,-0.647413969,-0.175435945,20,270
2020/6/16,11:44:44,22.9030675,120.2729477,20.521,78,208,-20,-125,-59,-940,25.24734879,-25.05901718,-20.52132797,-0.108418651,-1.568447113,-0.013064214,20,270
2020/6/16,11:44:47,22.9030601,120.2728367,20.123,-76,-9,-32,-127,29,-1004,24.42786217,-36.44276047,-20.12376595,-0.125816077,-1.638263345,0.050333995,20,270
2020/6/16,11:44:50,22.9030282,120.2727261,20.039,67,77,-127,-123,-27,-1036,20.87889862,-47.77876282,-20.03931999,-0.111464858,-2.427233458,-0.079144359,20,270
2020/6/16,11:44:53,22.9029277,120.2726603,19.904,28,21,-22,-98,-35,-996,9.688527107,-54.52483749,-19.90428162,-0.108002558,-2.690625906,0.007595426,20,270
2020/6/16,11:44:56,22.9028193,120.272631,19.956,13,6,-256,-91,-78,-1022,-2.39315033,-57.53333664,-19.95637131,-0.102468006,3.003130674,-0.016406514,20,270
2020/6/16,11:44:59,22.9027157,120.2726727,20.054,34,-94,69,-134,-22,-966,-13.91532135,-53.25805283,-20.05430603,-0.075593784,2.692564487,0.057251412,20,270
2020/6/16,11:45:02,22.9026154,120.272741,20.036,-29,-18,-531,-20,-77,-1058,-25.0912056,-46.24797058,-20.03634834,0.014721535,2.25717783,-0.112083144,20,270
2020/6/16,11:45:05,22.9025921,120.2728509,19.913,90,-39,75,-56,38,-997,-27.68487167,-34.98568344,-19.91397858,-0.025844455,1.574251175,-0.019957311,20,270
2020/6/16,11:45:08,22.9025966,120.2729752,20.082,-73,65,-193,-90,43,-1016,-27.17969513,-22.23793793,-20.08255386,-0.00265477,1.44850111,-0.086609252,20,270
2020/6/16,11:45:11,22.9026552,120.2730685,20.234,-126,43,-106,-51,127,-933,-20.65904427,-12.67228699,-20.23418808,-0.039123304,0.623553753,-0.148054838,20,270
2020/6/16,11:45:14,22.9027505,120.2731288,19.872,-35,121,1,-122,128,-1028,-10.04485703,-6.483205795,-19.87229729,-0.043594643,0.549996674,-0.067934863,20,270
2020/6/16,11:45:17,22.9028314,120.2731755,19.799,200,123,97,-61,86,-1016,-1.037847519,-1.696149826,-19.79903984,0.094689839,0.626872361,-0.015337332,20,270
2020/6/16,11:45:20,22.9028398,120.2731806,16.704,-67,70,38,16,54,-1054,-0.101948738,-1.169001579,-16.7044487,-0.019142913,0.561249137,-0.060307566,20,270
2020/6/16,11:47:01,22.9028234,120.2731509,20.171,6,15,-66,-86,39,-985,-0.005511284,-2.827672005,-20.17125702,-0.12691243,-1.750151038,-0.02578963,20,270
2020/6/16,11:47:04,22.9028171,120.2730845,19.96,28,43,48,-137,14,-1043,-0.702293396,-9.631123543,-19.9609375,-0.065375514,-1.678714752,0.017166542,20,270
2020/6/16,11:47:07,22.9028119,120.2730283,20.05,-116,-23,-115,-33,-37,-1023,-1.289214134,-15.39494801,-20.05003548,-0.115622118,-1.612618327,-0.015565342,20,270
2020/6/16,11:47:10,22.9028099,120.2729702,20.199,-105,14,-35,-61,50,-960,-1.512037277,-21.35053635,-20.19991875,-0.106357478,-1.684260726,-0.04052598,20,270
2020/6/16,11:47:13,22.902804,120.272915,20.069,124,-94,209,-89,50,-1015,-2.178796768,-27.05546951,-20.06666183,-0.16113086,-1.551312923,0.053423725,20,270
2020/6/16,11:47:16,22.9028009,120.2728537,19.976,97,58,64,-90,-30,-1004,-2.508020401,-33.29970169,-19.9768734,-0.117447846,-1.627130389,0.026554216,20,270
2020/6/16,11:47:19,22.9027955,120.2727963,20.133,54,32,-43,-92,7,-998,-3.114807129,-39.18723679,-20.13360786,-0.135442764,-1.525063992,0.033714212,20,270
2020/6/16,11:47:22,22.9027961,120.2727371,19.803,-37,-26,-86,-44,21,-1022,-3.044645309,-45.25600052,-19.80397415,-0.08849065,-1.782987237,-0.016857315,20,270
2020/6/16,11:47:25,22.9027885,120.27268,20.073,-19,67,-33,-52,23,-1004,-3.885437965,-51.11155701,-20.07339668,-0.119053006,-1.639708877,-0.000683142,20,270
2020/6/16,11:47:28,22.9027845,120.2726249,20.138,-41,91,2,-75,75,-985,-4.331254005,-56.76207733,-20.13861847,-0.160627782,-1.588404894,-0.005884679,20,270
2020/6/16,11:47:31,22.9027767,120.272593,20.041,-128,178,-991,56,-89,-1036,-5.207121849,-60.03623962,-20.04127884,-0.127395183,2.999520302,0.006529614,20,270
2020/6/16,11:47:34,22.9027292,120.2726116,19.828,128,45,239,-39,-56,-994,-10.49633121,-58.12995911,-19.82872009,-0.012613952,2.725506306,0.039735775,20,270
2020/6/16,11:47:37,22.9026903,120.2726323,20.171,13,60,59,-20,-72,-1032,-14.82198238,-55.99992371,-20.17151642,-0.073320523,2.802232742,0.096929364,20,270
2020/6/16,11:47:40,22.9026418,120.2726511,20.059,-162,7,6,-58,-93,-1033,-20.22098541,-54.07463837,-20.05908012,-0.018441904,2.748556137,0.055806868,20,270
2020/6/16,11:47:43,22.902596,120.2726717,20.158,-22,103,-30,-33,-64,-985,-25.31454086,-51.9614563,-20.15816498,-0.0442729,2.818451881,0.076506644,20,270
2020/6/16,11:47:46,22.9025502,120.272691,20.114,129,-21,62,20,-112,-1011,-30.42234421,-49.98636627,-20.11458397,-0.045841381,2.729709387,0.069289848,20,270
2020/6/16,11:47:49,22.9025104,120.2727075,20.194,-210,-31,10,-4,-27,-1026,-34.85142136,-48.28839874,-20.19497299,-0.060473986,2.776047945,0.052988742,20,270
2020/6/16,11:47:52,22.9024576,120.2727296,20.126,51,-45,-39,-96,-5,-1018,-40.72922516,-46.02873993,-20.12641716,-0.046618141,2.811281681,0.039922167,20,270
2020/6/16,11:47:55,22.9024119,120.2727489,20.029,-208,-14,56,-44,40,-1016,-45.85365677,-44.03145599,-20.02894783,-0.04855204,2.873211384,-0.009138058,20,270
2020/6/16,11:47:58,22.9023614,120.2727721,20.107,-71,247,64,71,4,-971,-51.43779373,-41.66678238,-20.10785103,0.035232302,2.965717316,0.056819405,20,270
2020/6/16,11:48:01,22.9023227,120.2727885,20.239,-223,117,27,-52,-40,-958,-55.7404747,-39.98758316,-20.2393055,-0.088695854,3.121392012,0.005586017,20,270
2020/6/16,11:48:04,22.9022742,120.2728073,20.118,-42,16,93,-38,-65,-1008,-60.71042252,-38.26521683,-20.09577751,-0.053713161,-3.125035524,0.019767363,20,270
2020/6/16,11:48:07,22.9022306,120.2728291,20.108,-9,131,54,-65,-32,-1019,-65.99964905,-35.82378769,-20.10894966,-0.074131876,-3.035085201,0.073412731,20,270
2020/6/16,11:48:10,22.902214,120.2728714,20.031,10,-55,35,-59,-73,-1020,-67.84353638,-31.48213196,-20.03152847,-0.03462781,-2.929517984,0.050892238,20,270
2020/6/16,11:48:13,22.9022221,120.2729308,20.128,7,49,99,-120,28,-1000,-66.94308472,-25.39076233,-20.12895775,-0.07778433,-2.817115784,0.030658968,20,270
2020/6/16,11:48:16,22.9022264,120.272987,20.1,-48,-57,186,-44,-8,-988,-66.46460724,-19.63259888,-20.10023499,-0.033868637,-2.729669809,0.039879065,20,270
2020/6/16,11:48:19,22.9022315,120.2730397,20.203,-47,33,1,-17,21,-989,-65.89890289,-14.2325182,-20.20300865,-0.063772604,-2.608160496,0.034491796,20,270
2020/6/16,11:48:22,22.9022371,120.2730954,19.941,46,-32,0,-129,-23,-1039,-65.27347565,-8.512684822,-19.94120026,-0.031805761,-2.663758993,0.170505375,20,270
2020/6/16,11:48:25,22.9022868,120.2731117,20.13,-46,80,57,-46,-62,-969,-59.74290848,-6.846056938,-20.13009453,-0.04309649,-2.524018764,0.065635793,20,270
2020/6/16,11:48:29,22.902344,120.2731128,19.817,87,23,94,52,-14,-994,-53.36702728,-6.729107857,-19.81731606,0.02954752,-2.463708878,0.032284115,20,270
2020/6/16,11:48:32,22.9024022,120.2731272,19.874,40,24,130,-12,-66,-940,-46.89417267,-5.258749962,-19.87459183,-0.077665761,-2.362877607,0.125599533,20,270
2020/6/16,11:48:35,22.9024617,120.2731308,19.881,29,-6,-15,-10,-59,-999,-40.2743988,-4.885323524,-19.8818264,-0.021657757,-2.286307812,0.047457218,20,270
2020/6/16,11:48:38,22.9025254,120.2731406,19.502,-99,-34,68,-58,-21,-992,-33.17617798,-3.876328468,-19.5025444,-0.040716209,-2.218385458,0.049573716,20,270
2020/6/16,11:48:41,22.9025813,120.2731495,19.472,126,-9,59,-4,-70,-992,-26.96080399,-2.966032982,-19.47294617,-0.073485196,-2.089540482,0.035880387,20,270
2020/6/16,12:05:07,22.9028306,120.2731688,0.065,65,85,11,-9,5,-1015,0.05871582,-0.157749176,-0.065094948,-0.025261585,-1.986383915,0.030482732,20,270
2020/6/16,12:05:10,22.9028623,120.2731464,3.023,157,-53,110,-85,120,-1028,3.58993578,-2.45375824,-3.023630381,-0.18932943,-1.034459472,-0.074705094,20,270
2020/6/16,12:05:13,22.9029189,120.2730695,8.672,-42,7,42,-111,125,-960,9.885680199,-10.34511566,-8.672290802,-0.122405194,-0.834893882,-0.061453391,20,270
2020/6/16,12:05:16,22.9029814,120.2729887,13.932,-83,23,-102,-82,47,-978,16.85385704,-18.63152313,-13.93229866,-0.120168522,-0.760281682,-0.042613156,20,270
2020/6/16,12:05:19,22.9030464,120.2729107,19.041,19,249,42,-86,98,-844,24.09845924,-26.62024307,-19.04136276,-0.066135362,-0.733182609,-0.069607459,20,270
2020/6/16,12:05:22,22.9030817,120.2728695,20.579,51,-66,19,-7,40,-968,28.02720261,-30.85057449,-20.57928276,0.094600558,-0.617878854,-0.068750381,20,270
2020/6/16,12:05:25,22.9030508,120.2728488,20.28,197,103,-1296,-85,30,-1063,24.58289337,-32.97571182,-20.28075409,-0.027101412,-1.21328795,-0.112030312,20,270
2020/6/16,12:05:28,22.9029747,120.2727942,20.243,90,-12,36,-63,-8,-958,16.10868835,-38.56983948,-20.24378777,-0.173288211,-2.558885336,0.033651054,20,270
2020/6/16,12:05:31,22.9028838,120.2727296,20.213,0,-9,19,-115,7,-968,5.911607742,-45.24712372,-20.21878624,-0.154292017,-2.552609921,0.036049675,20,270
2020/6/16,12:05:34,22.9027767,120.2726628,20.25,-174,-83,-436,-104,-31,-1003,-5.941853523,-52.04206848,-20.25014496,-0.059262887,-2.815382957,-0.115424015,20,270
2020/6/16,12:05:37,22.9026737,120.2726992,19.738,22,89,-113,-154,-120,-1036,-17.40144348,-48.31802368,-19.73880577,-0.116044804,2.627912998,0.08498095,20,270
2020/6/16,12:05:40,22.9025814,120.2727648,20.08,-8,23,-81,-93,-85,-1022,-27.67935181,-41.58284378,-20.08021355,-0.139849782,2.503150463,0.081636831,20,270
2020/6/16,12:05:43,22.9025204,120.2728661,20.226,47,-19,-204,19,-99,-986,-34.46730804,-31.19829178,-20.22660255,0.00410614,1.72283113,0.003820501,20,270
2020/6/16,12:05:46,22.9025206,120.2729854,20.204,-118,57,-10,9,30,-1007,-34.44164658,-18.87529373,-20.20442581,0.012057867,1.54363215,0.063225679,20,270
2020/6/16,12:05:49,22.9025489,120.2730964,20.191,8,44,-556,87,71,-979,-31.30246735,-7.584083557,-20.19120216,0.012535999,0.610666931,-0.187313631,20,270
2020/6/16,12:05:52,22.9026468,120.2731382,20.198,-15,-74,34,-40,178,-1002,-20.39583588,-3.296543121,-20.19869614,-0.019170457,0.220582128,-0.108591847,20,270
2020/6/16,12:05:55,22.9027544,120.2731581,20.022,-3,-167,71,-102,165,-941,-8.417471886,-1.251216888,-20.02249336,0.028898865,0.267619699,-0.105277397,20,270
2020/6/16,12:05:58,22.9028316,120.2731743,19.547,198,118,93,47,13,-1035,0.168911934,0.402399063,-19.5470047,0.006017637,0.634426832,0.04222019,20,270
2020/6/16,12:06:01,22.9028419,120.2731823,16.933,-128,-105,-13,98,84,-992,1.32431221,1.228409767,-16.93366432,0.089419931,0.607701182,0.000996353,20,270
2020/6/16,12:06:04,22.9028424,120.2731827,12.082,12,-48,-34,84,45,-1036,1.332568169,1.28840065,-12.47038269,0.079450585,0.622277319,-0.010196176,20,270
2020/6/16,12:06:07,22.9028421,120.2731824,9.283,-84,57,12,51,93,-984,1.338231087,1.235051155,-9.283744812,0.028294209,0.59722054,-0.042865153,20,270
2020/6/16,12:06:10,22.9028431,120.273181,7.876,-77,107,17,28,-3,-963,1.454007149,1.090431213,-7.876223087,0.025311042,0.614107072,-0.001737845,20,270
2020/6/16,12:06:13,22.9028427,120.2731812,6.281,33,93,-53,100,-34,-976,1.407811165,1.108857155,-6.281182289,0.02784865,0.622534513,-0.013578392,20,270
2020/6/16,12:06:16,22.9028442,120.2731822,5.102,-10,17,74,102,26,-995,1.570009232,1.214907646,-5.102719307,0.042193674,0.625236213,-0.00619979,20,270
2020/6/16,12:06:19,22.9028416,120.273181,3.309,34,-22,-33,53,37,-999,1.285627365,1.097145081,-3.309223652,0.004243866,0.59852922,-0.035053797,20,270
2020/6/16,12:06:22,22.9028457,120.2731815,2.052,86,-88,0,82,-49,-953,1.745052338,1.140652657,-2.052933693,0.071908399,0.604820728,0.051607631,20,270
2020/6/16,12:06:25,22.9028417,120.2731807,0.798,7,-3,-3,43,49,-998,1.298574448,1.066267014,-0.79820472,0.028522242,0.539281189,-0.036100477,20,270
2020/6/16,12:12:55,22.9026819,120.2729383,19.909,20,61,-111,-46,-47,-995,-16.09291077,-24.71580696,-19.90935516,-0.070974186,3.02829814,0.029473808,20,270
2020/6/16,12:12:58,22.9026276,120.2729452,19.895,46,-29,7,19,-64,-978,-22.13710785,-24.0154438,-19.89538383,-0.067115486,3.001082897,0.069144376,20,270
2020/6/16,12:13:01,22.9025821,120.2729485,19.998,-91,-98,912,-59,-39,-1002,-27.20376015,-23.66890907,-19.99847603,-0.103703797,-2.670443058,0.161471903,20,270
2020/6/16,12:13:04,22.902549,120.2729145,20.256,-2,17,31,-128,-6,-1033,-30.8867588,-27.15538216,-20.25632477,-0.110808566,-2.280788422,0.044671047,20,270
2020/6/16,12:13:07,22.9025142,120.2728677,20.101,19,16,-70,-56,-66,-1051,-34.75848389,-31.96175194,-20.10154152,-0.099958643,-2.304360867,0.024045356,20,270
2020/6/16,12:13:10,22.902487,120.2728361,19.787,-118,-51,-93,-79,-9,-1063,-37.78997803,-35.19579315,-19.78752899,0.058376238,-2.144956589,0.076567836,20,270
2020/6/16,12:13:13,22.9024908,120.2728742,19.889,-107,-55,1113,-36,1,-1003,-37.35899353,-31.29187202,-19.8891201,-0.009441052,0.695635915,0.040305149,20,270
2020/6/16,12:13:16,22.9024945,120.2729332,20.034,-40,23,103,-50,46,-1020,-36.95352936,-25.24027443,-20.03452492,-0.015317997,1.540599108,0.01896769,20,270
2020/6/16,12:13:19,22.9024975,120.2729852,20.073,127,-61,6,-14,-15,-981,-36.62050629,-19.91251564,-20.07373428,-0.023230996,1.536653042,0.006961069,20,270
2020/6/16,12:13:22,22.9025002,120.2730445,20.166,100,61,79,-24,-44,-990,-36.37381744,-14.33331871,-20.16077805,-0.028610986,1.48633492,-0.009027607,20,270
2020/6/16,12:13:25,22.9025049,120.2730952,20.064,19,-18,60,-39,-18,-1016,-35.79663849,-8.628864288,-20.06407166,-0.042570837,1.594962835,0.023184191,20,270
2020/6/16,12:13:28,22.9025059,120.2731489,20.07,-10,20,-24,-10,-2,-1022,-35.68706512,-3.119939804,-20.07026482,-0.038766082,1.509213805,0.010228612,20,270
2020/6/16,12:13:31,22.9025139,120.2731996,20.03,-42,-46,-962,-21,-11,-1010,-34.79373932,2.078766823,-20.03081894,-0.067837119,0.410509974,-0.129276186,20,270
2020/6/16,12:13:34,22.9025696,120.2732005,19.999,-3,-29,128,-52,52,-998,-28.59220314,2.167860985,-19.99939156,-0.03119643,-0.104647249,-0.021698289,20,270
2020/6/16,12:13:37,22.9026222,120.2731945,20.013,56,43,-4,3,18,-1011,-22.74199486,1.550824165,-20.01313019,-0.00963123,0.034518864,-0.042737734,20,270
2020/6/16,12:13:40,22.9026716,120.2731906,19.963,203,-81,-76,-37,41,-1007,-17.24113464,1.15812397,-19.96343994,-0.04335136,0.018122846,-0.011942529,20,270
2020/6/16,12:13:43,22.9027229,120.273189,19.977,54,-3,-17,-38,57,-989,-11.52598953,0.985071182,-19.97766495,-0.045700211,0.052967507,-0.029300757,20,270
2020/6/16,12:13:46,22.9027787,120.2731868,19.97,64,-4,-24,-51,2,-1018,-5.318429947,0.763524055,-19.97029305,-0.043514304,0.030235482,-0.034978487,20,270
2020/6/16,12:13:49,22.90283,120.273182,20.065,-64,-73,-63,-17,11,-1019,0.397856712,0.27319622,-20.06515503,-0.023369489,0.088858634,-0.000893103,20,270
2020/6/16,12:13:52,22.9028458,120.2731794,20.058,0,-37,-50,59,15,-974,2.155035019,0.005819321,-20.05818558,0.024281304,0.111648291,0.019675769,20,270
2020/6/16,12:16:25,22.9028307,120.2731867,19.379,40,-5,13,-135,42,-913,-0.369095802,0.197747231,-19.37903786,-0.203490645,-1.802099109,-0.069837034,22,270
2020/6/16,12:16:28,22.9027888,120.2731647,20.005,40,89,103,-167,-103,-1032,-5.041949272,-2.055444717,-20.00599289,-0.216176972,-2.628924131,0.097197101,22,270
2020/6/16,12:16:31,22.9027023,120.2731159,20.103,-36,155,133,-106,-56,-997,-14.6632185,-7.064718246,-20.10347748,-0.160291761,-2.624052525,0.0624106,22,270
2020/6/16,12:16:34,22.9026017,120.2730585,20.228,-82,-177,349,-166,38,-1043,-25.86447906,-12.94277382,-20.22885704,-0.155342892,-2.23604393,0.176640257,22,270
2020/6/16,12:16:37,22.9025652,120.2729612,19.806,-128,192,-62,-180,51,-1062,-29.92707825,-22.91922379,-19.80685425,-0.262319267,-1.752735019,-0.029120047,22,270
2020/6/16,12:16:40,22.9025432,120.2728327,19.958,39,40,15,-225,-14,-1032,-32.37477875,-36.10085297,-19.95882225,-0.216675609,-1.681083083,-0.014712642,22,270
2020/6/16,12:16:43,22.902526,120.2726903,20.265,1,31,107,-126,93,-987,-34.29042053,-50.70683289,-20.26584053,-0.065605491,-1.662812352,-0.019311629,22,270
2020/6/16,12:16:46,22.9025227,120.2726323,20.187,147,-186,-96,-111,12,-1009,-34.65517044,-56.65493011,-20.18721199,0.044491217,-1.474901199,0.059631579,22,270
2020/6/16,12:16:49,22.902568,120.2726631,20.178,19,-23,-65,-79,-61,-1076,-29.56571198,-53.47240448,-20.17819023,-0.023293786,0.487126142,-0.072390392,22,270
2020/6/16,12:16:52,22.9026562,120.2727141,20.103,0,-120,-8,-133,76,-1008,-19.79613495,-48.26078415,-20.10309982,-0.123264596,0.538709641,-0.068253517,22,270
2020/6/16,12:16:55,22.9027486,120.2727818,20.177,-147,89,107,16,13,-991,-9.512871742,-41.32017517,-20.17774963,0.0143058,0.948186398,0.104017533,22,270
2020/6/16,12:16:58,22.902783,120.2728888,20.008,-61,36,85,42,1,-1005,-5.687527657,-30.34500122,-20.00807953,-0.042368717,1.341983557,-0.038932171,22,270
2020/6/16,12:17:01,22.9028074,120.2730181,19.86,59,109,56,4,63,-973,-2.972157478,-17.08792305,-19.86056137,-0.016368173,1.287853599,-0.038701933,22,270
2020/6/16,12:17:04,22.9028367,120.2731483,19.921,23,-189,-142,-40,56,-1040,0.090678215,-4.49933815,-19.9140892,0.109139644,1.238582969,-0.028540865,22,270
