date,time,lat,lon,alt,x_gyro,y_gyro,z_gyro,x_acc,y_acc,z_acc,north,east,down,pitch,yaw,roll,wind_speed,wind_direction
2020/6/22,16:30:39,22.9027983,120.2731299,0.713,49,141,147,-28,70,-1081,-0.939240456,-0.631343842,-0.713325739,-0.075456418,-1.666572332,-0.001291484,24,300
2020/6/22,16:30:42,22.9027393,120.2730884,6.126,140,51,-70,-9,-45,-936,-7.510165215,-4.890987396,-6.126043797,-0.131696224,-2.566442966,0.024311442,24,300
2020/6/22,16:30:45,22.9026593,120.2730343,12.657,-80,-61,23,-103,-24,-1026,-16.41426468,-10.43430138,-12.65716553,-0.114617459,-2.504624128,0.111243606,24,300
2020/6/22,16:30:48,22.9025861,120.2729744,18.985,-74,200,-53,-68,-103,-889,-24.56589699,-16.5765686,-18.98532677,-0.034638643,-2.578438282,0.036452901,24,300
2020/6/22,16:30:51,22.9025364,120.2729808,20.135,37,-5,-17,-11,-58,-1030,-30.08992958,-15.92010117,-20.13502693,-0.060570486,2.155194521,0.01144235,24,300
2020/6/22,16:30:54,22.9024812,120.2730637,20.052,-27,9,-18,-10,-9,-998,-36.2394104,-7.41768837,-20.05290985,-0.04644005,2.216161489,0.049466081,24,300
2020/6/22,16:30:57,22.9024214,120.2731518,20.149,53,58,19,-20,-16,-1012,-42.89551544,1.619029999,-20.14995384,0.104083993,2.241853952,0.060735539,24,300
2020/6/22,16:31:00,22.9024019,120.2731799,20.323,101,-282,13,53,-44,-1056,-45.07292175,4.492076874,-20.32378197,0.128256813,2.43768239,0.1977119,24,300
2020/6/22,16:31:03,22.9023971,120.2731227,20.075,199,-144,-184,-103,-76,-974,-45.60536957,-1.369604111,-20.07574081,-0.254653722,-1.764739156,-0.004726516,24,300
2020/6/22,16:31:06,22.9023735,120.2730025,20.044,33,3,24,-217,78,-967,-48.22414398,-13.69077682,-20.04464912,-0.236912176,-1.708100319,0.019062165,24,300
2020/6/22,16:31:09,22.9023503,120.2728712,20.048,59,15,-10,-245,1,-972,-50.80690765,-27.16148376,-20.04849625,-0.245775744,-1.653082967,0.022313274,24,300
2020/6/22,16:31:12,22.9023357,120.2727506,20.366,25,94,156,-113,38,-1000,-52.44022369,-39.52574921,-20.36647606,-0.036359753,-1.553669333,0.041709602,24,300
2020/6/22,16:31:15,22.9023649,120.2727303,19.855,-99,70,-209,-33,106,-984,-49.18850708,-41.61100388,-19.85570145,-0.105519451,0.072331607,-0.08501862,24,300
2020/6/22,16:31:18,22.9024565,120.2727464,20.164,-21,78,35,-80,120,-978,-38.98590851,-39.95498657,-20.16483498,-0.092815347,0.144125909,-0.106311895,24,300
2020/6/22,16:31:21,22.902573,120.2727636,20.097,-77,17,52,-84,158,-971,-26.01878166,-38.18829346,-20.09766579,-0.101578228,0.198393032,-0.085062966,24,300
2020/6/22,16:31:24,22.9026982,120.272785,20.205,215,-44,308,-80,36,-893,-12.08067322,-35.99687195,-20.20598984,-0.065874808,0.352181852,0.103103928,24,300
2020/6/22,16:31:27,22.9027589,120.2728712,20.176,-17,95,87,-6,108,-967,-5.32950592,-27.15804672,-20.1765213,-0.064280957,1.191234112,-0.038725812,24,300
2020/6/22,16:31:30,22.9027831,120.273,19.791,19,-50,3,-8,106,-1011,-2.827923775,-15.12243271,-19.82308769,0.008430844,1.319733262,-0.109443426,24,300
2020/6/22,16:31:33,22.9028053,120.2731044,19.624,465,359,221,71,96,-1004,-0.16609478,-3.244600296,-19.62418938,0.19468829,1.439758062,-0.000783398,24,300
2020/6/22,16:31:36,22.9028056,120.2731193,16.974,-1,153,-9,128,25,-955,-0.130726814,-1.717899323,-16.9747467,0.126768813,1.542303443,-0.018695369,24,300
2020/6/22,16:32:56,22.9028055,120.2731272,15.355,-74,2,-46,-51,-27,-1046,-0.360355377,-0.255882263,-15.35579586,-0.028015634,-2.061735153,-2.17e-05,24,300
2020/6/22,16:32:59,22.9028053,120.2731233,19.721,-13,-179,-458,-147,41,-924,-0.383627415,-0.654298782,-19.72156906,-0.183581516,-1.474843025,-0.029704381,24,300
2020/6/22,16:33:02,22.9028011,120.273072,20.348,-3,24,21,-137,5,-976,-0.848052502,-5.90707016,-20.34893799,-0.168201968,-1.7324121,0.013770923,24,300
2020/6/22,16:33:05,22.9027924,120.2730087,20.227,-38,-48,63,-75,9,-950,-1.823254108,-12.39815903,-20.22749329,-0.13185057,-1.727913737,0.000842711,24,300
2020/6/22,16:33:08,22.9027818,120.2729438,19.918,86,-39,89,-133,31,-1021,-3.003284931,-19.06059647,-19.91888046,-0.118989103,-1.563041329,0.027888756,24,300
2020/6/22,16:33:11,22.9027764,120.2728907,19.929,-110,-105,21,-169,36,-1006,-3.600464344,-24.50359726,-19.92936707,-0.158878714,-1.578982353,0.016762227,24,300
2020/6/22,16:33:14,22.9027731,120.2728377,19.753,-88,-93,41,-140,51,-1005,-3.964337826,-29.94062805,-19.75352859,-0.187648296,-1.705981493,-0.014008245,24,300
2020/6/22,16:33:17,22.9027664,120.2727749,20.132,88,-48,32,-57,42,-845,-4.712994099,-36.38101196,-20.13221359,-0.098945625,-1.781452537,-0.049431827,24,300
2020/6/22,16:33:20,22.9027574,120.2727181,19.783,-76,2,-22,-151,121,-997,-5.71903944,-42.20214081,-19.78340912,-0.172030285,-1.635313153,-0.040995304,24,300
2020/6/22,16:33:23,22.9027487,120.2726899,20.048,-131,-110,-1296,-141,-3,-1025,-6.680503368,-45.09660339,-20.04835129,-0.074967571,-2.129131317,-0.064376503,24,300
2020/6/22,16:33:26,22.9027116,120.2727327,19.948,-66,-63,-16,43,-117,-1003,-10.81609917,-40.70044327,-19.94856262,0.018544313,2.422589302,0.15942505,24,300
2020/6/22,16:33:29,22.9026745,120.2727677,20.192,-109,24,-107,35,-41,-1002,-14.94708061,-37.11723328,-20.19210434,0.024968088,2.337454796,0.090149574,24,300
2020/6/22,16:33:32,22.9026373,120.2728063,19.95,6,-37,29,-13,-108,-1031,-19.08329391,-33.16153717,-19.95045471,-0.004988511,2.291333199,0.109272391,24,300
2020/6/22,16:33:35,22.9025948,120.2728416,19.903,-120,15,441,-98,-108,-1000,-23.81420326,-29.53246307,-19.90380859,-0.104386114,3.019895792,0.188624918,24,300
2020/6/22,16:33:38,22.9025392,120.2728375,20.123,-42,-27,37,-45,-89,-963,-30.00119209,-29.95406723,-20.12321472,-0.086794354,-3.100475073,0.097780243,24,300
2020/6/22,16:33:41,22.9024797,120.2728304,20.035,-148,-44,-43,-129,-43,-992,-36.62689972,-30.6909256,-20.03541946,-0.109517664,-2.964959145,0.093217857,24,300
2020/6/22,16:33:44,22.9024201,120.272823,20.006,-33,9,6,-33,-95,-997,-43.26026154,-31.44822311,-20.00693512,-0.092077576,-2.931295156,0.107458465,24,300
2020/6/22,16:33:47,22.9024053,120.2728279,20.109,-23,54,1014,-43,-23,-969,-44.90926361,-30.93784332,-20.10919952,-0.034389403,-1.337840438,0.065606512,24,300
2020/6/22,16:33:50,22.9024375,120.2728755,20.139,67,-35,-60,56,87,-1034,-41.32662964,-26.06542206,-20.13985443,0.07155095,0.786022127,-0.099503942,24,300
2020/6/22,16:33:53,22.9024732,120.2729216,20.152,-10,18,-20,50,40,-942,-37.35268021,-21.33341217,-20.152565,0.074409351,1.042580366,-0.011861558,24,300
2020/6/22,16:33:56,22.9024984,120.2729661,20.123,-42,-43,-253,58,82,-977,-34.54436874,-16.7751503,-20.12354279,0.049833886,0.781402886,-0.071137205,24,300
2020/6/22,16:33:59,22.9025104,120.273014,19.871,-22,-52,87,75,-30,-1012,-33.21081924,-11.85707092,-19.87139893,0.038043737,1.466530561,0.045436077,24,300
2020/6/22,16:34:02,22.9025076,120.273074,19.955,-70,-4,-8,87,-34,-994,-33.51878738,-5.708089828,-19.95578384,0.059469759,1.393033981,-0.00483287,24,300
2020/6/22,16:34:05,22.9025082,120.2731366,20.051,-208,-16,-1236,71,130,-987,-33.46004486,0.710041046,-20.0512619,0.157435104,0.891174078,-0.170923486,24,300
2020/6/22,16:34:08,22.9025421,120.2731455,20.177,57,87,111,-29,103,-991,-29.68504143,1.625225067,-20.17723083,-0.074714907,-0.234720215,-0.140457302,24,300
2020/6/22,16:34:11,22.9025963,120.2731349,20.188,52,130,53,-32,166,-1020,-23.65141487,0.540660858,-20.18868637,-0.066126943,-0.003601464,-0.062857985,24,300
2020/6/22,16:34:14,22.9026464,120.2731311,19.638,4,-11,-62,-47,58,-1031,-18.07357979,0.151988983,-19.63848495,-0.068102717,0.033102117,-0.083590515,24,300
2020/6/22,16:34:17,22.9026942,120.2731306,19.308,58,0,63,-15,37,-1007,-12.75339317,0.098299026,-19.30868149,-0.056677073,-0.114279084,-0.101372898,24,300
2020/6/22,16:34:20,22.9027459,120.273125,19.331,126,-14,-76,-71,83,-1004,-6.991761684,-0.474300385,-19.33107758,-0.092828125,-0.018724259,-0.062779725,24,300
2020/6/22,16:34:23,22.9027958,120.2731215,19.551,-2,274,22,-47,43,-950,-1.437197685,-0.83887291,-19.55165863,0.061028779,-0.065782502,-0.0679105,24,300
2020/6/22,16:34:26,22.9028041,120.2731203,16.472,-68,157,56,22,20,-963,-0.521289825,-0.954994202,-16.47266006,-0.048313882,-0.131265506,-0.065741017,24,300
2020/6/22,16:35:46,22.9028054,120.2731228,18.467,42,-67,39,-113,-57,-893,0.086170673,-0.131315231,-18.46770859,-0.094961748,-2.113237381,0.058438707,24,300
2020/6/22,16:35:49,22.9028062,120.273093,20.214,87,72,-37,-101,39,-974,0.174777031,-3.188228607,-20.21492577,-0.155390322,-1.751715779,-0.02889999,24,300
2020/6/22,16:35:52,22.9027984,120.2730293,20.095,-15,28,24,-131,-9,-1006,-0.70579958,-9.756067276,-20.09425163,-0.133333847,-1.637024879,0.018828558,24,300
2020/6/22,16:35:55,22.9027929,120.2729715,20.134,61,-65,-56,-128,31,-982,-1.306639194,-15.64533615,-20.13496399,-0.140442505,-1.59393239,0.009819063,24,300
2020/6/22,16:35:58,22.9027858,120.2729107,19.868,43,7,-149,-126,-64,-1014,-2.100171089,-21.91656876,-19.86553192,-0.123761512,-1.456611156,0.064024687,24,300
2020/6/22,16:36:01,22.9027867,120.2728512,19.919,-33,60,9,-142,8,-1006,-1.998806,-27.97683334,-19.91994858,-0.105691642,-1.707300305,0.021890916,24,300
2020/6/22,16:36:04,22.9027809,120.2727961,20.173,109,-154,-21,-38,-59,-972,-2.647891045,-33.63038635,-20.1734066,-0.092570893,-1.607827783,-0.002044464,24,300
2020/6/22,16:36:07,22.9027783,120.2727392,20.072,37,-236,12,-119,-30,-970,-2.927709579,-39.46455383,-20.07269096,-0.13973476,-1.676091552,-0.014803362,24,300
2020/6/22,16:36:10,22.9027707,120.2727193,19.967,-85,-26,1146,-43,0,-974,-3.778795242,-41.49940872,-19.9675312,-0.035622895,-0.583507597,0.056390595,24,300
2020/6/22,16:36:13,22.9027495,120.272782,19.842,-50,95,-128,53,-31,-1005,-6.144422531,-35.07450485,-19.84208488,0.084333055,2.073386192,0.065806523,24,300
2020/6/22,16:36:16,22.9027275,120.272831,19.782,-59,36,24,203,-71,-984,-8.591671944,-30.04743958,-19.78248024,0.076453209,1.927213788,0.056473121,24,300
2020/6/22,16:36:19,22.9027035,120.2728844,20.036,-32,11,-20,157,0,-952,-11.25786304,-24.57656479,-20.0364418,0.066012666,1.851179361,-0.009779361,24,300
2020/6/22,16:36:22,22.9026862,120.2729283,20.149,2,-48,1113,213,75,-992,-13.18756771,-20.07010651,-20.14990997,0.249743879,1.818297625,0.025046308,24,300
2020/6/22,16:36:25,22.90266,120.2729032,19.983,40,17,65,-117,-178,-1047,-16.10381317,-22.64544678,-19.98363876,-0.157146886,-2.320524931,0.201773182,24,300
2020/6/22,16:36:28,22.9026204,120.2728585,20.127,-56,123,-131,-97,-68,-930,-20.51037216,-27.22787094,-20.12751579,0.034160051,-2.467632532,0.108005352,24,300
2020/6/22,16:36:31,22.9026026,120.2728646,20.287,78,-34,-1136,28,-5,-1036,-22.48859024,-26.60926056,-20.28793526,0.00707873,1.955374837,-0.096991196,24,300
2020/6/22,16:36:34,22.9026128,120.272926,20.017,97,-30,281,104,127,-1027,-21.35472488,-20.30775452,-20.0173912,0.098866902,1.334901333,-0.062077668,24,300
2020/6/22,16:36:37,22.9026191,120.2729746,19.92,-66,-12,-92,60,110,-977,-20.65769577,-15.32972717,-19.92094231,0.059670448,1.573846698,-0.040254358,24,300
2020/6/22,16:36:40,22.9026175,120.2730267,19.903,-39,43,-113,39,97,-950,-20.83450699,-9.983860016,-19.90341568,0.045829538,1.335795879,-0.107452109,24,300
2020/6/22,16:36:43,22.9026226,120.2730854,20.035,-51,-34,119,16,56,-976,-20.26045609,-3.967636108,-20.03511238,0.02462681,1.419512868,-0.027527399,24,300
2020/6/22,16:36:46,22.9026351,120.2731235,20.007,-99,-18,-255,-39,22,-1001,-18.87735748,-0.052080154,-20.00755692,-0.128373116,0.211265624,-0.09712182,24,300
2020/6/22,16:36:49,22.9026859,120.2731277,20.038,-25,106,24,-93,112,-1005,-13.2233305,0.374391556,-20.03854752,-0.098459929,-0.119438574,-0.071852706,24,300
2020/6/22,16:36:52,22.9027366,120.273124,20.054,88,211,236,-1,119,-957,-7.572389603,-0.005044937,-20.05493164,-0.095958389,-0.064560927,-0.03639777,24,300
2020/6/22,16:36:55,22.9027897,120.2731223,19.915,38,110,51,-74,160,-937,-1.667673111,-0.174829483,-19.91598892,0.007963063,-0.114779644,-0.126708701,24,300
2020/6/22,16:36:58,22.9028015,120.2731174,17.059,-36,-44,-118,-65,-52,-987,-0.348392487,-0.68488884,-17.05953789,-0.092618585,-0.108598307,0.00196188,24,300
2020/6/22,16:41:10,22.9028193,120.2731284,0.025,2,0,0,16,31,-1001,-0.05802536,-0.048912048,-0.025703192,-0.001131817,-2.016276121,-0.019439906,24,300
2020/6/22,16:41:13,22.9028167,120.2731282,0.023,373,-201,151,1,41,-1089,-0.351552963,-0.071311951,-0.023331046,-0.036913298,-1.883589745,-0.266608834,24,300
2020/6/22,16:41:17,22.9027509,120.2731331,2.642,121,176,21,-110,-55,-1034,-7.675877571,0.437620163,-2.642585754,-0.134818479,2.955720186,0.061393898,24,300
2020/6/22,16:41:20,22.9026505,120.2731442,6.323,83,48,36,11,-118,-980,-18.84638023,1.576539993,-6.323626518,-0.111119032,2.990115643,0.105779365,24,300
2020/6/22,16:41:23,22.9025241,120.2731602,10.945,36,-16,9,-79,-96,-987,-33.01202011,3.218706131,-10.97509575,-0.060520113,3.04612422,0.110569395,24,300
2020/6/22,16:41:26,22.902408,120.2731685,14.848,-75,-34,-64,-65,-21,-921,-45.85027313,4.061719894,-14.84874725,-0.129910484,3.080061197,0.034386724,24,300
2020/6/22,16:41:29,22.9022759,120.273182,18.703,-31,2,-19,-106,-31,-1026,-60.54807663,5.450418472,-18.70319748,-0.100603007,3.037594557,0.085145295,24,300
2020/6/22,16:41:32,22.9021883,120.2731771,20.261,-51,-341,630,-88,30,-952,-70.29920959,4.945684433,-20.26156044,-0.141620174,-2.159482956,0.180098936,24,300
2020/6/22,16:41:35,22.902174,120.2730888,20.351,-10,94,21,-135,90,-1023,-71.891922,-4.11136055,-20.35140228,-0.182995439,-1.780233502,-0.023494653,24,300
2020/6/22,16:41:38,22.9021558,120.2729593,20.102,21,-83,6,-96,17,-946,-73.92434692,-17.39041901,-20.10278702,-0.129788086,-1.695365191,-0.005929041,24,300
2020/6/22,16:41:41,22.9021387,120.272821,19.983,-73,280,-17,-149,33,-959,-75.83647156,-31.66127014,-19.98473167,-0.17491807,-1.616199613,-0.009804214,24,300
2020/6/22,16:41:44,22.9021519,120.272741,19.816,-114,121,335,-74,98,-1039,-74.3589325,-39.76950455,-19.81690598,-0.180312753,-0.333714247,0.052420832,24,300
2020/6/22,16:41:47,22.9022449,120.2727282,20.022,98,26,37,-42,18,-1007,-63.99917221,-41.08554459,-20.02294159,-0.12372341,-0.145918861,-0.05890974,24,300
2020/6/22,16:41:50,22.9023589,120.2727162,20.076,-52,-24,16,-108,194,-980,-51.31354141,-42.3097496,-20.07671738,-0.158360615,-0.107645281,-0.109583415,24,300
2020/6/22,16:41:53,22.9024952,120.2727016,20.354,-2,-171,-60,-150,137,-956,-36.14403534,-43.80677414,-20.35445404,-0.081271358,-0.079615489,-0.125315249,24,300
2020/6/22,16:41:56,22.9026142,120.2726866,20.149,-111,117,9,-121,213,-1039,-22.89651108,-45.35328293,-20.14956093,-0.156707287,0.036972031,-0.108285122,24,300
2020/6/22,16:41:59,22.9027362,120.2726897,20.375,181,160,299,-6,36,-976,-9.307395935,-45.02908707,-20.37514114,0.057986446,0.333518505,0.011852765,24,300
2020/6/22,16:42:02,22.9027674,120.2727565,19.885,-85,15,-70,41,15,-1065,-5.840924263,-38.17884445,-19.88541031,-0.021463662,1.342519403,-0.013126859,24,300
2020/6/22,16:42:05,22.9027756,120.2728691,19.757,67,5,-37,22,51,-956,-4.92088604,-26.63794708,-19.75740242,-0.016786067,1.371019602,-0.018566079,24,300
2020/6/22,16:42:08,22.9027921,120.2730079,19.791,-6,-3,-7,2,42,-995,-3.09457016,-12.40189743,-19.79135513,0.021107543,1.424117684,-0.022205696,24,300
2020/6/22,16:42:11,22.9028045,120.2731042,19.716,31,154,37,45,69,-978,-1.705756187,-2.482660294,-19.7138443,0.156393796,1.495878577,-0.007837233,24,300
2020/6/22,16:42:14,22.9028068,120.2731173,16.856,-97,-34,-3,47,-16,-995,-1.457478523,-1.182472229,-16.85665512,0.053715438,1.503147483,0.021548226,24,300
2020/6/22,16:43:28,22.9028149,120.2731184,19.835,71,-57,-67,-77,-38,-958,0.183105469,-1.318840027,-19.83559799,-0.190454483,-1.74857986,0.022699002,24,300
2020/6/22,16:43:31,22.9028122,120.2730621,20.263,-90,60,16,-67,16,-1027,-0.121106148,-7.093757629,-20.26321602,-0.076762192,-1.577478409,0.047065508,24,300
2020/6/22,16:43:34,22.9028088,120.2729989,20.079,-72,5,-40,-149,39,-1023,-0.495526791,-13.57479668,-20.07971764,-0.122576341,-1.479125977,0.021233974,24,300
2020/6/22,16:43:37,22.902809,120.2729377,20.079,-148,-157,7,-31,-26,-968,-0.470329285,-19.85225868,-20.07912445,-0.104804516,-1.511254907,-0.005163638,24,300
2020/6/22,16:43:40,22.9028002,120.2728771,19.696,-138,54,-55,-106,-84,-1035,-1.44990778,-26.05911827,-19.69648743,-0.095127054,-1.690370798,0.078824736,24,300
2020/6/22,16:43:43,22.9027914,120.272818,20.058,-56,42,41,-100,-5,-1032,-2.428634167,-32.11967468,-20.05815506,-0.115572661,-1.74377954,0.051477127,24,300
2020/6/22,16:43:46,22.9027741,120.272779,19.875,-52,2,-130,-79,-7,-1057,-4.352993488,-36.11640167,-19.87541008,-0.111274615,3.053264856,-0.014041501,24,300
2020/6/22,16:43:49,22.9027117,120.2727837,19.891,51,-78,64,39,-8,-936,-11.30951309,-35.64060211,-19.89165497,0.011688249,2.894371748,0.047100142,24,300
2020/6/22,16:43:52,22.9026632,120.272792,20.056,-36,27,34,45,-74,-977,-16.70654488,-34.79080963,-20.0562973,-0.0225081,3.020449162,0.056300141,24,300
2020/6/22,16:43:55,22.9026068,120.2727972,20.196,-36,1,41,11,-19,-983,-22.98480988,-34.25895691,-20.19645691,0.02157557,2.944884777,0.020838674,24,300
2020/6/22,16:43:58,22.9025622,120.272803,19.957,93,-145,54,-48,16,-1001,-27.95031166,-33.66269684,-19.95722389,-0.063378185,2.885422945,0.0113007,24,300
2020/6/22,16:44:01,22.9025138,120.2728081,20.046,-315,-178,-437,11,104,-1043,-33.33579636,-33.14016724,-20.04605103,0.110836998,2.649178982,-0.045198336,24,300
2020/6/22,16:44:04,22.9025225,120.2728251,20.178,-87,-100,130,-75,24,-987,-32.36149597,-31.38866615,-20.17896271,-0.154596716,0.619420826,-0.03489352,24,300
2020/6/22,16:44:07,22.9025615,120.2728631,20.019,154,-166,-176,-41,56,-1121,-28.01904488,-27.49489021,-20.01987076,-0.057759374,0.735240996,-0.016689476,24,300
2020/6/22,16:44:10,22.9026016,120.2729029,19.936,-58,0,-35,-12,82,-991,-23.55879784,-23.41613197,-19.93613052,-0.039134774,0.824893534,-0.009558509,24,300
2020/6/22,16:44:13,22.9026367,120.2729435,19.833,-18,120,35,34,16,-977,-19.65828514,-19.24915123,-19.83345604,0.003510373,0.713150322,-0.05172902,24,300
2020/6/22,16:44:16,22.9026707,120.2729791,20.182,-172,177,-22,-39,10,-1032,-15.87238121,-15.60435295,-20.1822052,-0.043798503,0.742410064,-0.051943354,24,300
2020/6/22,16:44:19,22.9027044,120.2730157,20.072,-52,101,-101,-54,114,-999,-12.1173954,-11.84623528,-20.07294655,-0.048098337,0.731751502,-0.129120156,24,300
2020/6/22,16:44:22,22.9027444,120.2730584,19.315,-393,-122,29,-30,138,-904,-7.662416935,-7.47088623,-19.31585693,-0.029674426,0.733385026,-0.147636876,24,300
2020/6/22,16:44:25,22.9027827,120.2731004,19.501,104,11,-49,-4,58,-980,-3.686064243,-3.486139297,-19.47721863,-0.036134414,0.677873492,-0.145766959,24,300
2020/6/22,16:44:28,22.9028044,120.2731158,18.48,109,85,15,-24,129,-921,-0.980932713,-1.580411911,-18.48040009,-0.014622821,0.64573288,-0.004505132,24,300
2020/6/22,16:45:43,22.9028136,120.2731224,19.887,-17,-26,-175,-92,3,-979,0.098009586,-0.820192337,-19.88715744,-0.117243513,-1.58098042,0.019039661,24,300
2020/6/22,16:45:46,22.9028109,120.2730702,20.277,-20,92,30,-39,77,-916,-0.205068111,-6.163478851,-20.27748489,-0.046633907,-1.676702976,0.022622954,24,300
2020/6/22,16:45:49,22.9028036,120.273013,20.068,49,85,82,-119,-51,-972,-1.01824522,-12.03682137,-20.06853485,-0.119852521,-1.5886271,0.049753513,24,300
2020/6/22,16:45:52,22.9027992,120.2729487,19.853,-10,-3,54,-51,-12,-977,-1.505295277,-18.63008308,-19.85344887,-0.080411807,-1.655249238,0.036045697,24,300
2020/6/22,16:45:55,22.9027958,120.2728973,20.045,-170,94,-344,-124,-41,-1014,-1.887320995,-23.8946743,-20.04563141,0.008561401,-1.761035204,-0.024818171,24,300
2020/6/22,16:45:58,22.9027573,120.2728997,19.8,88,-12,-69,46,-63,-1005,-6.173817158,-23.65624046,-19.80017662,0.038766887,2.45417428,-0.015383543,24,300
2020/6/22,16:46:01,22.9027158,120.272927,19.858,141,-26,84,29,-73,-990,-10.79640579,-20.85623741,-19.8584938,-0.014422627,2.661534071,0.031495061,24,300
2020/6/22,16:46:04,22.9026688,120.2729505,19.991,-87,1,-47,3,-2,-978,-16.02602386,-18.44326591,-19.99179268,-0.007557998,2.610568762,-0.024022803,24,300
2020/6/22,16:46:07,22.9026205,120.2729791,20.078,12,-100,57,-25,-14,-987,-20.93091202,-15.69346046,-20.06653214,-0.042199261,2.832277775,0.045360461,24,300
2020/6/22,16:46:10,22.9025736,120.2730016,20.047,18,-11,57,-17,28,-1011,-26.62470245,-13.20069313,-20.04749489,-0.040297661,2.539146423,-0.004932966,24,300
2020/6/22,16:46:13,22.9025173,120.2730341,20.011,-78,-10,23,-38,13,-1002,-32.88727188,-9.869760513,-20.01159096,-0.029908355,2.660218,0.012477763,24,300
2020/6/22,16:46:16,22.9024986,120.2730516,20.082,-5,93,-1081,0,103,-1019,-34.97277832,-8.077627182,-20.0823822,0.005533053,1.37281692,-0.129791528,24,300
2020/6/22,16:46:19,22.9025398,120.2730715,20.154,118,-80,15,-45,111,-970,-30.37986374,-6.030056,-20.15468407,-0.08684089,0.323492676,-0.043058001,24,300
2020/6/22,16:46:22,22.9025877,120.273094,20.086,19,-40,-22,-63,100,-1048,-25.05781555,-3.725442886,-20.08660698,-0.030955132,0.401234806,-0.087908588,24,300
2020/6/22,16:46:25,22.9026353,120.2731203,19.985,-126,-42,-221,-70,168,-977,-19.75275993,-1.031095505,-19.98512459,-0.037229106,0.303481668,-0.18192637,24,300
2020/6/22,16:46:28,22.9026805,120.2731278,19.653,115,-13,13,-153,186,-1054,-14.72483253,-0.259326935,-19.65306854,-0.150278479,-0.094749369,-0.167078868,24,300
2020/6/22,16:46:31,22.9027398,120.2731234,19.812,57,25,80,-128,169,-972,-8.123422623,-0.716423035,-19.81299782,-0.113861598,-0.070269734,-0.10781689,24,300
2020/6/22,16:46:34,22.9027907,120.2731192,19.948,302,262,109,-70,24,-1004,-2.450091839,-1.140512466,-19.94865608,0.085185066,0.049732067,0.013230438,24,300
2020/6/22,16:46:37,22.9028013,120.2731184,16.751,79,-444,8,-40,89,-1006,-1.279300213,-1.221725464,-16.75110054,-0.085403584,0.081868738,-0.006174451,24,300
2020/6/22,16:51:27,22.9028252,120.2731395,-0.014,1,0,2,2,29,-1000,0.020721436,-0.007539749,0.014148831,-0.013233604,-2.090344191,-0.020921893,26,290
2020/6/22,16:51:30,22.9028227,120.273131,0.43,-124,81,787,-41,-64,-1089,-0.262116432,-0.872976303,-0.430783033,-0.066652298,-2.107963085,0.150288627,26,290
2020/6/22,16:51:33,22.9028176,120.2730582,3.897,61,29,17,-143,2,-973,-0.824574471,-8.34013176,-3.897569656,-0.190732688,-1.81232512,0.028174676,26,290
2020/6/22,16:51:36,22.9028003,120.2729332,9.438,-42,156,-60,-127,26,-1040,-2.760410309,-21.16063309,-9.43803978,-0.145100608,-1.725316644,0.015764147,26,290
2020/6/22,16:51:39,22.9027797,120.2728107,14.286,-127,1,-13,-125,7,-960,-5.062553406,-33.80110168,-14.31686592,-0.155502751,-1.664629698,0.054634336,26,290
2020/6/22,16:51:42,22.9027631,120.2726944,18.29,42,210,22,-170,-4,-899,-6.900876999,-45.64844513,-18.29004669,-0.173580095,-1.659120202,0.057301763,26,290
2020/6/22,16:51:45,22.902756,120.272612,20.282,21,75,-43,-76,-17,-984,-7.685650826,-54.09819031,-20.28295898,-0.003143562,-1.478177905,0.058862802,26,290
2020/6/22,16:51:48,22.9027478,120.2726171,20.111,-116,30,-20,-53,19,-974,-8.596511841,-53.57326508,-20.11148643,-0.034414366,-1.492715716,-0.031669427,26,290
2020/6/22,16:51:51,22.9027099,120.2726758,19.99,136,-42,-284,-15,98,-1000,-12.81312275,-47.55348206,-19.99020576,-0.092005044,2.26619029,0.022386352,26,290
2020/6/22,16:51:54,22.9026551,120.2727668,20.118,24,-129,31,-74,-21,-1030,-18.92382431,-38.22487259,-20.1181488,-0.088433258,2.174721718,0.042826317,26,290
2020/6/22,16:51:57,22.9025862,120.2728441,20.016,-38,-108,593,-32,-24,-1005,-26.58868027,-30.29453278,-20.01678848,-0.12994203,-3.116531372,0.199276656,26,290
2020/6/22,16:52:00,22.9025005,120.2728165,20.298,-80,-89,-7,-84,-78,-973,-36.20854187,-33.16260147,-20.29625511,-0.142661378,-2.815846443,0.088385999,26,290
2020/6/22,16:52:03,22.9024006,120.2728033,20.251,35,40,-861,-9,15,-1006,-47.24384689,-34.48470688,-20.25191307,0.009914609,2.344219208,-0.163276955,26,290
2020/6/22,16:52:06,22.9023579,120.2728871,20.034,-68,-45,35,-30,116,-982,-52.0017662,-25.8863945,-20.034338,-0.030535463,1.856302381,-0.070620291,26,290
2020/6/22,16:52:09,22.9023176,120.2730018,20.026,6,-98,-59,-24,95,-952,-56.49269485,-14.12916946,-20.02640152,-0.038408048,1.910058141,-0.062820286,26,290
2020/6/22,16:52:12,22.9022845,120.2731016,20.165,29,50,13,30,24,-990,-60.1681633,-3.887041092,-20.16568184,0.099194527,2.006629467,-0.001896092,26,290
2020/6/22,16:52:15,22.902276,120.2731329,20.474,-38,9,-89,65,101,-1007,-61.11426163,-0.68470192,-20.47474098,0.164741829,2.265950441,-0.025590736,26,290
2020/6/22,16:52:18,22.9023082,120.2731275,20.169,5,66,-1116,-46,70,-1028,-57.53847122,-1.236053467,-20.16999626,-0.060743961,0.918621898,-0.137398884,26,290
2020/6/22,16:52:21,22.9023904,120.2731339,19.648,50,45,-191,-175,98,-1073,-48.37936783,-0.582164764,-19.64850426,-0.163392186,-0.078590654,-0.14987959,26,290
2020/6/22,16:52:24,22.902509,120.2731281,19.609,122,-50,-61,-109,18,-928,-35.18368912,-1.170778275,-19.60958672,-0.132407755,-0.059221059,-0.077337161,26,290
2020/6/22,16:52:27,22.9026378,120.2731201,19.512,24,-42,-5,-175,169,-931,-20.84682465,-1.992628098,-19.51280594,-0.204050466,0.01611582,-0.104210414,26,290
2020/6/22,16:52:30,22.902753,120.2731182,19.556,-15,-67,150,-90,81,-916,-8.02358532,-2.193336487,-19.55655289,-0.055776365,0.010767581,-0.06010263,26,290
2020/6/22,16:52:33,22.9027995,120.2731174,18.601,-25,-103,33,-52,110,-879,-2.839316368,-2.270872116,-18.60178947,-0.056387749,0.227628872,-0.058861408,26,290
2020/6/22,16:54:00,22.9028114,120.2731329,17.744,47,-17,49,-134,-98,-934,-0.259586334,-0.302165985,-17.7442379,-0.049114432,-1.891523361,0.121558361,26,290
2020/6/22,16:54:03,22.9027869,120.273135,20.008,-49,142,-68,66,-110,-963,-2.987240791,-0.091314316,-20.00804329,-0.015763158,3.017614365,0.079124488,26,290
2020/6/22,16:54:06,22.9027364,120.273139,20.068,-50,55,81,25,-41,-1010,-8.613864899,0.31801033,-20.06889915,0.001552269,2.914174557,0.069978133,26,290
2020/6/22,16:54:09,22.9026809,120.2731481,20.045,62,34,95,87,-105,-978,-14.7937603,1.251550674,-20.04527092,0.064570859,3.07814002,0.106765345,26,290
2020/6/22,16:54:12,22.9026229,120.2731554,20.164,-34,-52,-109,21,-102,-998,-21.24392128,2.008937836,-20.164011,0.034284342,-3.1334095,0.099640273,26,290
2020/6/22,16:54:15,22.9025826,120.2731535,20.035,70,-69,1021,-63,-182,-970,-25.72924805,1.809486389,-20.03556061,-0.109112039,-2.020327091,0.222042069,26,290
2020/6/22,16:54:18,22.9025821,120.273107,20.072,-110,25,0,-99,-10,-959,-25.78614807,-2.962324142,-20.07228279,-0.193686485,-1.773224354,0.069234647,26,290
2020/6/22,16:54:21,22.9025747,120.2730406,20.104,72,1,51,-134,-65,-999,-26.60723495,-9.770635605,-20.10422325,-0.149778768,-1.474330068,0.109232135,26,290
2020/6/22,16:54:24,22.9025737,120.2729755,20.083,-193,179,247,-93,-86,-1025,-26.72373199,-16.48521996,-20.0865097,-0.091360979,-1.52592361,0.06386862,26,290
2020/6/22,16:54:27,22.902578,120.2729161,20.27,73,9,-33,-111,5,-975,-26.24690247,-22.53362465,-20.27008438,-0.170541286,-1.682857037,-0.009791791,26,290
2020/6/22,16:54:30,22.9025748,120.2728561,19.884,98,82,32,-94,-25,-1033,-26.59574509,-28.68740654,-19.88473701,-0.132570073,-1.628222108,0.018395893,26,290
2020/6/22,16:54:33,22.9025777,120.2728265,19.811,-109,69,1132,-2,7,-1049,-26.28113174,-31.72088051,-19.81119919,-0.167165071,-0.173892334,0.030667324,26,290
2020/6/22,16:54:36,22.9026174,120.2728491,19.907,130,-89,147,-106,34,-970,-21.86278343,-29.40625954,-19.90718651,-0.130294919,0.229466468,-0.105130553,26,290
2020/6/22,16:54:39,22.9026692,120.2728678,20.189,213,-91,190,-59,28,-975,-16.09262657,-27.49160194,-20.18955803,-0.115361527,0.472971946,-0.040179253,26,290
2020/6/22,16:54:42,22.9027149,120.2728932,20.408,-15,145,516,-15,182,-954,-11.00850105,-24.88026237,-20.40805244,-0.080411404,0.654041946,-0.008592001,26,290
2020/6/22,16:54:45,22.9027424,120.2729495,20.258,28,-30,60,-40,101,-1041,-8.111143112,-19.48616219,-20.28968048,-0.002971257,1.063226342,-0.089012966,26,290
2020/6/22,16:54:48,22.9027601,120.2730012,19.938,96,13,32,-51,125,-1001,-5.977148056,-13.81242943,-19.93891335,-0.026243106,1.069990277,-0.114578761,26,290
2020/6/22,16:54:51,22.9027794,120.2730536,19.848,55,20,-8,0,56,-1029,-3.824081421,-8.429403305,-19.8483963,-0.014245863,1.104524255,-0.101897046,26,290
2020/6/22,16:54:54,22.9027983,120.2731078,19.771,33,253,-29,24,28,-1007,-1.717530251,-2.879480362,-19.77144241,0.093561888,1.05284822,-0.122434802,26,290
2020/6/22,16:54:57,22.9028036,120.2731183,16.972,9,-30,54,69,107,-946,-1.12465477,-1.803735733,-16.972332,-0.000328232,1.037328124,-0.104532026,26,290
2020/6/22,16:56:32,22.9028143,120.2731239,19.967,-64,8,-14,-42,-57,-977,-0.052282333,-0.815803528,-19.88309669,-0.132158339,-1.654776931,0.033119936,26,290
2020/6/22,16:56:35,22.9028089,120.2730724,20.26,-38,-12,-85,-164,-43,-1043,-0.681735039,-6.366851807,-20.26078415,-0.154288203,-1.769808412,0.03788539,26,290
2020/6/22,16:56:38,22.9027981,120.2730179,20.057,53,54,107,-176,-88,-1023,-1.889878273,-11.94640541,-20.05783653,-0.180288464,-1.64902246,0.062503353,26,290
2020/6/22,16:56:41,22.902791,120.2729602,20.082,7,84,10,-164,-5,-1019,-2.679769516,-17.86665535,-20.08255959,-0.154108807,-1.705657721,0.020877512,26,290
2020/6/22,16:56:44,22.9027826,120.2728977,19.903,146,-21,-33,-161,-3,-959,-3.613700867,-24.27243233,-19.90333748,-0.138528422,-1.73607409,-0.00216387,26,290
2020/6/22,16:56:47,22.9027746,120.2728447,19.974,166,446,121,-185,12,-1122,-4.504963875,-29.71076012,-19.97454643,-0.08092159,-1.746994615,0.019078521,26,290
2020/6/22,16:56:50,22.9027684,120.2728412,20.059,-21,82,917,75,26,-969,-5.197678566,-30.07410622,-20.05964279,0.000526052,0.315245777,-0.010620584,26,290
2020/6/22,16:56:53,22.9027459,120.272898,19.894,-12,17,-107,13,-11,-999,-7.698806763,-24.2500248,-19.89402771,0.040310048,1.977885127,0.048532832,26,290
2020/6/22,16:56:56,22.9027232,120.2729535,19.966,-54,22,9,116,-19,-986,-10.21964645,-18.55976677,-19.96643829,0.063638493,1.877551198,0.054201894,26,290
2020/6/22,16:56:59,22.902698,120.2730082,19.999,-7,80,285,12,-77,-984,-12.71064377,-13.27886009,-19.98060608,-0.003724728,2.62169385,0.147905678,26,290
2020/6/22,16:57:02,22.9026546,120.2730307,20.253,69,49,-44,43,-127,-972,-17.85856056,-10.6356678,-20.25371552,-0.024757478,2.664373636,0.080343284,26,290
2020/6/22,16:57:05,22.9026029,120.2730553,19.964,39,-33,39,-7,-34,-985,-23.65198135,-8.101793289,-19.96426201,-0.008406232,2.546467304,0.042960193,26,290
2020/6/22,16:57:08,22.9025527,120.2730849,20.028,-23,94,125,-7,-27,-987,-29.20816803,-5.078632355,-20.02820396,0.077306703,2.677041292,0.086866803,26,290
2020/6/22,16:57:11,22.9025651,120.2730964,19.878,-167,19,1170,-157,8,-980,-27.82675552,-3.905879974,-19.87861252,-0.147198766,-1.450318933,0.12132185,26,290
2020/6/22,16:57:14,22.9026234,120.2730997,20.093,35,-31,190,-56,115,-977,-21.33710289,-3.567287445,-20.09307861,-0.046779562,0.000699881,-0.114424609,26,290
2020/6/22,16:57:17,22.9026772,120.2730973,19.722,-86,-120,-90,-55,49,-1063,-15.34370041,-3.810331345,-19.72275162,-0.035313301,0.362372518,-0.052473009,26,290
2020/6/22,16:57:20,22.9027221,120.2731085,19.689,-18,7,-63,9,60,-986,-10.3436718,-2.658498764,-19.68937492,-0.023179654,0.166308284,-0.090241939,26,290
2020/6/22,16:57:23,22.90277,120.2731127,19.309,-107,-81,78,0,106,-990,-5.016247749,-2.225448608,-19.30926895,-0.046734214,0.276023149,-0.018378031,26,290
2020/6/22,16:57:26,22.9028067,120.2731187,18.187,217,-61,359,-20,60,-906,-0.983969688,-1.546089172,-18.52702522,0.112236962,0.285876423,0.003518197,26,290
2020/6/22,17:02:32,22.9028007,120.2731191,2.471,21,34,-53,-41,-44,-1006,-2.196307182,-3.707860947,-2.471030474,-0.173913747,-2.209745884,0.015310906,26,290
2020/6/22,17:02:35,22.9027477,120.2730257,7.896,0,32,9,-153,7,-976,-8.101427078,-13.28781319,-7.896061897,-0.127140641,-2.184447765,0.006887795,26,290
2020/6/22,17:02:38,22.9026882,120.2729323,12.963,-57,154,16,-74,-19,-1023,-14.72347069,-22.8620472,-12.963521,-0.156770661,-2.126971722,0.028573371,26,290
2020/6/22,17:02:41,22.9026295,120.2728299,18.592,-33,-53,-13,-161,35,-842,-21.26000404,-33.36408234,-18.59201241,-0.132785037,-2.085089207,0.014348337,26,290
2020/6/22,17:02:44,22.9025516,120.2727783,20.317,104,-39,-331,-71,-67,-1004,-29.92291069,-38.65079498,-20.31745338,-0.151857361,3.137657642,-0.036266111,26,290
2020/6/22,17:02:47,22.9024474,120.2727919,19.968,-6,-13,36,-112,-46,-982,-41.52859497,-37.25897217,-19.96840477,-0.128707454,2.930534601,0.091611743,26,290
2020/6/22,17:02:50,22.902327,120.2728171,20.051,52,3,2,-62,-83,-976,-54.93493652,-34.67073822,-20.05140877,-0.129347861,2.938654423,0.069885738,26,290
2020/6/22,17:02:53,22.9022215,120.2728408,20.12,-72,-160,113,-44,-14,-955,-66.67481995,-32.24776459,-20.12076378,0.022793561,3.002079487,0.079164959,26,290
2020/6/22,17:02:56,22.9021811,120.2728538,20.011,178,243,-10,55,-94,-1003,-71.17655945,-30.91599846,-20.01115799,0.047049344,2.966664314,0.042029731,26,290
2020/6/22,17:02:59,22.9022041,120.2728806,20.044,-46,88,-989,-11,80,-983,-68.60706329,-28.1638813,-20.0440731,-0.070049495,1.785944581,-0.080707364,26,290
2020/6/22,17:03:02,22.9022668,120.2729582,20.095,24,-31,159,2,-18,-975,-61.62779999,-20.2055645,-20.09552002,-0.071419127,0.818983316,-0.041256189,26,290
2020/6/22,17:03:05,22.9023398,120.2730456,20.355,105,-71,13,-92,84,-960,-53.5102005,-11.24178123,-20.35563469,-0.058951668,0.85823822,-0.089890391,26,290
2020/6/22,17:03:08,22.9024296,120.2731416,19.919,13,39,-393,-62,44,-1036,-43.43203735,-1.348493576,-19.91717911,-0.057879377,0.538151264,-0.186281458,26,290
2020/6/22,17:03:11,22.9025502,120.2731654,20.138,103,-130,-12,-66,53,-975,-30.08120918,1.038375854,-20.13855171,-0.10843315,-0.140735775,-0.049404718,26,290
2020/6/22,17:03:14,22.9026759,120.273145,19.721,-25,11,-150,-120,30,-959,-16.09503555,-1.055702209,-19.72159004,-0.094417527,-0.173274383,-0.057533506,26,290
2020/6/22,17:03:17,22.902772,120.273125,19.338,-30,39,107,-44,84,-1001,-5.396565437,-3.10177803,-19.33891296,0.00949333,-0.127787024,-0.029995143,26,290
2020/6/22,17:03:20,22.9028016,120.2731175,17.605,-28,-83,-124,14,-23,-1003,-2.102647781,-3.868745804,-17.57424355,-0.007708363,-0.124581538,-0.00056224,26,290
2020/6/22,17:04:20,22.902808,120.2731477,10.87,-62,1,-27,-79,14,-1018,0.184613228,-0.135017395,-10.87098598,-0.009070161,-2.085817337,0.022298077,26,290
2020/6/22,17:04:23,22.9028069,120.2731479,18.098,45,27,25,3,0,-882,0.066450119,-0.120296478,-18.09866905,-0.029144861,-2.073720694,0.045704618,26,290
2020/6/22,17:04:26,22.9027857,120.2731397,19.931,7,-6,-62,-64,-15,-992,-2.29651165,-0.956882477,-19.93196678,-0.072268531,-3.006057262,-0.003201419,26,290
2020/6/22,17:04:29,22.9027294,120.273125,20.068,45,-35,37,-51,28,-1001,-8.56729126,-2.461812973,-20.06879425,-0.046628065,-2.979088545,0.022385869,26,290
2020/6/22,17:04:32,22.9026798,120.273115,20.018,20,-14,-72,-38,-56,-1012,-14.08709526,-3.494829178,-20.01803017,-0.065484732,-2.83116436,0.008542385,26,290
2020/6/22,17:04:35,22.9026223,120.2730993,20.07,-23,-10,86,-26,-51,-1013,-20.49141693,-5.10177803,-20.07046127,-0.064644963,-2.857608318,0.059643626,26,290
2020/6/22,17:04:38,22.9025693,120.2730839,19.953,67,-135,-6,12,-113,-1034,-26.38592339,-6.679447174,-19.95389175,-0.042676866,-2.912990332,0.065164082,26,290
2020/6/22,17:04:41,22.9025108,120.2730679,20.023,-47,-3,50,-15,-35,-990,-32.89884186,-8.323394775,-20.02345848,-0.022158807,-2.898962736,0.074505858,26,290
2020/6/22,17:04:44,22.9024572,120.2730532,20.008,-131,8,48,0,-95,-1047,-38.86148071,-9.830720901,-20.00841904,-0.030448137,-2.920712948,0.092267752,26,290
2020/6/22,17:04:47,22.9024045,120.2730383,20.203,-59,-113,-101,-23,-87,-994,-44.73563385,-11.3593483,-20.20300865,-0.015179774,-2.904687166,0.066980302,26,290
2020/6/22,17:04:50,22.9023561,120.2730239,19.89,109,-89,1202,-4,-109,-1012,-50.12490082,-12.83769608,-19.89067078,0.118359357,-2.426670074,0.164274693,26,290
2020/6/22,17:04:53,22.9023626,120.2729943,20.093,-48,82,-42,-56,-6,-1015,-49.40055847,-15.86808014,-20.09350395,-0.145864531,-1.316287041,0.025867309,26,290
2020/6/22,17:04:56,22.9023793,120.2729372,20.105,31,111,166,-103,-8,-997,-47.53959656,-21.72412109,-20.10556602,-0.101715893,-1.246612549,0.04913738,26,290
2020/6/22,17:04:59,22.9023975,120.2728745,20.01,-37,48,49,-103,16,-1002,-45.51786041,-28.15221024,-20.01079941,-0.097255498,-1.186385632,0.008805194,26,290
2020/6/22,17:05:02,22.9024158,120.2728165,19.941,109,104,-32,-77,-42,-998,-43.4741745,-34.10257339,-19.94134521,-0.101881072,-1.152933836,0.033221498,26,290
2020/6/22,17:05:05,22.9024347,120.2727674,20.121,12,66,39,-82,-27,-1002,-41.371315,-39.13424301,-20.12197304,-0.110077098,-1.311734319,-0.004226761,26,290
2020/6/22,17:05:08,22.9024524,120.2727091,19.988,-32,37,26,-63,-1,-1012,-39.40149689,-45.11827087,-19.98822784,-0.13662529,-1.268593431,0.002783602,26,290
2020/6/22,17:05:11,22.9024714,120.2726763,19.784,-53,-51,62,-80,154,-1002,-37.29177856,-48.47357941,-19.78452492,-0.175475165,0.051963039,-0.051057953,26,290
